
header: 
  seq: 0
  stamp: 
    secs: 1568011242
    nsecs: 584036278
  frame_id: "imu_link"
orientation: 
  x: -0.0053375187
  y: -0.9635396179
  z: 0.2654324551
  w: 0.0326629289
orientation_covariance: [0.002741552146694444, 0.0, 0.0, 0.0, 0.002741552146694444, 0.0, 0.0, 0.0, 0.007615422629706791]
angular_velocity: 
  x: -0.00235334911063
  y: 0.000878502657416
  z: 0.00106345672442
angular_velocity_covariance: [1.0966208586777776e-06, 0.0, 0.0, 0.0, 1.0966208586777776e-06, 0.0, 0.0, 0.0, 1.0966208586777776e-06]
linear_acceleration: 
  x: 0.2808471503
  y: 0.607935535032
  z: 10.1010315903
linear_acceleration_covariance: [0.0015387262937311438, 0.0, 0.0, 0.0, 0.0015387262937311438, 0.0, 0.0, 0.0, 0.0015387262937311438]
---
header: 
  seq: 1
  stamp: 
    secs: 1568011242
    nsecs: 637322996
  frame_id: "imu_link"
orientation: 
  x: -0.0053375187
  y: -0.9636403258
  z: 0.2650296235
  w: 0.0326629289
orientation_covariance: [0.002741552146694444, 0.0, 0.0, 0.0, 0.002741552146694444, 0.0, 0.0, 0.0, 0.007615422629706791]
angular_velocity: 
  x: 0.00123582859062
  y: 0.0014014935951
  z: -0.00113815624738
angular_velocity_covariance: [1.0966208586777776e-06, 0.0, 0.0, 0.0, 1.0966208586777776e-06, 0.0, 0.0, 0.0, 1.0966208586777776e-06]
linear_acceleration: 
  x: 0.274782936624
  y: 0.600916376985
  z: 10.0981428831
linear_acceleration_covariance: [0.0015387262937311438, 0.0, 0.0, 0.0, 0.0015387262937311438, 0.0, 0.0, 0.0, 0.0015387262937311438]
---
header: 
  seq: 2
  stamp: 
    secs: 1568011242
    nsecs: 687793621
  frame_id: "imu_link"
orientation: 
  x: -0.005371088
  y: -0.9637410337
  z: 0.2646939305
  w: 0.0326629289
orientation_covariance: [0.002741552146694444, 0.0, 0.0, 0.0, 0.002741552146694444, 0.0, 0.0, 0.0, 0.007615422629706791]
angular_velocity: 
  x: 0.000510093526808
  y: 0.000636798617155
  z: 0.000108492540483
angular_velocity_covariance: [1.0966208586777776e-06, 0.0, 0.0, 0.0, 1.0966208586777776e-06, 0.0, 0.0, 0.0, 1.0966208586777776e-06]
linear_acceleration: 
  x: 0.271800979938
  y: 0.606191723572
  z: 10.0937683213
linear_acceleration_covariance: [0.0015387262937311438, 0.0, 0.0, 0.0, 0.0015387262937311438, 0.0, 0.0, 0.0, 0.0015387262937311438]
---
header: 
  seq: 3
  stamp: 
    secs: 1568011242
    nsecs: 740986434
  frame_id: "imu_link"
orientation: 
  x: -0.005371088
  y: -0.9638417416
  z: 0.2642910989
  w: 0.0326629289
orientation_covariance: [0.002741552146694444, 0.0, 0.0, 0.0, 0.002741552146694444, 0.0, 0.0, 0.0, 0.007615422629706791]
angular_velocity: 
  x: 0.000395699054644
  y: -0.000221498508334
  z: -3.43505112176e-05
angular_velocity_covariance: [1.0966208586777776e-06, 0.0, 0.0, 0.0, 1.0966208586777776e-06, 0.0, 0.0, 0.0, 1.0966208586777776e-06]
linear_acceleration: 
  x: 0.280198184872
  y: 0.613060367233
  z: 10.1043832388
linear_acceleration_covariance: [0.0015387262937311438, 0.0, 0.0, 0.0, 0.0015387262937311438, 0.0, 0.0, 0.0, 0.0015387262937311438]
---
header: 
  seq: 4
  stamp: 
    secs: 1568011242
    nsecs: 794140965
  frame_id: "imu_link"
orientation: 
  x: -0.005371088
  y: -0.9639424495
  z: 0.2638882673
  w: 0.0326629289
orientation_covariance: [0.002741552146694444, 0.0, 0.0, 0.0, 0.002741552146694444, 0.0, 0.0, 0.0, 0.007615422629706791]
angular_velocity: 
  x: -0.00209606798368
  y: 0.00139812719304
  z: 0.000463831733406
angular_velocity_covariance: [1.0966208586777776e-06, 0.0, 0.0, 0.0, 1.0966208586777776e-06, 0.0, 0.0, 0.0, 1.0966208586777776e-06]
linear_acceleration: 
  x: 0.274985692655
  y: 0.61630417146
  z: 10.1077489158
linear_acceleration_covariance: [0.0015387262937311438, 0.0, 0.0, 0.0, 0.0015387262937311438, 0.0, 0.0, 0.0, 0.0015387262937311438]
---
header: 
  seq: 5
  stamp: 
    secs: 1568011242
    nsecs: 846004038
  frame_id: "imu_link"
orientation: 
  x: -0.0054046573
  y: -0.9640767267
  z: 0.263519005
  w: 0.0326964982
orientation_covariance: [0.002741552146694444, 0.0, 0.0, 0.0, 0.002741552146694444, 0.0, 0.0, 0.0, 0.007615422629706791]
angular_velocity: 
  x: -0.00102503835004
  y: -0.000477389440488
  z: 0.000566876139397
angular_velocity_covariance: [1.0966208586777776e-06, 0.0, 0.0, 0.0, 1.0966208586777776e-06, 0.0, 0.0, 0.0, 1.0966208586777776e-06]
linear_acceleration: 
  x: 0.279263936229
  y: 0.614520137587
  z: 10.103348635
linear_acceleration_covariance: [0.0015387262937311438, 0.0, 0.0, 0.0, 0.0015387262937311438, 0.0, 0.0, 0.0, 0.0015387262937311438]
---
header: 
  seq: 6
  stamp: 
    secs: 1568011242
    nsecs: 899042007
  frame_id: "imu_link"
orientation: 
  x: -0.0054046573
  y: -0.9641774346
  z: 0.2631161734
  w: 0.0326629289
orientation_covariance: [0.002741552146694444, 0.0, 0.0, 0.0, 0.002741552146694444, 0.0, 0.0, 0.0, 0.007615422629706791]
angular_velocity: 
  x: 0.000545077294625
  y: 0.000193957693847
  z: -0.00106745055579
angular_velocity_covariance: [1.0966208586777776e-06, 0.0, 0.0, 0.0, 1.0966208586777776e-06, 0.0, 0.0, 0.0, 1.0966208586777776e-06]
linear_acceleration: 
  x: 0.276660731461
  y: 0.61053998191
  z: 10.0935532172
linear_acceleration_covariance: [0.0015387262937311438, 0.0, 0.0, 0.0, 0.0015387262937311438, 0.0, 0.0, 0.0, 0.0015387262937311438]
---
header: 
  seq: 7
  stamp: 
    secs: 1568011242
    nsecs: 952077580
  frame_id: "imu_link"
orientation: 
  x: -0.0054382266
  y: -0.9642781425
  z: 0.2627469111
  w: 0.0326629289
orientation_covariance: [0.002741552146694444, 0.0, 0.0, 0.0, 0.002741552146694444, 0.0, 0.0, 0.0, 0.007615422629706791]
angular_velocity: 
  x: -0.000283937672477
  y: 0.00100315504613
  z: 0.000984465975086
angular_velocity_covariance: [1.0966208586777776e-06, 0.0, 0.0, 0.0, 1.0966208586777776e-06, 0.0, 0.0, 0.0, 1.0966208586777776e-06]
linear_acceleration: 
  x: 0.282226347965
  y: 0.606679908948
  z: 10.0946404279
linear_acceleration_covariance: [0.0015387262937311438, 0.0, 0.0, 0.0, 0.0015387262937311438, 0.0, 0.0, 0.0, 0.0015387262937311438]
---
header: 
  seq: 8
  stamp: 
    secs: 1568011243
    nsecs:   6299142
  frame_id: "imu_link"
orientation: 
  x: -0.0054382266
  y: -0.9643788504
  z: 0.2623440795
  w: 0.0326629289
orientation_covariance: [0.002741552146694444, 0.0, 0.0, 0.0, 0.002741552146694444, 0.0, 0.0, 0.0, 0.007615422629706791]
angular_velocity: 
  x: -0.00110166573896
  y: -0.000243548779959
  z: 0.000374785892988
angular_velocity_covariance: [1.0966208586777776e-06, 0.0, 0.0, 0.0, 1.0966208586777776e-06, 0.0, 0.0, 0.0, 1.0966208586777776e-06]
linear_acceleration: 
  x: 0.279970038672
  y: 0.610741532364
  z: 10.0920089104
linear_acceleration_covariance: [0.0015387262937311438, 0.0, 0.0, 0.0, 0.0015387262937311438, 0.0, 0.0, 0.0, 0.0015387262937311438]
---
header: 
  seq: 9
  stamp: 
    secs: 1568011243
    nsecs:  55639715
  frame_id: "imu_link"
orientation: 
  x: -0.0054382266
  y: -0.9644795583
  z: 0.2620083865
  w: 0.0326293596
orientation_covariance: [0.002741552146694444, 0.0, 0.0, 0.0, 0.002741552146694444, 0.0, 0.0, 0.0, 0.007615422629706791]
angular_velocity: 
  x: -0.000455558476538
  y: 0.00110750154674
  z: -0.000638954178181
angular_velocity_covariance: [1.0966208586777776e-06, 0.0, 0.0, 0.0, 1.0966208586777776e-06, 0.0, 0.0, 0.0, 1.0966208586777776e-06]
linear_acceleration: 
  x: 0.27284915555
  y: 0.606965740152
  z: 10.103187307
linear_acceleration_covariance: [0.0015387262937311438, 0.0, 0.0, 0.0, 0.0015387262937311438, 0.0, 0.0, 0.0, 0.0015387262937311438]
---
header: 
  seq: 10
  stamp: 
    secs: 1568011243
    nsecs: 109429767
  frame_id: "imu_link"
orientation: 
  x: -0.0054382266
  y: -0.9645802662
  z: 0.2616055549
  w: 0.0326293596
orientation_covariance: [0.002741552146694444, 0.0, 0.0, 0.0, 0.002741552146694444, 0.0, 0.0, 0.0, 0.007615422629706791]
angular_velocity: 
  x: 0.000825757828763
  y: -0.000472002651027
  z: -0.00148274835645
angular_velocity_covariance: [1.0966208586777776e-06, 0.0, 0.0, 0.0, 1.0966208586777776e-06, 0.0, 0.0, 0.0, 1.0966208586777776e-06]
linear_acceleration: 
  x: 0.275866695006
  y: 0.613866276788
  z: 10.0956773697
linear_acceleration_covariance: [0.0015387262937311438, 0.0, 0.0, 0.0, 0.0015387262937311438, 0.0, 0.0, 0.0, 0.0015387262937311438]
---
header: 
  seq: 11
  stamp: 
    secs: 1568011243
    nsecs: 162266850
  frame_id: "imu_link"
orientation: 
  x: -0.0054382266
  y: -0.9646809741
  z: 0.2612362926
  w: 0.0326293596
orientation_covariance: [0.002741552146694444, 0.0, 0.0, 0.0, 0.002741552146694444, 0.0, 0.0, 0.0, 0.007615422629706791]
angular_velocity: 
  x: -0.00112611883727
  y: 0.00179596093774
  z: -3.56436495265e-05
angular_velocity_covariance: [1.0966208586777776e-06, 0.0, 0.0, 0.0, 1.0966208586777776e-06, 0.0, 0.0, 0.0, 1.0966208586777776e-06]
linear_acceleration: 
  x: 0.276317744976
  y: 0.609357128801
  z: 10.0924508089
linear_acceleration_covariance: [0.0015387262937311438, 0.0, 0.0, 0.0, 0.0015387262937311438, 0.0, 0.0, 0.0, 0.0015387262937311438]
---
header: 
  seq: 12
  stamp: 
    secs: 1568011243
    nsecs: 214009142
  frame_id: "imu_link"
orientation: 
  x: -0.0054382266
  y: -0.964781682
  z: 0.2608670303
  w: 0.0326293596
orientation_covariance: [0.002741552146694444, 0.0, 0.0, 0.0, 0.002741552146694444, 0.0, 0.0, 0.0, 0.007615422629706791]
angular_velocity: 
  x: 0.000304315828738
  y: 0.000370430070661
  z: -0.000519231498298
angular_velocity_covariance: [1.0966208586777776e-06, 0.0, 0.0, 0.0, 1.0966208586777776e-06, 0.0, 0.0, 0.0, 1.0966208586777776e-06]
linear_acceleration: 
  x: 0.279506202286
  y: 0.609480134126
  z: 10.0993247863
linear_acceleration_covariance: [0.0015387262937311438, 0.0, 0.0, 0.0, 0.0015387262937311438, 0.0, 0.0, 0.0, 0.0015387262937311438]
---
header: 
  seq: 13
  stamp: 
    secs: 1568011243
    nsecs: 267030757
  frame_id: "imu_link"
orientation: 
  x: -0.0054382266
  y: -0.9648823899
  z: 0.260497768
  w: 0.0326293596
orientation_covariance: [0.002741552146694444, 0.0, 0.0, 0.0, 0.002741552146694444, 0.0, 0.0, 0.0, 0.007615422629706791]
angular_velocity: 
  x: -0.000808358661351
  y: -0.000657690257661
  z: 0.00030829327543
angular_velocity_covariance: [1.0966208586777776e-06, 0.0, 0.0, 0.0, 1.0966208586777776e-06, 0.0, 0.0, 0.0, 1.0966208586777776e-06]
linear_acceleration: 
  x: 0.276046234558
  y: 0.615051833311
  z: 10.0995854831
linear_acceleration_covariance: [0.0015387262937311438, 0.0, 0.0, 0.0, 0.0015387262937311438, 0.0, 0.0, 0.0, 0.0015387262937311438]
---
header: 
  seq: 14
  stamp: 
    secs: 1568011243
    nsecs: 320054350
  frame_id: "imu_link"
orientation: 
  x: -0.0054717959
  y: -0.9649830978
  z: 0.2601285057
  w: 0.0326293596
orientation_covariance: [0.002741552146694444, 0.0, 0.0, 0.0, 0.002741552146694444, 0.0, 0.0, 0.0, 0.007615422629706791]
angular_velocity: 
  x: -0.00142322800646
  y: -0.00152660768077
  z: -0.00138492087888
angular_velocity_covariance: [1.0966208586777776e-06, 0.0, 0.0, 0.0, 1.0966208586777776e-06, 0.0, 0.0, 0.0, 1.0966208586777776e-06]
linear_acceleration: 
  x: 0.27592284564
  y: 0.608146839696
  z: 10.0949455483
linear_acceleration_covariance: [0.0015387262937311438, 0.0, 0.0, 0.0, 0.0015387262937311438, 0.0, 0.0, 0.0, 0.0015387262937311438]
---
header: 
  seq: 15
  stamp: 
    secs: 1568011243
    nsecs: 372998986
  frame_id: "imu_link"
orientation: 
  x: -0.0055053652
  y: -0.9650838057
  z: 0.2597592434
  w: 0.0325957903
orientation_covariance: [0.002741552146694444, 0.0, 0.0, 0.0, 0.002741552146694444, 0.0, 0.0, 0.0, 0.007615422629706791]
angular_velocity: 
  x: -0.000152973539962
  y: 0.000730132660575
  z: -0.00176383759739
angular_velocity_covariance: [1.0966208586777776e-06, 0.0, 0.0, 0.0, 1.0966208586777776e-06, 0.0, 0.0, 0.0, 1.0966208586777776e-06]
linear_acceleration: 
  x: 0.277776419352
  y: 0.608190642305
  z: 10.1005405919
linear_acceleration_covariance: [0.0015387262937311438, 0.0, 0.0, 0.0, 0.0015387262937311438, 0.0, 0.0, 0.0, 0.0015387262937311438]
---
header: 
  seq: 16
  stamp: 
    secs: 1568011243
    nsecs: 426030131
  frame_id: "imu_link"
orientation: 
  x: -0.0055389345
  y: -0.9651845136
  z: 0.2593564118
  w: 0.0325957903
orientation_covariance: [0.002741552146694444, 0.0, 0.0, 0.0, 0.002741552146694444, 0.0, 0.0, 0.0, 0.007615422629706791]
angular_velocity: 
  x: -0.00222825804154
  y: 0.000248161815793
  z: -7.018717653e-05
angular_velocity_covariance: [1.0966208586777776e-06, 0.0, 0.0, 0.0, 1.0966208586777776e-06, 0.0, 0.0, 0.0, 1.0966208586777776e-06]
linear_acceleration: 
  x: 0.282646235611
  y: 0.614882614224
  z: 10.0941237106
linear_acceleration_covariance: [0.0015387262937311438, 0.0, 0.0, 0.0, 0.0015387262937311438, 0.0, 0.0, 0.0, 0.0015387262937311438]
---
header: 
  seq: 17
  stamp: 
    secs: 1568011243
    nsecs: 478967319
  frame_id: "imu_link"
orientation: 
  x: -0.0055389345
  y: -0.9652852215
  z: 0.2589871495
  w: 0.0325957903
orientation_covariance: [0.002741552146694444, 0.0, 0.0, 0.0, 0.002741552146694444, 0.0, 0.0, 0.0, 0.007615422629706791]
angular_velocity: 
  x: -0.000610859324108
  y: 0.00177472794969
  z: -0.000802681238832
angular_velocity_covariance: [1.0966208586777776e-06, 0.0, 0.0, 0.0, 1.0966208586777776e-06, 0.0, 0.0, 0.0, 1.0966208586777776e-06]
linear_acceleration: 
  x: 0.284181391023
  y: 0.613136355079
  z: 10.0974437949
linear_acceleration_covariance: [0.0015387262937311438, 0.0, 0.0, 0.0, 0.0015387262937311438, 0.0, 0.0, 0.0, 0.0015387262937311438]
---
header: 
  seq: 18
  stamp: 
    secs: 1568011243
    nsecs: 532031225
  frame_id: "imu_link"
orientation: 
  x: -0.0055389345
  y: -0.9653859294
  z: 0.2586178872
  w: 0.0325957903
orientation_covariance: [0.002741552146694444, 0.0, 0.0, 0.0, 0.002741552146694444, 0.0, 0.0, 0.0, 0.007615422629706791]
angular_velocity: 
  x: -0.0019664732075
  y: -0.00184842547129
  z: 0.000885334614883
angular_velocity_covariance: [1.0966208586777776e-06, 0.0, 0.0, 0.0, 1.0966208586777776e-06, 0.0, 0.0, 0.0, 1.0966208586777776e-06]
linear_acceleration: 
  x: 0.278471434145
  y: 0.616941008059
  z: 10.1003593901
linear_acceleration_covariance: [0.0015387262937311438, 0.0, 0.0, 0.0, 0.0015387262937311438, 0.0, 0.0, 0.0, 0.0015387262937311438]
---
header: 
  seq: 19
  stamp: 
    secs: 1568011243
    nsecs: 582597423
  frame_id: "imu_link"
orientation: 
  x: -0.0055725038
  y: -0.9654866373
  z: 0.2582486249
  w: 0.0325957903
orientation_covariance: [0.002741552146694444, 0.0, 0.0, 0.0, 0.002741552146694444, 0.0, 0.0, 0.0, 0.007615422629706791]
angular_velocity: 
  x: -0.000130113372506
  y: -0.000702185268644
  z: -0.000431292566717
angular_velocity_covariance: [1.0966208586777776e-06, 0.0, 0.0, 0.0, 1.0966208586777776e-06, 0.0, 0.0, 0.0, 1.0966208586777776e-06]
linear_acceleration: 
  x: 0.280559656862
  y: 0.611897716662
  z: 10.1010643235
linear_acceleration_covariance: [0.0015387262937311438, 0.0, 0.0, 0.0, 0.0015387262937311438, 0.0, 0.0, 0.0, 0.0015387262937311438]
---
header: 
  seq: 20
  stamp: 
    secs: 1568011243
    nsecs: 638477163
  frame_id: "imu_link"
orientation: 
  x: -0.0055725038
  y: -0.9655873452
  z: 0.2578457933
  w: 0.0325957903
orientation_covariance: [0.002741552146694444, 0.0, 0.0, 0.0, 0.002741552146694444, 0.0, 0.0, 0.0, 0.007615422629706791]
angular_velocity: 
  x: 0.00133616578543
  y: 0.00229885651749
  z: -0.000460963633748
angular_velocity_covariance: [1.0966208586777776e-06, 0.0, 0.0, 0.0, 1.0966208586777776e-06, 0.0, 0.0, 0.0, 1.0966208586777776e-06]
linear_acceleration: 
  x: 0.276905189475
  y: 0.610844846608
  z: 10.1011753826
linear_acceleration_covariance: [0.0015387262937311438, 0.0, 0.0, 0.0, 0.0015387262937311438, 0.0, 0.0, 0.0, 0.0015387262937311438]
---
header: 
  seq: 21
  stamp: 
    secs: 1568011243
    nsecs: 689165548
  frame_id: "imu_link"
orientation: 
  x: -0.0056060731
  y: -0.9656880531
  z: 0.257476531
  w: 0.0325957903
orientation_covariance: [0.002741552146694444, 0.0, 0.0, 0.0, 0.002741552146694444, 0.0, 0.0, 0.0, 0.007615422629706791]
angular_velocity: 
  x: -0.00104894477213
  y: 0.000170692712576
  z: -0.00103445564136
angular_velocity_covariance: [1.0966208586777776e-06, 0.0, 0.0, 0.0, 1.0966208586777776e-06, 0.0, 0.0, 0.0, 1.0966208586777776e-06]
linear_acceleration: 
  x: 0.277003991941
  y: 0.604835084799
  z: 10.0946182161
linear_acceleration_covariance: [0.0015387262937311438, 0.0, 0.0, 0.0, 0.0015387262937311438, 0.0, 0.0, 0.0, 0.0015387262937311438]
---
header: 
  seq: 22
  stamp: 
    secs: 1568011243
    nsecs: 742278621
  frame_id: "imu_link"
orientation: 
  x: -0.0056060731
  y: -0.965788761
  z: 0.2571072687
  w: 0.032562221
orientation_covariance: [0.002741552146694444, 0.0, 0.0, 0.0, 0.002741552146694444, 0.0, 0.0, 0.0, 0.007615422629706791]
angular_velocity: 
  x: -0.000411937705399
  y: -0.00232374589049
  z: -0.000833195954464
angular_velocity_covariance: [1.0966208586777776e-06, 0.0, 0.0, 0.0, 1.0966208586777776e-06, 0.0, 0.0, 0.0, 1.0966208586777776e-06]
linear_acceleration: 
  x: 0.277470056816
  y: 0.609795849012
  z: 10.08647115
linear_acceleration_covariance: [0.0015387262937311438, 0.0, 0.0, 0.0, 0.0015387262937311438, 0.0, 0.0, 0.0, 0.0015387262937311438]
---
header: 
  seq: 23
  stamp: 
    secs: 1568011243
    nsecs: 794105861
  frame_id: "imu_link"
orientation: 
  x: -0.0056060731
  y: -0.9658894689
  z: 0.2567380064
  w: 0.0325957903
orientation_covariance: [0.002741552146694444, 0.0, 0.0, 0.0, 0.002741552146694444, 0.0, 0.0, 0.0, 0.007615422629706791]
angular_velocity: 
  x: -0.00116604401727
  y: -0.00194974314631
  z: -0.000747641644371
angular_velocity_covariance: [1.0966208586777776e-06, 0.0, 0.0, 0.0, 1.0966208586777776e-06, 0.0, 0.0, 0.0, 1.0966208586777776e-06]
linear_acceleration: 
  x: 0.276845988367
  y: 0.616321487921
  z: 10.0915448
linear_acceleration_covariance: [0.0015387262937311438, 0.0, 0.0, 0.0, 0.0015387262937311438, 0.0, 0.0, 0.0, 0.0015387262937311438]
---
header: 
  seq: 24
  stamp: 
    secs: 1568011243
    nsecs: 846965392
  frame_id: "imu_link"
orientation: 
  x: -0.0056396424
  y: -0.9659901768
  z: 0.2563687441
  w: 0.0325957903
orientation_covariance: [0.002741552146694444, 0.0, 0.0, 0.0, 0.002741552146694444, 0.0, 0.0, 0.0, 0.007615422629706791]
angular_velocity: 
  x: 0.000181250202243
  y: 0.00104894106607
  z: -0.00036230408088
angular_velocity_covariance: [1.0966208586777776e-06, 0.0, 0.0, 0.0, 1.0966208586777776e-06, 0.0, 0.0, 0.0, 1.0966208586777776e-06]
linear_acceleration: 
  x: 0.272285201524
  y: 0.614875746092
  z: 10.1138033935
linear_acceleration_covariance: [0.0015387262937311438, 0.0, 0.0, 0.0, 0.0015387262937311438, 0.0, 0.0, 0.0, 0.0015387262937311438]
---
header: 
  seq: 25
  stamp: 
    secs: 1568011243
    nsecs: 900195288
  frame_id: "imu_link"
orientation: 
  x: -0.0056396424
  y: -0.9660908847
  z: 0.2559994818
  w: 0.0326293596
orientation_covariance: [0.002741552146694444, 0.0, 0.0, 0.0, 0.002741552146694444, 0.0, 0.0, 0.0, 0.007615422629706791]
angular_velocity: 
  x: 0.0014293701818
  y: -0.0014889112077
  z: -0.00169838976342
angular_velocity_covariance: [1.0966208586777776e-06, 0.0, 0.0, 0.0, 1.0966208586777776e-06, 0.0, 0.0, 0.0, 1.0966208586777776e-06]
linear_acceleration: 
  x: 0.281454358946
  y: 0.608887940386
  z: 10.1004716183
linear_acceleration_covariance: [0.0015387262937311438, 0.0, 0.0, 0.0, 0.0015387262937311438, 0.0, 0.0, 0.0, 0.0015387262937311438]
---
header: 
  seq: 26
  stamp: 
    secs: 1568011243
    nsecs: 950783777
  frame_id: "imu_link"
orientation: 
  x: -0.0056732117
  y: -0.9661915926
  z: 0.2556637888
  w: 0.0326293596
orientation_covariance: [0.002741552146694444, 0.0, 0.0, 0.0, 0.002741552146694444, 0.0, 0.0, 0.0, 0.007615422629706791]
angular_velocity: 
  x: -0.00223982692775
  y: -0.000763106378952
  z: 0.000197983481854
angular_velocity_covariance: [1.0966208586777776e-06, 0.0, 0.0, 0.0, 1.0966208586777776e-06, 0.0, 0.0, 0.0, 1.0966208586777776e-06]
linear_acceleration: 
  x: 0.278085795828
  y: 0.608966887374
  z: 10.1066242957
linear_acceleration_covariance: [0.0015387262937311438, 0.0, 0.0, 0.0, 0.0015387262937311438, 0.0, 0.0, 0.0, 0.0015387262937311438]
---
header: 
  seq: 27
  stamp: 
    secs: 1568011244
    nsecs:   2885183
  frame_id: "imu_link"
orientation: 
  x: -0.0056732117
  y: -0.9662923005
  z: 0.2552945265
  w: 0.0325957903
orientation_covariance: [0.002741552146694444, 0.0, 0.0, 0.0, 0.002741552146694444, 0.0, 0.0, 0.0, 0.007615422629706791]
angular_velocity: 
  x: -0.000580025302223
  y: -0.00201607159195
  z: 0.000486158529057
angular_velocity_covariance: [1.0966208586777776e-06, 0.0, 0.0, 0.0, 1.0966208586777776e-06, 0.0, 0.0, 0.0, 1.0966208586777776e-06]
linear_acceleration: 
  x: 0.271799500366
  y: 0.610706716779
  z: 10.1193715491
linear_acceleration_covariance: [0.0015387262937311438, 0.0, 0.0, 0.0, 0.0015387262937311438, 0.0, 0.0, 0.0, 0.0015387262937311438]
---
header: 
  seq: 28
  stamp: 
    secs: 1568011244
    nsecs:  56936381
  frame_id: "imu_link"
orientation: 
  x: -0.0056732117
  y: -0.9663930084
  z: 0.2548916949
  w: 0.0326293596
orientation_covariance: [0.002741552146694444, 0.0, 0.0, 0.0, 0.002741552146694444, 0.0, 0.0, 0.0, 0.007615422629706791]
angular_velocity: 
  x: 0.000654718193292
  y: 9.59151998245e-05
  z: -0.000655603096183
angular_velocity_covariance: [1.0966208586777776e-06, 0.0, 0.0, 0.0, 1.0966208586777776e-06, 0.0, 0.0, 0.0, 1.0966208586777776e-06]
linear_acceleration: 
  x: 0.270020197468
  y: 0.609560761614
  z: 10.0974180759
linear_acceleration_covariance: [0.0015387262937311438, 0.0, 0.0, 0.0, 0.0015387262937311438, 0.0, 0.0, 0.0, 0.0015387262937311438]
---
header: 
  seq: 29
  stamp: 
    secs: 1568011244
    nsecs: 110010287
  frame_id: "imu_link"
orientation: 
  x: -0.005706781
  y: -0.966460147
  z: 0.2545224326
  w: 0.0325957903
orientation_covariance: [0.002741552146694444, 0.0, 0.0, 0.0, 0.002741552146694444, 0.0, 0.0, 0.0, 0.007615422629706791]
angular_velocity: 
  x: -0.00118011845953
  y: -0.00141748842618
  z: -0.00189459672632
angular_velocity_covariance: [1.0966208586777776e-06, 0.0, 0.0, 0.0, 1.0966208586777776e-06, 0.0, 0.0, 0.0, 1.0966208586777776e-06]
linear_acceleration: 
  x: 0.277114174317
  y: 0.608159151188
  z: 10.1019937133
linear_acceleration_covariance: [0.0015387262937311438, 0.0, 0.0, 0.0, 0.0015387262937311438, 0.0, 0.0, 0.0, 0.0015387262937311438]
---
header: 
  seq: 30
  stamp: 
    secs: 1568011244
    nsecs: 162085965
  frame_id: "imu_link"
orientation: 
  x: -0.0057403503
  y: -0.9665608549
  z: 0.2541531703
  w: 0.0325957903
orientation_covariance: [0.002741552146694444, 0.0, 0.0, 0.0, 0.002741552146694444, 0.0, 0.0, 0.0, 0.007615422629706791]
angular_velocity: 
  x: -0.000616989666064
  y: -4.74186324462e-05
  z: -0.00228857265852
angular_velocity_covariance: [1.0966208586777776e-06, 0.0, 0.0, 0.0, 1.0966208586777776e-06, 0.0, 0.0, 0.0, 1.0966208586777776e-06]
linear_acceleration: 
  x: 0.273380303285
  y: 0.613652341777
  z: 10.098515808
linear_acceleration_covariance: [0.0015387262937311438, 0.0, 0.0, 0.0, 0.0015387262937311438, 0.0, 0.0, 0.0, 0.0015387262937311438]
---
header: 
  seq: 31
  stamp: 
    secs: 1568011244
    nsecs: 215162944
  frame_id: "imu_link"
orientation: 
  x: -0.0057403503
  y: -0.9666615628
  z: 0.253783908
  w: 0.0325957903
orientation_covariance: [0.002741552146694444, 0.0, 0.0, 0.0, 0.002741552146694444, 0.0, 0.0, 0.0, 0.007615422629706791]
angular_velocity: 
  x: 0.00100050579902
  y: -0.000600892820836
  z: -0.000685168410491
angular_velocity_covariance: [1.0966208586777776e-06, 0.0, 0.0, 0.0, 1.0966208586777776e-06, 0.0, 0.0, 0.0, 1.0966208586777776e-06]
linear_acceleration: 
  x: 0.279265342735
  y: 0.610629523357
  z: 10.1006691867
linear_acceleration_covariance: [0.0015387262937311438, 0.0, 0.0, 0.0, 0.0015387262937311438, 0.0, 0.0, 0.0, 0.0015387262937311438]
---
header: 
  seq: 32
  stamp: 
    secs: 1568011244
    nsecs: 268090548
  frame_id: "imu_link"
orientation: 
  x: -0.0057739196
  y: -0.9667622707
  z: 0.2534146457
  w: 0.0325957903
orientation_covariance: [0.002741552146694444, 0.0, 0.0, 0.0, 0.002741552146694444, 0.0, 0.0, 0.0, 0.007615422629706791]
angular_velocity: 
  x: -0.00142681989297
  y: 0.000751886122377
  z: -6.59175607151e-05
angular_velocity_covariance: [1.0966208586777776e-06, 0.0, 0.0, 0.0, 1.0966208586777776e-06, 0.0, 0.0, 0.0, 1.0966208586777776e-06]
linear_acceleration: 
  x: 0.277554684626
  y: 0.605655717
  z: 10.0970509962
linear_acceleration_covariance: [0.0015387262937311438, 0.0, 0.0, 0.0, 0.0015387262937311438, 0.0, 0.0, 0.0, 0.0015387262937311438]
---
header: 
  seq: 33
  stamp: 
    secs: 1568011244
    nsecs: 320998256
  frame_id: "imu_link"
orientation: 
  x: -0.0058074889
  y: -0.9668629786
  z: 0.2530453834
  w: 0.0326293596
orientation_covariance: [0.002741552146694444, 0.0, 0.0, 0.0, 0.002741552146694444, 0.0, 0.0, 0.0, 0.007615422629706791]
angular_velocity: 
  x: 0.00155211160939
  y: -0.00053921960809
  z: 2.76666416965e-05
angular_velocity_covariance: [1.0966208586777776e-06, 0.0, 0.0, 0.0, 1.0966208586777776e-06, 0.0, 0.0, 0.0, 1.0966208586777776e-06]
linear_acceleration: 
  x: 0.275248581374
  y: 0.608230389793
  z: 10.1035508796
linear_acceleration_covariance: [0.0015387262937311438, 0.0, 0.0, 0.0, 0.0015387262937311438, 0.0, 0.0, 0.0, 0.0015387262937311438]
---
header: 
  seq: 34
  stamp: 
    secs: 1568011244
    nsecs: 374176017
  frame_id: "imu_link"
orientation: 
  x: -0.0058074889
  y: -0.9669636865
  z: 0.2527096904
  w: 0.0325957903
orientation_covariance: [0.002741552146694444, 0.0, 0.0, 0.0, 0.002741552146694444, 0.0, 0.0, 0.0, 0.007615422629706791]
angular_velocity: 
  x: 0.000500502765917
  y: -2.13889269982e-05
  z: -0.00180481490807
angular_velocity_covariance: [1.0966208586777776e-06, 0.0, 0.0, 0.0, 1.0966208586777776e-06, 0.0, 0.0, 0.0, 1.0966208586777776e-06]
linear_acceleration: 
  x: 0.284285125392
  y: 0.605292144384
  z: 10.0884865815
linear_acceleration_covariance: [0.0015387262937311438, 0.0, 0.0, 0.0, 0.0015387262937311438, 0.0, 0.0, 0.0, 0.0015387262937311438]
---
header: 
  seq: 35
  stamp: 
    secs: 1568011244
    nsecs: 427471589
  frame_id: "imu_link"
orientation: 
  x: -0.0058410582
  y: -0.9670308251
  z: 0.2523404281
  w: 0.0325957903
orientation_covariance: [0.002741552146694444, 0.0, 0.0, 0.0, 0.002741552146694444, 0.0, 0.0, 0.0, 0.007615422629706791]
angular_velocity: 
  x: 7.72440982886e-05
  y: 0.00085756426855
  z: -0.00119109294587
angular_velocity_covariance: [1.0966208586777776e-06, 0.0, 0.0, 0.0, 1.0966208586777776e-06, 0.0, 0.0, 0.0, 1.0966208586777776e-06]
linear_acceleration: 
  x: 0.286075187147
  y: 0.605887297266
  z: 10.089596004
linear_acceleration_covariance: [0.0015387262937311438, 0.0, 0.0, 0.0, 0.0015387262937311438, 0.0, 0.0, 0.0, 0.0015387262937311438]
---
header: 
  seq: 36
  stamp: 
    secs: 1568011244
    nsecs: 478429975
  frame_id: "imu_link"
orientation: 
  x: -0.0058410582
  y: -0.967131533
  z: 0.2520047351
  w: 0.0325957903
orientation_covariance: [0.002741552146694444, 0.0, 0.0, 0.0, 0.002741552146694444, 0.0, 0.0, 0.0, 0.007615422629706791]
angular_velocity: 
  x: -0.000951074122213
  y: -9.67778094699e-05
  z: 0.0008046277001
angular_velocity_covariance: [1.0966208586777776e-06, 0.0, 0.0, 0.0, 1.0966208586777776e-06, 0.0, 0.0, 0.0, 1.0966208586777776e-06]
linear_acceleration: 
  x: 0.280331547195
  y: 0.60650411399
  z: 10.0915132358
linear_acceleration_covariance: [0.0015387262937311438, 0.0, 0.0, 0.0, 0.0015387262937311438, 0.0, 0.0, 0.0, 0.0015387262937311438]
---
header: 
  seq: 37
  stamp: 
    secs: 1568011244
    nsecs: 530050964
  frame_id: "imu_link"
orientation: 
  x: -0.0058746275
  y: -0.9672322409
  z: 0.2516354728
  w: 0.0325957903
orientation_covariance: [0.002741552146694444, 0.0, 0.0, 0.0, 0.002741552146694444, 0.0, 0.0, 0.0, 0.007615422629706791]
angular_velocity: 
  x: -0.00166945376396
  y: -0.00119730456105
  z: -0.000899402685319
angular_velocity_covariance: [1.0966208586777776e-06, 0.0, 0.0, 0.0, 1.0966208586777776e-06, 0.0, 0.0, 0.0, 1.0966208586777776e-06]
linear_acceleration: 
  x: 0.278820101452
  y: 0.606530125214
  z: 10.0931276853
linear_acceleration_covariance: [0.0015387262937311438, 0.0, 0.0, 0.0, 0.0015387262937311438, 0.0, 0.0, 0.0, 0.0015387262937311438]
---
header: 
  seq: 38
  stamp: 
    secs: 1568011244
    nsecs: 586845183
  frame_id: "imu_link"
orientation: 
  x: -0.0058746275
  y: -0.9673329488
  z: 0.2512997798
  w: 0.0325957903
orientation_covariance: [0.002741552146694444, 0.0, 0.0, 0.0, 0.002741552146694444, 0.0, 0.0, 0.0, 0.007615422629706791]
angular_velocity: 
  x: 0.000933339914052
  y: 0.00063476353556
  z: -0.0011289168469
angular_velocity_covariance: [1.0966208586777776e-06, 0.0, 0.0, 0.0, 1.0966208586777776e-06, 0.0, 0.0, 0.0, 1.0966208586777776e-06]
linear_acceleration: 
  x: 0.280164136472
  y: 0.603524878983
  z: 10.0891926839
linear_acceleration_covariance: [0.0015387262937311438, 0.0, 0.0, 0.0, 0.0015387262937311438, 0.0, 0.0, 0.0, 0.0015387262937311438]
---
header: 
  seq: 39
  stamp: 
    secs: 1568011244
    nsecs: 635877944
  frame_id: "imu_link"
orientation: 
  x: -0.0059081968
  y: -0.9674000874
  z: 0.2509305175
  w: 0.0325957903
orientation_covariance: [0.002741552146694444, 0.0, 0.0, 0.0, 0.002741552146694444, 0.0, 0.0, 0.0, 0.007615422629706791]
angular_velocity: 
  x: -0.000308852272683
  y: 0.000498460597297
  z: 0.000648060810715
angular_velocity_covariance: [1.0966208586777776e-06, 0.0, 0.0, 0.0, 1.0966208586777776e-06, 0.0, 0.0, 0.0, 1.0966208586777776e-06]
linear_acceleration: 
  x: 0.274214945744
  y: 0.604946399686
  z: 10.09645946
linear_acceleration_covariance: [0.0015387262937311438, 0.0, 0.0, 0.0, 0.0015387262937311438, 0.0, 0.0, 0.0, 0.0015387262937311438]
---
header: 
  seq: 40
  stamp: 
    secs: 1568011244
    nsecs: 689211694
  frame_id: "imu_link"
orientation: 
  x: -0.0059417661
  y: -0.9675007953
  z: 0.2505612552
  w: 0.0325957903
orientation_covariance: [0.002741552146694444, 0.0, 0.0, 0.0, 0.002741552146694444, 0.0, 0.0, 0.0, 0.007615422629706791]
angular_velocity: 
  x: 0.00123076130247
  y: 6.64598034922e-05
  z: -3.04659273139e-05
angular_velocity_covariance: [1.0966208586777776e-06, 0.0, 0.0, 0.0, 1.0966208586777776e-06, 0.0, 0.0, 0.0, 1.0966208586777776e-06]
linear_acceleration: 
  x: 0.275261696584
  y: 0.608301043877
  z: 10.1040909778
linear_acceleration_covariance: [0.0015387262937311438, 0.0, 0.0, 0.0, 0.0015387262937311438, 0.0, 0.0, 0.0, 0.0015387262937311438]
---
header: 
  seq: 41
  stamp: 
    secs: 1568011244
    nsecs: 742292423
  frame_id: "imu_link"
orientation: 
  x: -0.0059417661
  y: -0.9676015032
  z: 0.2502255622
  w: 0.0325957903
orientation_covariance: [0.002741552146694444, 0.0, 0.0, 0.0, 0.002741552146694444, 0.0, 0.0, 0.0, 0.007615422629706791]
angular_velocity: 
  x: -0.000550951463372
  y: -0.000432198080499
  z: 0.000515700599222
angular_velocity_covariance: [1.0966208586777776e-06, 0.0, 0.0, 0.0, 1.0966208586777776e-06, 0.0, 0.0, 0.0, 1.0966208586777776e-06]
linear_acceleration: 
  x: 0.279765602141
  y: 0.612884974133
  z: 10.1023140313
linear_acceleration_covariance: [0.0015387262937311438, 0.0, 0.0, 0.0, 0.0015387262937311438, 0.0, 0.0, 0.0, 0.0015387262937311438]
---
header: 
  seq: 42
  stamp: 
    secs: 1568011244
    nsecs: 795213048
  frame_id: "imu_link"
orientation: 
  x: -0.0059417661
  y: -0.9677022111
  z: 0.2498898692
  w: 0.032562221
orientation_covariance: [0.002741552146694444, 0.0, 0.0, 0.0, 0.002741552146694444, 0.0, 0.0, 0.0, 0.007615422629706791]
angular_velocity: 
  x: -0.000938435615324
  y: -0.00102496078287
  z: 0.000414761592422
angular_velocity_covariance: [1.0966208586777776e-06, 0.0, 0.0, 0.0, 1.0966208586777776e-06, 0.0, 0.0, 0.0, 1.0966208586777776e-06]
linear_acceleration: 
  x: 0.282830378273
  y: 0.613154913649
  z: 10.1016430002
linear_acceleration_covariance: [0.0015387262937311438, 0.0, 0.0, 0.0, 0.0015387262937311438, 0.0, 0.0, 0.0, 0.0015387262937311438]
---
header: 
  seq: 43
  stamp: 
    secs: 1568011244
    nsecs: 844425600
  frame_id: "imu_link"
orientation: 
  x: -0.0059753354
  y: -0.9677693497
  z: 0.2495206069
  w: 0.0325957903
orientation_covariance: [0.002741552146694444, 0.0, 0.0, 0.0, 0.002741552146694444, 0.0, 0.0, 0.0, 0.007615422629706791]
angular_velocity: 
  x: -0.000398606425526
  y: 0.000288004552228
  z: -0.000270479492588
angular_velocity_covariance: [1.0966208586777776e-06, 0.0, 0.0, 0.0, 1.0966208586777776e-06, 0.0, 0.0, 0.0, 1.0966208586777776e-06]
linear_acceleration: 
  x: 0.279536378229
  y: 0.607839929171
  z: 10.1175396575
linear_acceleration_covariance: [0.0015387262937311438, 0.0, 0.0, 0.0, 0.0015387262937311438, 0.0, 0.0, 0.0, 0.0015387262937311438]
---
header: 
  seq: 44
  stamp: 
    secs: 1568011244
    nsecs: 897555964
  frame_id: "imu_link"
orientation: 
  x: -0.0059753354
  y: -0.9678700576
  z: 0.2491513446
  w: 0.032562221
orientation_covariance: [0.002741552146694444, 0.0, 0.0, 0.0, 0.002741552146694444, 0.0, 0.0, 0.0, 0.007615422629706791]
angular_velocity: 
  x: -0.000629513220102
  y: -0.000369112891732
  z: 0.000598748963155
angular_velocity_covariance: [1.0966208586777776e-06, 0.0, 0.0, 0.0, 1.0966208586777776e-06, 0.0, 0.0, 0.0, 1.0966208586777776e-06]
linear_acceleration: 
  x: 0.279346408615
  y: 0.602223879387
  z: 10.1121024348
linear_acceleration_covariance: [0.0015387262937311438, 0.0, 0.0, 0.0, 0.0015387262937311438, 0.0, 0.0, 0.0, 0.0015387262937311438]
---
header: 
  seq: 45
  stamp: 
    secs: 1568011244
    nsecs: 950710808
  frame_id: "imu_link"
orientation: 
  x: -0.0060089047
  y: -0.9679707655
  z: 0.248748513
  w: 0.032562221
orientation_covariance: [0.002741552146694444, 0.0, 0.0, 0.0, 0.002741552146694444, 0.0, 0.0, 0.0, 0.007615422629706791]
angular_velocity: 
  x: 0.000837520405325
  y: -0.000539820444799
  z: -0.00260660948851
angular_velocity_covariance: [1.0966208586777776e-06, 0.0, 0.0, 0.0, 1.0966208586777776e-06, 0.0, 0.0, 0.0, 1.0966208586777776e-06]
linear_acceleration: 
  x: 0.276050490608
  y: 0.608227028792
  z: 10.1012548776
linear_acceleration_covariance: [0.0015387262937311438, 0.0, 0.0, 0.0, 0.0015387262937311438, 0.0, 0.0, 0.0, 0.0015387262937311438]
---
header: 
  seq: 46
  stamp: 
    secs: 1568011245
    nsecs:   3768256
  frame_id: "imu_link"
orientation: 
  x: -0.0060089047
  y: -0.9680714734
  z: 0.2483792507
  w: 0.032562221
orientation_covariance: [0.002741552146694444, 0.0, 0.0, 0.0, 0.002741552146694444, 0.0, 0.0, 0.0, 0.007615422629706791]
angular_velocity: 
  x: -0.00132445840964
  y: -0.00131475204572
  z: 0.00202937049257
angular_velocity_covariance: [1.0966208586777776e-06, 0.0, 0.0, 0.0, 1.0966208586777776e-06, 0.0, 0.0, 0.0, 1.0966208586777776e-06]
linear_acceleration: 
  x: 0.281881644447
  y: 0.601914776906
  z: 10.1069913754
linear_acceleration_covariance: [0.0015387262937311438, 0.0, 0.0, 0.0, 0.0015387262937311438, 0.0, 0.0, 0.0, 0.0015387262937311438]
---
header: 
  seq: 47
  stamp: 
    secs: 1568011245
    nsecs:  56867058
  frame_id: "imu_link"
orientation: 
  x: -0.006042474
  y: -0.9681721813
  z: 0.2480435577
  w: 0.032562221
orientation_covariance: [0.002741552146694444, 0.0, 0.0, 0.0, 0.002741552146694444, 0.0, 0.0, 0.0, 0.007615422629706791]
angular_velocity: 
  x: -0.000111125297259
  y: -0.00157015712652
  z: -0.0011469611937
angular_velocity_covariance: [1.0966208586777776e-06, 0.0, 0.0, 0.0, 1.0966208586777776e-06, 0.0, 0.0, 0.0, 1.0966208586777776e-06]
linear_acceleration: 
  x: 0.2786269535
  y: 0.603823460071
  z: 10.1017026214
linear_acceleration_covariance: [0.0015387262937311438, 0.0, 0.0, 0.0, 0.0015387262937311438, 0.0, 0.0, 0.0, 0.0015387262937311438]
---
header: 
  seq: 48
  stamp: 
    secs: 1568011245
    nsecs: 110032579
  frame_id: "imu_link"
orientation: 
  x: -0.006042474
  y: -0.9682728892
  z: 0.2476407261
  w: 0.032562221
orientation_covariance: [0.002741552146694444, 0.0, 0.0, 0.0, 0.002741552146694444, 0.0, 0.0, 0.0, 0.007615422629706791]
angular_velocity: 
  x: -0.000810135944271
  y: 0.000521467649856
  z: 0.000623577218685
angular_velocity_covariance: [1.0966208586777776e-06, 0.0, 0.0, 0.0, 1.0966208586777776e-06, 0.0, 0.0, 0.0, 1.0966208586777776e-06]
linear_acceleration: 
  x: 0.268973099568
  y: 0.600439187928
  z: 10.1007989505
linear_acceleration_covariance: [0.0015387262937311438, 0.0, 0.0, 0.0, 0.0015387262937311438, 0.0, 0.0, 0.0, 0.0015387262937311438]
---
header: 
  seq: 49
  stamp: 
    secs: 1568011245
    nsecs: 162049506
  frame_id: "imu_link"
orientation: 
  x: -0.006042474
  y: -0.9683400278
  z: 0.2472714638
  w: 0.0325286517
orientation_covariance: [0.002741552146694444, 0.0, 0.0, 0.0, 0.002741552146694444, 0.0, 0.0, 0.0, 0.007615422629706791]
angular_velocity: 
  x: 0.000284778167678
  y: -0.00116488707664
  z: -0.00112814585657
angular_velocity_covariance: [1.0966208586777776e-06, 0.0, 0.0, 0.0, 1.0966208586777776e-06, 0.0, 0.0, 0.0, 1.0966208586777776e-06]
linear_acceleration: 
  x: 0.274404148173
  y: 0.609083572556
  z: 10.1015915622
linear_acceleration_covariance: [0.0015387262937311438, 0.0, 0.0, 0.0, 0.0015387262937311438, 0.0, 0.0, 0.0, 0.0015387262937311438]
---
header: 
  seq: 50
  stamp: 
    secs: 1568011245
    nsecs: 214981641
  frame_id: "imu_link"
orientation: 
  x: -0.006042474
  y: -0.9684407357
  z: 0.2469357708
  w: 0.032562221
orientation_covariance: [0.002741552146694444, 0.0, 0.0, 0.0, 0.002741552146694444, 0.0, 0.0, 0.0, 0.007615422629706791]
angular_velocity: 
  x: 0.00126841564349
  y: 1.6516259778e-05
  z: -0.000770009986896
angular_velocity_covariance: [1.0966208586777776e-06, 0.0, 0.0, 0.0, 1.0966208586777776e-06, 0.0, 0.0, 0.0, 1.0966208586777776e-06]
linear_acceleration: 
  x: 0.277769916546
  y: 0.608249971277
  z: 10.0970919127
linear_acceleration_covariance: [0.0015387262937311438, 0.0, 0.0, 0.0, 0.0015387262937311438, 0.0, 0.0, 0.0, 0.0015387262937311438]
---
header: 
  seq: 51
  stamp: 
    secs: 1568011245
    nsecs: 268013464
  frame_id: "imu_link"
orientation: 
  x: -0.006042474
  y: -0.9685414436
  z: 0.2466000778
  w: 0.0325286517
orientation_covariance: [0.002741552146694444, 0.0, 0.0, 0.0, 0.002741552146694444, 0.0, 0.0, 0.0, 0.007615422629706791]
angular_velocity: 
  x: -0.00109658531705
  y: 0.00137672346619
  z: 0.000604880085334
angular_velocity_covariance: [1.0966208586777776e-06, 0.0, 0.0, 0.0, 1.0966208586777776e-06, 0.0, 0.0, 0.0, 1.0966208586777776e-06]
linear_acceleration: 
  x: 0.274616000826
  y: 0.611219488607
  z: 10.1064688129
linear_acceleration_covariance: [0.0015387262937311438, 0.0, 0.0, 0.0, 0.0015387262937311438, 0.0, 0.0, 0.0, 0.0015387262937311438]
---
header: 
  seq: 52
  stamp: 
    secs: 1568011245
    nsecs: 321057058
  frame_id: "imu_link"
orientation: 
  x: -0.0060760433
  y: -0.9686421515
  z: 0.2462308155
  w: 0.0325286517
orientation_covariance: [0.002741552146694444, 0.0, 0.0, 0.0, 0.002741552146694444, 0.0, 0.0, 0.0, 0.007615422629706791]
angular_velocity: 
  x: 0.00162135405781
  y: -0.00188344369896
  z: 0.00074675531107
angular_velocity_covariance: [1.0966208586777776e-06, 0.0, 0.0, 0.0, 1.0966208586777776e-06, 0.0, 0.0, 0.0, 1.0966208586777776e-06]
linear_acceleration: 
  x: 0.281271695855
  y: 0.608720620996
  z: 10.1036385579
linear_acceleration_covariance: [0.0015387262937311438, 0.0, 0.0, 0.0, 0.0015387262937311438, 0.0, 0.0, 0.0, 0.0015387262937311438]
---
header: 
  seq: 53
  stamp: 
    secs: 1568011245
    nsecs: 371702422
  frame_id: "imu_link"
orientation: 
  x: -0.0060760433
  y: -0.9687092901
  z: 0.2458951225
  w: 0.0324950824
orientation_covariance: [0.002741552146694444, 0.0, 0.0, 0.0, 0.002741552146694444, 0.0, 0.0, 0.0, 0.007615422629706791]
angular_velocity: 
  x: -0.00104133961369
  y: 0.00077920094853
  z: -2.69389862439e-06
angular_velocity_covariance: [1.0966208586777776e-06, 0.0, 0.0, 0.0, 1.0966208586777776e-06, 0.0, 0.0, 0.0, 1.0966208586777776e-06]
linear_acceleration: 
  x: 0.283563880179
  y: 0.606520371005
  z: 10.0947152467
linear_acceleration_covariance: [0.0015387262937311438, 0.0, 0.0, 0.0, 0.0015387262937311438, 0.0, 0.0, 0.0, 0.0015387262937311438]
---
header: 
  seq: 54
  stamp: 
    secs: 1568011245
    nsecs: 423497527
  frame_id: "imu_link"
orientation: 
  x: -0.0060760433
  y: -0.968809998
  z: 0.2455594295
  w: 0.0324950824
orientation_covariance: [0.002741552146694444, 0.0, 0.0, 0.0, 0.002741552146694444, 0.0, 0.0, 0.0, 0.007615422629706791]
angular_velocity: 
  x: 0.000625487464603
  y: 0.00060782211112
  z: 0.000395509655517
angular_velocity_covariance: [1.0966208586777776e-06, 0.0, 0.0, 0.0, 1.0966208586777776e-06, 0.0, 0.0, 0.0, 1.0966208586777776e-06]
linear_acceleration: 
  x: 0.277807928735
  y: 0.607641009065
  z: 10.0978845244
linear_acceleration_covariance: [0.0015387262937311438, 0.0, 0.0, 0.0, 0.0015387262937311438, 0.0, 0.0, 0.0, 0.0015387262937311438]
---
header: 
  seq: 55
  stamp: 
    secs: 1568011245
    nsecs: 477781745
  frame_id: "imu_link"
orientation: 
  x: -0.0060760433
  y: -0.9688771366
  z: 0.2452237365
  w: 0.0324950824
orientation_covariance: [0.002741552146694444, 0.0, 0.0, 0.0, 0.002741552146694444, 0.0, 0.0, 0.0, 0.007615422629706791]
angular_velocity: 
  x: 0.000620650212192
  y: -0.0011797880351
  z: 0.000171325164571
angular_velocity_covariance: [1.0966208586777776e-06, 0.0, 0.0, 0.0, 1.0966208586777776e-06, 0.0, 0.0, 0.0, 1.0966208586777776e-06]
linear_acceleration: 
  x: 0.277840406232
  y: 0.60656369869
  z: 10.094322448
linear_acceleration_covariance: [0.0015387262937311438, 0.0, 0.0, 0.0, 0.0015387262937311438, 0.0, 0.0, 0.0, 0.0015387262937311438]
---
header: 
  seq: 56
  stamp: 
    secs: 1568011245
    nsecs: 529489089
  frame_id: "imu_link"
orientation: 
  x: -0.0061096126
  y: -0.9689778445
  z: 0.2448544742
  w: 0.0324950824
orientation_covariance: [0.002741552146694444, 0.0, 0.0, 0.0, 0.002741552146694444, 0.0, 0.0, 0.0, 0.007615422629706791]
angular_velocity: 
  x: -5.65456889422e-05
  y: 0.00117538445662
  z: -0.000257664557779
angular_velocity_covariance: [1.0966208586777776e-06, 0.0, 0.0, 0.0, 1.0966208586777776e-06, 0.0, 0.0, 0.0, 1.0966208586777776e-06]
linear_acceleration: 
  x: 0.280686863438
  y: 0.604701923406
  z: 10.1007194556
linear_acceleration_covariance: [0.0015387262937311438, 0.0, 0.0, 0.0, 0.0015387262937311438, 0.0, 0.0, 0.0, 0.0015387262937311438]
---
header: 
  seq: 57
  stamp: 
    secs: 1568011245
    nsecs: 582605860
  frame_id: "imu_link"
orientation: 
  x: -0.0061096126
  y: -0.9690785524
  z: 0.2444852119
  w: 0.0324615131
orientation_covariance: [0.002741552146694444, 0.0, 0.0, 0.0, 0.002741552146694444, 0.0, 0.0, 0.0, 0.007615422629706791]
angular_velocity: 
  x: 9.07269689837e-05
  y: -0.000616476409384
  z: -0.000651922459314
angular_velocity_covariance: [1.0966208586777776e-06, 0.0, 0.0, 0.0, 1.0966208586777776e-06, 0.0, 0.0, 0.0, 1.0966208586777776e-06]
linear_acceleration: 
  x: 0.272266259362
  y: 0.603288147618
  z: 10.1049689297
linear_acceleration_covariance: [0.0015387262937311438, 0.0, 0.0, 0.0, 0.0015387262937311438, 0.0, 0.0, 0.0, 0.0015387262937311438]
---
header: 
  seq: 58
  stamp: 
    secs: 1568011245
    nsecs: 635626693
  frame_id: "imu_link"
orientation: 
  x: -0.0061096126
  y: -0.969145691
  z: 0.2441159496
  w: 0.0324615131
orientation_covariance: [0.002741552146694444, 0.0, 0.0, 0.0, 0.002741552146694444, 0.0, 0.0, 0.0, 0.007615422629706791]
angular_velocity: 
  x: 0.00067209733498
  y: -0.000469031236843
  z: -0.00059485961664
angular_velocity_covariance: [1.0966208586777776e-06, 0.0, 0.0, 0.0, 1.0966208586777776e-06, 0.0, 0.0, 0.0, 1.0966208586777776e-06]
linear_acceleration: 
  x: 0.276368415717
  y: 0.599330970958
  z: 10.0968873301
linear_acceleration_covariance: [0.0015387262937311438, 0.0, 0.0, 0.0, 0.0015387262937311438, 0.0, 0.0, 0.0, 0.0015387262937311438]
---
header: 
  seq: 59
  stamp: 
    secs: 1568011245
    nsecs: 689063516
  frame_id: "imu_link"
orientation: 
  x: -0.0061431819
  y: -0.9692463989
  z: 0.2437466873
  w: 0.0324615131
orientation_covariance: [0.002741552146694444, 0.0, 0.0, 0.0, 0.002741552146694444, 0.0, 0.0, 0.0, 0.007615422629706791]
angular_velocity: 
  x: -0.000234162274942
  y: -0.00140036006116
  z: 0.00202964122994
angular_velocity_covariance: [1.0966208586777776e-06, 0.0, 0.0, 0.0, 1.0966208586777776e-06, 0.0, 0.0, 0.0, 1.0966208586777776e-06]
linear_acceleration: 
  x: 0.278252384567
  y: 0.606954524639
  z: 10.0889074372
linear_acceleration_covariance: [0.0015387262937311438, 0.0, 0.0, 0.0, 0.0015387262937311438, 0.0, 0.0, 0.0, 0.0015387262937311438]
---
header: 
  seq: 60
  stamp: 
    secs: 1568011245
    nsecs: 738860339
  frame_id: "imu_link"
orientation: 
  x: -0.0061431819
  y: -0.9693135375
  z: 0.2434781329
  w: 0.0324615131
orientation_covariance: [0.002741552146694444, 0.0, 0.0, 0.0, 0.002741552146694444, 0.0, 0.0, 0.0, 0.007615422629706791]
angular_velocity: 
  x: 0.00093428684467
  y: -0.000506984273232
  z: 0.000159297182161
angular_velocity_covariance: [1.0966208586777776e-06, 0.0, 0.0, 0.0, 1.0966208586777776e-06, 0.0, 0.0, 0.0, 1.0966208586777776e-06]
linear_acceleration: 
  x: 0.274663383631
  y: 0.607525419862
  z: 10.0955791701
linear_acceleration_covariance: [0.0015387262937311438, 0.0, 0.0, 0.0, 0.0015387262937311438, 0.0, 0.0, 0.0, 0.0015387262937311438]
---
header: 
  seq: 61
  stamp: 
    secs: 1568011245
    nsecs: 791226120
  frame_id: "imu_link"
orientation: 
  x: -0.0061431819
  y: -0.9694142454
  z: 0.2431088706
  w: 0.0324615131
orientation_covariance: [0.002741552146694444, 0.0, 0.0, 0.0, 0.002741552146694444, 0.0, 0.0, 0.0, 0.007615422629706791]
angular_velocity: 
  x: 8.96333239369e-05
  y: 0.000671939209791
  z: -0.000454479883292
angular_velocity_covariance: [1.0966208586777776e-06, 0.0, 0.0, 0.0, 1.0966208586777776e-06, 0.0, 0.0, 0.0, 1.0966208586777776e-06]
linear_acceleration: 
  x: 0.27338938164
  y: 0.610263028132
  z: 10.0946065256
linear_acceleration_covariance: [0.0015387262937311438, 0.0, 0.0, 0.0, 0.0015387262937311438, 0.0, 0.0, 0.0, 0.0015387262937311438]
---
header: 
  seq: 62
  stamp: 
    secs: 1568011245
    nsecs: 844159453
  frame_id: "imu_link"
orientation: 
  x: -0.0061431819
  y: -0.969481384
  z: 0.2427731776
  w: 0.0324279438
orientation_covariance: [0.002741552146694444, 0.0, 0.0, 0.0, 0.002741552146694444, 0.0, 0.0, 0.0, 0.007615422629706791]
angular_velocity: 
  x: -0.000691557916512
  y: -0.000476575017739
  z: 0.00080456814308
angular_velocity_covariance: [1.0966208586777776e-06, 0.0, 0.0, 0.0, 1.0966208586777776e-06, 0.0, 0.0, 0.0, 1.0966208586777776e-06]
linear_acceleration: 
  x: 0.277496195904
  y: 0.60617703746
  z: 10.0894592259
linear_acceleration_covariance: [0.0015387262937311438, 0.0, 0.0, 0.0, 0.0015387262937311438, 0.0, 0.0, 0.0, 0.0015387262937311438]
---
header: 
  seq: 63
  stamp: 
    secs: 1568011245
    nsecs: 897154558
  frame_id: "imu_link"
orientation: 
  x: -0.0061767512
  y: -0.9695820919
  z: 0.2424374846
  w: 0.0324615131
orientation_covariance: [0.002741552146694444, 0.0, 0.0, 0.0, 0.002741552146694444, 0.0, 0.0, 0.0, 0.007615422629706791]
angular_velocity: 
  x: 0.00183531954582
  y: -0.00122045559726
  z: -0.00307498956426
angular_velocity_covariance: [1.0966208586777776e-06, 0.0, 0.0, 0.0, 1.0966208586777776e-06, 0.0, 0.0, 0.0, 1.0966208586777776e-06]
linear_acceleration: 
  x: 0.271911838167
  y: 0.607977657141
  z: 10.1018943446
linear_acceleration_covariance: [0.0015387262937311438, 0.0, 0.0, 0.0, 0.0015387262937311438, 0.0, 0.0, 0.0, 0.0015387262937311438]
---
header: 
  seq: 64
  stamp: 
    secs: 1568011245
    nsecs: 950250756
  frame_id: "imu_link"
orientation: 
  x: -0.0061767512
  y: -0.9696827998
  z: 0.2421017916
  w: 0.0324615131
orientation_covariance: [0.002741552146694444, 0.0, 0.0, 0.0, 0.002741552146694444, 0.0, 0.0, 0.0, 0.007615422629706791]
angular_velocity: 
  x: -0.000692505952446
  y: -0.002305944063
  z: 0.000962900351966
angular_velocity_covariance: [1.0966208586777776e-06, 0.0, 0.0, 0.0, 1.0966208586777776e-06, 0.0, 0.0, 0.0, 1.0966208586777776e-06]
linear_acceleration: 
  x: 0.276282399668
  y: 0.607545951193
  z: 10.0910666611
linear_acceleration_covariance: [0.0015387262937311438, 0.0, 0.0, 0.0, 0.0015387262937311438, 0.0, 0.0, 0.0, 0.0015387262937311438]
---
header: 
  seq: 65
  stamp: 
    secs: 1568011246
    nsecs:   3886224
  frame_id: "imu_link"
orientation: 
  x: -0.0062103205
  y: -0.9697499384
  z: 0.2417660986
  w: 0.0324279438
orientation_covariance: [0.002741552146694444, 0.0, 0.0, 0.0, 0.002741552146694444, 0.0, 0.0, 0.0, 0.007615422629706791]
angular_velocity: 
  x: -0.00154443603583
  y: -0.00058076332814
  z: 0.000515546180092
angular_velocity_covariance: [1.0966208586777776e-06, 0.0, 0.0, 0.0, 1.0966208586777776e-06, 0.0, 0.0, 0.0, 1.0966208586777776e-06]
linear_acceleration: 
  x: 0.271912258292
  y: 0.604843231573
  z: 10.0921725765
linear_acceleration_covariance: [0.0015387262937311438, 0.0, 0.0, 0.0, 0.0015387262937311438, 0.0, 0.0, 0.0, 0.0015387262937311438]
---
header: 
  seq: 66
  stamp: 
    secs: 1568011246
    nsecs:  56426849
  frame_id: "imu_link"
orientation: 
  x: -0.0062438898
  y: -0.969817077
  z: 0.2414304056
  w: 0.0324279438
orientation_covariance: [0.002741552146694444, 0.0, 0.0, 0.0, 0.002741552146694444, 0.0, 0.0, 0.0, 0.007615422629706791]
angular_velocity: 
  x: 0.00033131264901
  y: -0.00184560886635
  z: -0.000231189950497
angular_velocity_covariance: [1.0966208586777776e-06, 0.0, 0.0, 0.0, 1.0966208586777776e-06, 0.0, 0.0, 0.0, 1.0966208586777776e-06]
linear_acceleration: 
  x: 0.277806449164
  y: 0.608344809953
  z: 10.0980961213
linear_acceleration_covariance: [0.0015387262937311438, 0.0, 0.0, 0.0, 0.0015387262937311438, 0.0, 0.0, 0.0, 0.0015387262937311438]
---
header: 
  seq: 67
  stamp: 
    secs: 1568011246
    nsecs: 106899558
  frame_id: "imu_link"
orientation: 
  x: -0.0062438898
  y: -0.9699177849
  z: 0.2410947126
  w: 0.0324615131
orientation_covariance: [0.002741552146694444, 0.0, 0.0, 0.0, 0.002741552146694444, 0.0, 0.0, 0.0, 0.007615422629706791]
angular_velocity: 
  x: 0.00112345307544
  y: 6.1726816503e-05
  z: -0.00256306342372
angular_velocity_covariance: [1.0966208586777776e-06, 0.0, 0.0, 0.0, 1.0966208586777776e-06, 0.0, 0.0, 0.0, 1.0966208586777776e-06]
linear_acceleration: 
  x: 0.275032691868
  y: 0.611375592484
  z: 10.1006107345
linear_acceleration_covariance: [0.0015387262937311438, 0.0, 0.0, 0.0, 0.0015387262937311438, 0.0, 0.0, 0.0, 0.0015387262937311438]
---
header: 
  seq: 68
  stamp: 
    secs: 1568011246
    nsecs: 159767422
  frame_id: "imu_link"
orientation: 
  x: -0.0062438898
  y: -0.9700184928
  z: 0.2407254503
  w: 0.0324615131
orientation_covariance: [0.002741552146694444, 0.0, 0.0, 0.0, 0.002741552146694444, 0.0, 0.0, 0.0, 0.007615422629706791]
angular_velocity: 
  x: 0.000231743681245
  y: 0.000348875273135
  z: -4.86347440545e-05
angular_velocity_covariance: [1.0966208586777776e-06, 0.0, 0.0, 0.0, 1.0966208586777776e-06, 0.0, 0.0, 0.0, 1.0966208586777776e-06]
linear_acceleration: 
  x: 0.278663102526
  y: 0.614093948064
  z: 10.0978108746
linear_acceleration_covariance: [0.0015387262937311438, 0.0, 0.0, 0.0, 0.0015387262937311438, 0.0, 0.0, 0.0, 0.0015387262937311438]
---
header: 
  seq: 69
  stamp: 
    secs: 1568011246
    nsecs: 212407735
  frame_id: "imu_link"
orientation: 
  x: -0.0062774591
  y: -0.9700856314
  z: 0.2403897573
  w: 0.0324615131
orientation_covariance: [0.002741552146694444, 0.0, 0.0, 0.0, 0.002741552146694444, 0.0, 0.0, 0.0, 0.007615422629706791]
angular_velocity: 
  x: -0.00118802445894
  y: 0.00065497124561
  z: 0.000662244484189
angular_velocity_covariance: [1.0966208586777776e-06, 0.0, 0.0, 0.0, 1.0966208586777776e-06, 0.0, 0.0, 0.0, 1.0966208586777776e-06]
linear_acceleration: 
  x: 0.289831799734
  y: 0.615175532756
  z: 10.1027804798
linear_acceleration_covariance: [0.0015387262937311438, 0.0, 0.0, 0.0, 0.0015387262937311438, 0.0, 0.0, 0.0, 0.0015387262937311438]
---
header: 
  seq: 70
  stamp: 
    secs: 1568011246
    nsecs: 264146068
  frame_id: "imu_link"
orientation: 
  x: -0.0063110284
  y: -0.9701863393
  z: 0.2400540643
  w: 0.0324615131
orientation_covariance: [0.002741552146694444, 0.0, 0.0, 0.0, 0.002741552146694444, 0.0, 0.0, 0.0, 0.007615422629706791]
angular_velocity: 
  x: -0.000662127060631
  y: -0.000350316995157
  z: 0.00147763061388
angular_velocity_covariance: [1.0966208586777776e-06, 0.0, 0.0, 0.0, 1.0966208586777776e-06, 0.0, 0.0, 0.0, 1.0966208586777776e-06]
linear_acceleration: 
  x: 0.27945699285
  y: 0.617039573062
  z: 10.1004178423
linear_acceleration_covariance: [0.0015387262937311438, 0.0, 0.0, 0.0, 0.0015387262937311438, 0.0, 0.0, 0.0, 0.0015387262937311438]
---
header: 
  seq: 71
  stamp: 
    secs: 1568011246
    nsecs: 317320547
  frame_id: "imu_link"
orientation: 
  x: -0.0063110284
  y: -0.9702534779
  z: 0.2397183713
  w: 0.0324950824
orientation_covariance: [0.002741552146694444, 0.0, 0.0, 0.0, 0.002741552146694444, 0.0, 0.0, 0.0, 0.007615422629706791]
angular_velocity: 
  x: 0.000868313010373
  y: 0.000116115985395
  z: -0.000821228894464
angular_velocity_covariance: [1.0966208586777776e-06, 0.0, 0.0, 0.0, 1.0966208586777776e-06, 0.0, 0.0, 0.0, 1.0966208586777776e-06]
linear_acceleration: 
  x: 0.27686834633
  y: 0.61403527668
  z: 10.099556257
linear_acceleration_covariance: [0.0015387262937311438, 0.0, 0.0, 0.0, 0.0015387262937311438, 0.0, 0.0, 0.0, 0.0015387262937311438]
---
header: 
  seq: 72
  stamp: 
    secs: 1568011246
    nsecs: 370244245
  frame_id: "imu_link"
orientation: 
  x: -0.0063110284
  y: -0.9703541858
  z: 0.239349109
  w: 0.0324950824
orientation_covariance: [0.002741552146694444, 0.0, 0.0, 0.0, 0.002741552146694444, 0.0, 0.0, 0.0, 0.007615422629706791]
angular_velocity: 
  x: -0.000118374210761
  y: 0.000259151305168
  z: 0.000394321928583
angular_velocity_covariance: [1.0966208586777776e-06, 0.0, 0.0, 0.0, 1.0966208586777776e-06, 0.0, 0.0, 0.0, 1.0966208586777776e-06]
linear_acceleration: 
  x: 0.278500422777
  y: 0.612907076367
  z: 10.1071351678
linear_acceleration_covariance: [0.0015387262937311438, 0.0, 0.0, 0.0, 0.0015387262937311438, 0.0, 0.0, 0.0, 0.0015387262937311438]
---
header: 
  seq: 73
  stamp: 
    secs: 1568011246
    nsecs: 423631120
  frame_id: "imu_link"
orientation: 
  x: -0.0063110284
  y: -0.9704213244
  z: 0.239013416
  w: 0.0324950824
orientation_covariance: [0.002741552146694444, 0.0, 0.0, 0.0, 0.002741552146694444, 0.0, 0.0, 0.0, 0.007615422629706791]
angular_velocity: 
  x: -0.00138677377841
  y: -0.00124842451034
  z: 0.000606583702202
angular_velocity_covariance: [1.0966208586777776e-06, 0.0, 0.0, 0.0, 1.0966208586777776e-06, 0.0, 0.0, 0.0, 1.0966208586777776e-06]
linear_acceleration: 
  x: 0.274446562543
  y: 0.609773052658
  z: 10.1005616347
linear_acceleration_covariance: [0.0015387262937311438, 0.0, 0.0, 0.0, 0.0015387262937311438, 0.0, 0.0, 0.0, 0.0015387262937311438]
---
header: 
  seq: 74
  stamp: 
    secs: 1568011246
    nsecs: 476453880
  frame_id: "imu_link"
orientation: 
  x: -0.0063110284
  y: -0.9705220323
  z: 0.2387112923
  w: 0.0324950824
orientation_covariance: [0.002741552146694444, 0.0, 0.0, 0.0, 0.002741552146694444, 0.0, 0.0, 0.0, 0.007615422629706791]
angular_velocity: 
  x: -0.00065026773642
  y: -0.00117130102964
  z: -0.00123331328178
angular_velocity_covariance: [1.0966208586777776e-06, 0.0, 0.0, 0.0, 1.0966208586777776e-06, 0.0, 0.0, 0.0, 1.0966208586777776e-06]
linear_acceleration: 
  x: 0.278526726262
  y: 0.612220920734
  z: 10.0947690227
linear_acceleration_covariance: [0.0015387262937311438, 0.0, 0.0, 0.0, 0.0015387262937311438, 0.0, 0.0, 0.0, 0.0015387262937311438]
---
header: 
  seq: 75
  stamp: 
    secs: 1568011246
    nsecs: 529397839
  frame_id: "imu_link"
orientation: 
  x: -0.0063445977
  y: -0.9705891709
  z: 0.2383755993
  w: 0.0324950824
orientation_covariance: [0.002741552146694444, 0.0, 0.0, 0.0, 0.002741552146694444, 0.0, 0.0, 0.0, 0.007615422629706791]
angular_velocity: 
  x: -0.00349383900493
  y: 0.000477731600772
  z: 0.0010205040192
angular_velocity_covariance: [1.0966208586777776e-06, 0.0, 0.0, 0.0, 1.0966208586777776e-06, 0.0, 0.0, 0.0, 1.0966208586777776e-06]
linear_acceleration: 
  x: 0.277126376211
  y: 0.608843662853
  z: 10.0903371778
linear_acceleration_covariance: [0.0015387262937311438, 0.0, 0.0, 0.0, 0.0015387262937311438, 0.0, 0.0, 0.0, 0.0015387262937311438]
---
header: 
  seq: 76
  stamp: 
    secs: 1568011246
    nsecs: 582473412
  frame_id: "imu_link"
orientation: 
  x: -0.0063445977
  y: -0.9706563095
  z: 0.2380399063
  w: 0.0324950824
orientation_covariance: [0.002741552146694444, 0.0, 0.0, 0.0, 0.002741552146694444, 0.0, 0.0, 0.0, 0.007615422629706791]
angular_velocity: 
  x: -0.00196797058543
  y: -0.000236436332332
  z: -0.000531120080871
angular_velocity_covariance: [1.0966208586777776e-06, 0.0, 0.0, 0.0, 1.0966208586777776e-06, 0.0, 0.0, 0.0, 1.0966208586777776e-06]
linear_acceleration: 
  x: 0.271009719962
  y: 0.607886617857
  z: 10.0984573559
linear_acceleration_covariance: [0.0015387262937311438, 0.0, 0.0, 0.0, 0.0015387262937311438, 0.0, 0.0, 0.0, 0.0015387262937311438]
---
header: 
  seq: 77
  stamp: 
    secs: 1568011246
    nsecs: 633056901
  frame_id: "imu_link"
orientation: 
  x: -0.006378167
  y: -0.9707570174
  z: 0.2377042133
  w: 0.0324950824
orientation_covariance: [0.002741552146694444, 0.0, 0.0, 0.0, 0.002741552146694444, 0.0, 0.0, 0.0, 0.007615422629706791]
angular_velocity: 
  x: 0.00124772465033
  y: -0.00114423132354
  z: -0.00129918802776
angular_velocity_covariance: [1.0966208586777776e-06, 0.0, 0.0, 0.0, 1.0966208586777776e-06, 0.0, 0.0, 0.0, 1.0966208586777776e-06]
linear_acceleration: 
  x: 0.277475025252
  y: 0.606799151414
  z: 10.0991248799
linear_acceleration_covariance: [0.0015387262937311438, 0.0, 0.0, 0.0, 0.0015387262937311438, 0.0, 0.0, 0.0, 0.0015387262937311438]
---
header: 
  seq: 78
  stamp: 
    secs: 1568011246
    nsecs: 686269505
  frame_id: "imu_link"
orientation: 
  x: -0.006378167
  y: -0.970824156
  z: 0.2373685203
  w: 0.0324615131
orientation_covariance: [0.002741552146694444, 0.0, 0.0, 0.0, 0.002741552146694444, 0.0, 0.0, 0.0, 0.007615422629706791]
angular_velocity: 
  x: 0.000108002430417
  y: 0.00168698849511
  z: -0.00165860944482
angular_velocity_covariance: [1.0966208586777776e-06, 0.0, 0.0, 0.0, 1.0966208586777776e-06, 0.0, 0.0, 0.0, 1.0966208586777776e-06]
linear_acceleration: 
  x: 0.275838181298
  y: 0.60490095311
  z: 10.0989390019
linear_acceleration_covariance: [0.0015387262937311438, 0.0, 0.0, 0.0, 0.0015387262937311438, 0.0, 0.0, 0.0, 0.0015387262937311438]
---
header: 
  seq: 79
  stamp: 
    secs: 1568011246
    nsecs: 738039557
  frame_id: "imu_link"
orientation: 
  x: -0.006378167
  y: -0.9709248639
  z: 0.2370663966
  w: 0.0324615131
orientation_covariance: [0.002741552146694444, 0.0, 0.0, 0.0, 0.002741552146694444, 0.0, 0.0, 0.0, 0.007615422629706791]
angular_velocity: 
  x: -0.00125248752148
  y: -0.000168538630723
  z: -0.000330736844454
angular_velocity_covariance: [1.0966208586777776e-06, 0.0, 0.0, 0.0, 1.0966208586777776e-06, 0.0, 0.0, 0.0, 1.0966208586777776e-06]
linear_acceleration: 
  x: 0.283884892295
  y: 0.607930676194
  z: 10.1031498976
linear_acceleration_covariance: [0.0015387262937311438, 0.0, 0.0, 0.0, 0.0015387262937311438, 0.0, 0.0, 0.0, 0.0015387262937311438]
---
header: 
  seq: 80
  stamp: 
    secs: 1568011246
    nsecs: 791109922
  frame_id: "imu_link"
orientation: 
  x: -0.0064117363
  y: -0.9709920025
  z: 0.2367307036
  w: 0.0324615131
orientation_covariance: [0.002741552146694444, 0.0, 0.0, 0.0, 0.002741552146694444, 0.0, 0.0, 0.0, 0.007615422629706791]
angular_velocity: 
  x: 0.000563920914839
  y: -0.00185595085193
  z: 0.000527314803381
angular_velocity_covariance: [1.0966208586777776e-06, 0.0, 0.0, 0.0, 1.0966208586777776e-06, 0.0, 0.0, 0.0, 1.0966208586777776e-06]
linear_acceleration: 
  x: 0.277949784891
  y: 0.60411075258
  z: 10.0982960278
linear_acceleration_covariance: [0.0015387262937311438, 0.0, 0.0, 0.0, 0.0015387262937311438, 0.0, 0.0, 0.0, 0.0015387262937311438]
---
header: 
  seq: 81
  stamp: 
    secs: 1568011246
    nsecs: 844347891
  frame_id: "imu_link"
orientation: 
