
header: 
  seq: 0
  stamp: 
    secs: 1568011242
    nsecs: 373410288
  frame_id: "imu_link"
vector: 
  x: -1.68809986115
  y: -0.890457451344
  z: 3.57216596603
---
header: 
  seq: 1
  stamp: 
    secs: 1568011242
    nsecs: 425158049
  frame_id: "imu_link"
vector: 
  x: -1.66816306114
  y: -0.907902777195
  z: 3.56547737122
---
header: 
  seq: 2
  stamp: 
    secs: 1568011242
    nsecs: 478099715
  frame_id: "imu_link"
vector: 
  x: -1.66663372517
  y: -0.899514317513
  z: 3.56265258789
---
header: 
  seq: 3
  stamp: 
    secs: 1568011242
    nsecs: 531052684
  frame_id: "imu_link"
vector: 
  x: -1.68535017967
  y: -0.910481154919
  z: 3.56094360352
---
header: 
  seq: 4
  stamp: 
    secs: 1568011242
    nsecs: 584036278
  frame_id: "imu_link"
vector: 
  x: -1.69469594955
  y: -0.876794755459
  z: 3.57847094536
---
header: 
  seq: 5
  stamp: 
    secs: 1568011242
    nsecs: 637322996
  frame_id: "imu_link"
vector: 
  x: -1.70898008347
  y: -0.871518194675
  z: 3.57703590393
---
header: 
  seq: 6
  stamp: 
    secs: 1568011242
    nsecs: 687793621
  frame_id: "imu_link"
vector: 
  x: -1.71697282791
  y: -0.880511641502
  z: 3.55976819992
---
header: 
  seq: 7
  stamp: 
    secs: 1568011242
    nsecs: 740986434
  frame_id: "imu_link"
vector: 
  x: -1.72878837585
  y: -0.889450013638
  z: 3.57797193527
---
header: 
  seq: 8
  stamp: 
    secs: 1568011242
    nsecs: 794140965
  frame_id: "imu_link"
vector: 
  x: -1.73731529713
  y: -0.893064618111
  z: 3.5946059227
---
header: 
  seq: 9
  stamp: 
    secs: 1568011242
    nsecs: 846004038
  frame_id: "imu_link"
vector: 
  x: -1.70804345608
  y: -0.843237757683
  z: 3.59197664261
---
header: 
  seq: 10
  stamp: 
    secs: 1568011242
    nsecs: 899042007
  frame_id: "imu_link"
vector: 
  x: -1.71507644653
  y: -0.831712961197
  z: 3.6009812355
---
header: 
  seq: 11
  stamp: 
    secs: 1568011242
    nsecs: 952077580
  frame_id: "imu_link"
vector: 
  x: -1.70731329918
  y: -0.819147586823
  z: 3.59546470642
---
header: 
  seq: 12
  stamp: 
    secs: 1568011243
    nsecs:   6299142
  frame_id: "imu_link"
vector: 
  x: -1.68319928646
  y: -0.813401699066
  z: 3.57533740997
---
header: 
  seq: 13
  stamp: 
    secs: 1568011243
    nsecs:  55639715
  frame_id: "imu_link"
vector: 
  x: -1.70252609253
  y: -0.859372675419
  z: 3.55438566208
---
header: 
  seq: 14
  stamp: 
    secs: 1568011243
    nsecs: 109429767
  frame_id: "imu_link"
vector: 
  x: -1.7191016674
  y: -0.88147354126
  z: 3.54906177521
---
header: 
  seq: 15
  stamp: 
    secs: 1568011243
    nsecs: 162266850
  frame_id: "imu_link"
vector: 
  x: -1.72959506512
  y: -0.882548213005
  z: 3.55568504333
---
header: 
  seq: 16
  stamp: 
    secs: 1568011243
    nsecs: 214009142
  frame_id: "imu_link"
vector: 
  x: -1.70262694359
  y: -0.872487843037
  z: 3.57743215561
---
header: 
  seq: 17
  stamp: 
    secs: 1568011243
    nsecs: 267030757
  frame_id: "imu_link"
vector: 
  x: -1.69164538383
  y: -0.868539869785
  z: 3.57659816742
---
header: 
  seq: 18
  stamp: 
    secs: 1568011243
    nsecs: 320054350
  frame_id: "imu_link"
vector: 
  x: -1.68349075317
  y: -0.875122666359
  z: 3.56737279892
---
header: 
  seq: 19
  stamp: 
    secs: 1568011243
    nsecs: 372998986
  frame_id: "imu_link"
vector: 
  x: -1.71124005318
  y: -0.862346887589
  z: 3.59012031555
---
header: 
  seq: 20
  stamp: 
    secs: 1568011243
    nsecs: 426030131
  frame_id: "imu_link"
vector: 
  x: -1.70558547974
  y: -0.882742166519
  z: 3.56455254555
---
header: 
  seq: 21
  stamp: 
    secs: 1568011243
    nsecs: 478967319
  frame_id: "imu_link"
vector: 
  x: -1.70658445358
  y: -0.874428033829
  z: 3.55338859558
---
header: 
  seq: 22
  stamp: 
    secs: 1568011243
    nsecs: 532031225
  frame_id: "imu_link"
vector: 
  x: -1.71741533279
  y: -0.879180908203
  z: 3.55753040314
---
header: 
  seq: 23
  stamp: 
    secs: 1568011243
    nsecs: 582597423
  frame_id: "imu_link"
vector: 
  x: -1.73090267181
  y: -0.849450469017
  z: 3.57772660255
---
header: 
  seq: 24
  stamp: 
    secs: 1568011243
    nsecs: 638477163
  frame_id: "imu_link"
vector: 
  x: -1.73470902443
  y: -0.843968868256
  z: 3.5856115818
---
header: 
  seq: 25
  stamp: 
    secs: 1568011243
    nsecs: 689165548
  frame_id: "imu_link"
vector: 
  x: -1.70160126686
  y: -0.86550116539
  z: 3.55338668823
---
header: 
  seq: 26
  stamp: 
    secs: 1568011243
    nsecs: 742278621
  frame_id: "imu_link"
vector: 
  x: -1.68422293663
  y: -0.874019980431
  z: 3.54864931107
---
header: 
  seq: 27
  stamp: 
    secs: 1568011243
    nsecs: 794105861
  frame_id: "imu_link"
vector: 
  x: -1.71551251411
  y: -0.856601119041
  z: 3.58422470093
---
header: 
  seq: 28
  stamp: 
    secs: 1568011243
    nsecs: 846965392
  frame_id: "imu_link"
vector: 
  x: -1.72138810158
  y: -0.853932857513
  z: 3.6061425209
---
header: 
  seq: 29
  stamp: 
    secs: 1568011243
    nsecs: 900195288
  frame_id: "imu_link"
vector: 
  x: -1.72047269344
  y: -0.852231740952
  z: 3.62426972389
---
header: 
  seq: 30
  stamp: 
    secs: 1568011243
    nsecs: 950783777
  frame_id: "imu_link"
vector: 
  x: -1.70927762985
  y: -0.860938966274
  z: 3.58327531815
---
header: 
  seq: 31
  stamp: 
    secs: 1568011244
    nsecs:   2885183
  frame_id: "imu_link"
vector: 
  x: -1.68398761749
  y: -0.88841342926
  z: 3.55246400833
---
header: 
  seq: 32
  stamp: 
    secs: 1568011244
    nsecs:  56936381
  frame_id: "imu_link"
vector: 
  x: -1.69063842297
  y: -0.891836822033
  z: 3.56602954865
---
header: 
  seq: 33
  stamp: 
    secs: 1568011244
    nsecs: 110010287
  frame_id: "imu_link"
vector: 
  x: -1.70345377922
  y: -0.859574139118
  z: 3.58172082901
---
header: 
  seq: 34
  stamp: 
    secs: 1568011244
    nsecs: 162085965
  frame_id: "imu_link"
vector: 
  x: -1.69199633598
  y: -0.863058686256
  z: 3.57841849327
---
header: 
  seq: 35
  stamp: 
    secs: 1568011244
    nsecs: 215162944
  frame_id: "imu_link"
vector: 
  x: -1.70102977753
  y: -0.856465160847
  z: 3.59479475021
---
header: 
  seq: 36
  stamp: 
    secs: 1568011244
    nsecs: 268090548
  frame_id: "imu_link"
vector: 
  x: -1.71513128281
  y: -0.854642152786
  z: 3.59283900261
---
header: 
  seq: 37
  stamp: 
    secs: 1568011244
    nsecs: 320998256
  frame_id: "imu_link"
vector: 
  x: -1.72612857819
  y: -0.903875112534
  z: 3.60050964355
---
header: 
  seq: 38
  stamp: 
    secs: 1568011244
    nsecs: 374176017
  frame_id: "imu_link"
vector: 
  x: -1.71537780762
  y: -0.898768424988
  z: 3.58636283875
---
header: 
  seq: 39
  stamp: 
    secs: 1568011244
    nsecs: 427471589
  frame_id: "imu_link"
vector: 
  x: -1.71074080467
  y: -0.897373199463
  z: 3.56264591217
---
header: 
  seq: 40
  stamp: 
    secs: 1568011244
    nsecs: 478429975
  frame_id: "imu_link"
vector: 
  x: -1.70106375217
  y: -0.892707824707
  z: 3.54831600189
---
header: 
  seq: 41
  stamp: 
    secs: 1568011244
    nsecs: 530050964
  frame_id: "imu_link"
vector: 
  x: -1.7047700882
  y: -0.902131080627
  z: 3.56427407265
---
header: 
  seq: 42
  stamp: 
    secs: 1568011244
    nsecs: 586845183
  frame_id: "imu_link"
vector: 
  x: -1.72715044022
  y: -0.882253885269
  z: 3.58880877495
---
header: 
  seq: 43
  stamp: 
    secs: 1568011244
    nsecs: 635877944
  frame_id: "imu_link"
vector: 
  x: -1.72621822357
  y: -0.857516765594
  z: 3.59029817581
---
header: 
  seq: 44
  stamp: 
    secs: 1568011244
    nsecs: 689211694
  frame_id: "imu_link"
vector: 
  x: -1.69573950768
  y: -0.848699092865
  z: 3.59121274948
---
header: 
  seq: 45
  stamp: 
    secs: 1568011244
    nsecs: 742292423
  frame_id: "imu_link"
vector: 
  x: -1.69910573959
  y: -0.842500090599
  z: 3.59131860733
---
header: 
  seq: 46
  stamp: 
    secs: 1568011244
    nsecs: 795213048
  frame_id: "imu_link"
vector: 
  x: -1.69364440441
  y: -0.847553133965
  z: 3.59136343002
---
header: 
  seq: 47
  stamp: 
    secs: 1568011244
    nsecs: 844425600
  frame_id: "imu_link"
vector: 
  x: -1.70896089077
  y: -0.83263194561
  z: 3.57875347137
---
header: 
  seq: 48
  stamp: 
    secs: 1568011244
    nsecs: 897555964
  frame_id: "imu_link"
vector: 
  x: -1.71849763393
  y: -0.844526171684
  z: 3.58603024483
---
header: 
  seq: 49
  stamp: 
    secs: 1568011244
    nsecs: 950710808
  frame_id: "imu_link"
vector: 
  x: -1.71225881577
  y: -0.8405418396
  z: 3.59799003601
---
header: 
  seq: 50
  stamp: 
    secs: 1568011245
    nsecs:   3768256
  frame_id: "imu_link"
vector: 
  x: -1.70096826553
  y: -0.874517500401
  z: 3.57866477966
---
header: 
  seq: 51
  stamp: 
    secs: 1568011245
    nsecs:  56867058
  frame_id: "imu_link"
vector: 
  x: -1.69094145298
  y: -0.869401335716
  z: 3.57712125778
---
header: 
  seq: 52
  stamp: 
    secs: 1568011245
    nsecs: 110032579
  frame_id: "imu_link"
vector: 
  x: -1.7075496912
  y: -0.874940037727
  z: 3.611951828
---
header: 
  seq: 53
  stamp: 
    secs: 1568011245
    nsecs: 162049506
  frame_id: "imu_link"
vector: 
  x: -1.70421540737
  y: -0.877090871334
  z: 3.61786413193
---
header: 
  seq: 54
  stamp: 
    secs: 1568011245
    nsecs: 214981641
  frame_id: "imu_link"
vector: 
  x: -1.70444726944
  y: -0.873687565327
  z: 3.57465696335
---
header: 
  seq: 55
  stamp: 
    secs: 1568011245
    nsecs: 268013464
  frame_id: "imu_link"
vector: 
  x: -1.71308839321
  y: -0.870210647583
  z: 3.5754199028
---
header: 
  seq: 56
  stamp: 
    secs: 1568011245
    nsecs: 321057058
  frame_id: "imu_link"
vector: 
  x: -1.69948232174
  y: -0.843933403492
  z: 3.56687259674
---
header: 
  seq: 57
  stamp: 
    secs: 1568011245
    nsecs: 371702422
  frame_id: "imu_link"
vector: 
  x: -1.66806817055
  y: -0.854664087296
  z: 3.55369663239
---
header: 
  seq: 58
  stamp: 
    secs: 1568011245
    nsecs: 423497527
  frame_id: "imu_link"
vector: 
  x: -1.69070839882
  y: -0.861733794212
  z: 3.56649589539
---
header: 
  seq: 59
  stamp: 
    secs: 1568011245
    nsecs: 477781745
  frame_id: "imu_link"
vector: 
  x: -1.70036673546
  y: -0.856678307056
  z: 3.57195615768
---
header: 
  seq: 60
  stamp: 
    secs: 1568011245
    nsecs: 529489089
  frame_id: "imu_link"
vector: 
  x: -1.71133267879
  y: -0.87103164196
  z: 3.5742688179
---
header: 
  seq: 61
  stamp: 
    secs: 1568011245
    nsecs: 582605860
  frame_id: "imu_link"
vector: 
  x: -1.70140337944
  y: -0.884942650795
  z: 3.59337854385
---
header: 
  seq: 62
  stamp: 
    secs: 1568011245
    nsecs: 635626693
  frame_id: "imu_link"
vector: 
  x: -1.70150971413
  y: -0.865954995155
  z: 3.59223794937
---
header: 
  seq: 63
  stamp: 
    secs: 1568011245
    nsecs: 689063516
  frame_id: "imu_link"
vector: 
  x: -1.71882843971
  y: -0.850411653519
  z: 3.60062503815
---
header: 
  seq: 64
  stamp: 
    secs: 1568011245
    nsecs: 738860339
  frame_id: "imu_link"
vector: 
  x: -1.69680404663
  y: -0.835982739925
  z: 3.60059022903
---
header: 
  seq: 65
  stamp: 
    secs: 1568011245
    nsecs: 791226120
  frame_id: "imu_link"
vector: 
  x: -1.69955170155
  y: -0.853208303452
  z: 3.59531021118
---
header: 
  seq: 66
  stamp: 
    secs: 1568011245
    nsecs: 844159453
  frame_id: "imu_link"
vector: 
  x: -1.70072627068
  y: -0.860572695732
  z: 3.59305286407
---
header: 
  seq: 67
  stamp: 
    secs: 1568011245
    nsecs: 897154558
  frame_id: "imu_link"
vector: 
  x: -1.69984388351
  y: -0.89224588871
  z: 3.57024335861
---
header: 
  seq: 68
  stamp: 
    secs: 1568011245
    nsecs: 950250756
  frame_id: "imu_link"
vector: 
  x: -1.69725728035
  y: -0.870003283024
  z: 3.55580401421
---
header: 
  seq: 69
  stamp: 
    secs: 1568011246
    nsecs:   3886224
  frame_id: "imu_link"
vector: 
  x: -1.7106333971
  y: -0.860862731934
  z: 3.54933977127
---
header: 
  seq: 70
  stamp: 
    secs: 1568011246
    nsecs:  56426849
  frame_id: "imu_link"
vector: 
  x: -1.70183694363
  y: -0.856682777405
  z: 3.5469315052
---
header: 
  seq: 71
  stamp: 
    secs: 1568011246
    nsecs: 106899558
  frame_id: "imu_link"
vector: 
  x: -1.70688319206
  y: -0.86584675312
  z: 3.55432891846
---
header: 
  seq: 72
  stamp: 
    secs: 1568011246
    nsecs: 159767422
  frame_id: "imu_link"
vector: 
  x: -1.71423506737
  y: -0.866121888161
  z: 3.58459997177
---
header: 
  seq: 73
  stamp: 
    secs: 1568011246
    nsecs: 212407735
  frame_id: "imu_link"
vector: 
  x: -1.72422981262
  y: -0.866625249386
  z: 3.59738302231
---
header: 
  seq: 74
  stamp: 
    secs: 1568011246
    nsecs: 264146068
  frame_id: "imu_link"
vector: 
  x: -1.71883535385
  y: -0.872159838676
  z: 3.57607316971
---
header: 
  seq: 75
  stamp: 
    secs: 1568011246
    nsecs: 317320547
  frame_id: "imu_link"
vector: 
  x: -1.7226805687
  y: -0.877435147762
  z: 3.5848736763
---
header: 
  seq: 76
  stamp: 
    secs: 1568011246
    nsecs: 370244245
  frame_id: "imu_link"
vector: 
  x: -1.7139185667
  y: -0.863312482834
  z: 3.5797457695
---
header: 
  seq: 77
  stamp: 
    secs: 1568011246
    nsecs: 423631120
  frame_id: "imu_link"
vector: 
  x: -1.6929898262
  y: -0.864829242229
  z: 3.56873273849
---
header: 
  seq: 78
  stamp: 
    secs: 1568011246
    nsecs: 476453880
  frame_id: "imu_link"
vector: 
  x: -1.72123718262
  y: -0.863476872444
  z: 3.58865404129
---
header: 
  seq: 79
  stamp: 
    secs: 1568011246
    nsecs: 529397839
  frame_id: "imu_link"
vector: 
  x: -1.72370839119
  y: -0.897975206375
  z: 3.59023237228
---
header: 
  seq: 80
  stamp: 
    secs: 1568011246
    nsecs: 582473412
  frame_id: "imu_link"
vector: 
  x: -1.70059347153
  y: -0.903572142124
  z: 3.58203125
---
header: 
  seq: 81
  stamp: 
    secs: 1568011246
    nsecs: 633056901
  frame_id: "imu_link"
vector: 
  x: -1.6963698864
  y: -0.867266356945
  z: 3.57699799538
---
header: 
  seq: 82
  stamp: 
    secs: 1568011246
    nsecs: 686269505
  frame_id: "imu_link"
vector: 
  x: -1.69587874413
  y: -0.858620882034
  z: 3.57641267776
---
header: 
  seq: 83
  stamp: 
    secs: 1568011246
    nsecs: 738039557
  frame_id: "imu_link"
vector: 
  x: -1.6990609169
  y: -0.863604784012
  z: 3.56731367111
---
header: 
  seq: 84
  stamp: 
    secs: 1568011246
    nsecs: 791109922
  frame_id: "imu_link"
vector: 
  x: -1.69701766968
  y: -0.857071280479
  z: 3.57231426239
---
header: 
  seq: 85
  stamp: 
    secs: 1568011246
    nsecs: 844347891
  frame_id: "imu_link"
vector: 
  x: -1.70717263222
  y: -0.867768764496
  z: 3.59679102898
---
header: 
  seq: 86
  stamp: 
    secs: 1568011246
    nsecs: 896065234
  frame_id: "imu_link"
vector: 
  x: -1.71084856987
  y: -0.842909991741
  z: 3.59368610382
---
header: 
  seq: 87
  stamp: 
    secs: 1568011246
    nsecs: 949005130
  frame_id: "imu_link"
vector: 
  x: -1.73317599297
  y: -0.856973111629
  z: 3.61011099815
---
header: 
  seq: 88
  stamp: 
    secs: 1568011247
    nsecs:   2037318
  frame_id: "imu_link"
vector: 
  x: -1.72197306156
  y: -0.891836822033
  z: 3.58970046043
---
header: 
  seq: 89
  stamp: 
    secs: 1568011247
    nsecs:  55036536
  frame_id: "imu_link"
vector: 
  x: -1.72392368317
  y: -0.894631147385
  z: 3.5729341507
---
header: 
  seq: 90
  stamp: 
    secs: 1568011247
    nsecs: 108198932
  frame_id: "imu_link"
vector: 
  x: -1.71436810493
  y: -0.879474282265
  z: 3.5569460392
---
header: 
  seq: 91
  stamp: 
    secs: 1568011247
    nsecs: 158897213
  frame_id: "imu_link"
vector: 
  x: -1.68159091473
  y: -0.850493311882
  z: 3.54598617554
---
header: 
  seq: 92
  stamp: 
    secs: 1568011247
    nsecs: 212233047
  frame_id: "imu_link"
vector: 
  x: -1.6653110981
  y: -0.867486298084
  z: 3.53661680222
---
header: 
  seq: 93
  stamp: 
    secs: 1568011247
    nsecs: 264977057
  frame_id: "imu_link"
vector: 
  x: -1.66891670227
  y: -0.86602973938
  z: 3.55927371979
---
header: 
  seq: 94
  stamp: 
    secs: 1568011247
    nsecs: 318203047
  frame_id: "imu_link"
vector: 
  x: -1.70839107037
  y: -0.875231862068
  z: 3.57776212692
---
header: 
  seq: 95
  stamp: 
    secs: 1568011247
    nsecs: 367307265
  frame_id: "imu_link"
vector: 
  x: -1.72583866119
  y: -0.855520009995
  z: 3.60685825348
---
header: 
  seq: 96
  stamp: 
    secs: 1568011247
    nsecs: 420388307
  frame_id: "imu_link"
vector: 
  x: -1.75690925121
  y: -0.8460085392
  z: 3.64231610298
---
header: 
  seq: 97
  stamp: 
    secs: 1568011247
    nsecs: 473577890
  frame_id: "imu_link"
vector: 
  x: -1.75621986389
  y: -0.874243974686
  z: 3.63962364197
---
header: 
  seq: 98
  stamp: 
    secs: 1568011247
    nsecs: 526589713
  frame_id: "imu_link"
vector: 
  x: -1.71643221378
  y: -0.857967376709
  z: 3.61273908615
---
header: 
  seq: 99
  stamp: 
    secs: 1568011247
    nsecs: 579884609
  frame_id: "imu_link"
vector: 
  x: -1.70099854469
  y: -0.854118227959
  z: 3.60045528412
---
header: 
  seq: 100
  stamp: 
    secs: 1568011247
    nsecs: 633051849
  frame_id: "imu_link"
vector: 
  x: -1.69444775581
  y: -0.868627250195
  z: 3.59524154663
---
header: 
  seq: 101
  stamp: 
    secs: 1568011247
    nsecs: 685148619
  frame_id: "imu_link"
vector: 
  x: -1.69166731834
  y: -0.850571393967
  z: 3.59302854538
---
header: 
  seq: 102
  stamp: 
    secs: 1568011247
    nsecs: 739667369
  frame_id: "imu_link"
vector: 
  x: -1.70171654224
  y: -0.84549164772
  z: 3.57904481888
---
header: 
  seq: 103
  stamp: 
    secs: 1568011247
    nsecs: 791037838
  frame_id: "imu_link"
vector: 
  x: -1.69125902653
  y: -0.873224258423
  z: 3.57728242874
---
header: 
  seq: 104
  stamp: 
    secs: 1568011247
    nsecs: 844288255
  frame_id: "imu_link"
vector: 
  x: -1.68671369553
  y: -0.8776948452
  z: 3.55875205994
---
header: 
  seq: 105
  stamp: 
    secs: 1568011247
    nsecs: 896064765
  frame_id: "imu_link"
vector: 
  x: -1.69917619228
  y: -0.866486310959
  z: 3.54385137558
---
header: 
  seq: 106
  stamp: 
    secs: 1568011247
    nsecs: 949076171
  frame_id: "imu_link"
vector: 
  x: -1.72113776207
  y: -0.851972818375
  z: 3.5534734726
---
header: 
  seq: 107
  stamp: 
    secs: 1568011248
    nsecs:   3500286
  frame_id: "imu_link"
vector: 
  x: -1.7201706171
  y: -0.836747050285
  z: 3.56645679474
---
header: 
  seq: 108
  stamp: 
    secs: 1568011248
    nsecs:  55184348
  frame_id: "imu_link"
vector: 
  x: -1.73088693619
  y: -0.903611779213
  z: 3.57089281082
---
header: 
  seq: 109
  stamp: 
    secs: 1568011248
    nsecs: 108306432
  frame_id: "imu_link"
vector: 
  x: -1.72091400623
  y: -0.8823376894
  z: 3.58269381523
---
header: 
  seq: 110
  stamp: 
    secs: 1568011248
    nsecs: 162845755
  frame_id: "imu_link"
vector: 
  x: -1.70626604557
  y: -0.864999294281
  z: 3.5788230896
---
header: 
  seq: 111
  stamp: 
    secs: 1568011248
    nsecs: 214693046
  frame_id: "imu_link"
vector: 
  x: -1.70357370377
  y: -0.865561485291
  z: 3.58605980873
---
header: 
  seq: 112
  stamp: 
    secs: 1568011248
    nsecs: 267940286
  frame_id: "imu_link"
vector: 
  x: -1.70769786835
  y: -0.875062823296
  z: 3.57269239426
---
header: 
  seq: 113
  stamp: 
    secs: 1568011248
    nsecs: 320869296
  frame_id: "imu_link"
vector: 
  x: -1.70068788528
  y: -0.89423418045
  z: 3.57458639145
---
header: 
  seq: 114
  stamp: 
    secs: 1568011248
    nsecs: 375137525
  frame_id: "imu_link"
vector: 
  x: -1.70811212063
  y: -0.894500732422
  z: 3.58428239822
---
header: 
  seq: 115
  stamp: 
    secs: 1568011248
    nsecs: 423049765
  frame_id: "imu_link"
vector: 
  x: -1.71210598946
  y: -0.879327952862
  z: 3.59898614883
---
header: 
  seq: 116
  stamp: 
    secs: 1568011248
    nsecs: 476107317
  frame_id: "imu_link"
vector: 
  x: -1.72685134411
  y: -0.896294116974
  z: 3.61238956451
---
header: 
  seq: 117
  stamp: 
    secs: 1568011248
    nsecs: 530677994
  frame_id: "imu_link"
vector: 
  x: -1.72959065437
  y: -0.903661847115
  z: 3.60917186737
---
header: 
  seq: 118
  stamp: 
    secs: 1568011248
    nsecs: 582199973
  frame_id: "imu_link"
vector: 
  x: -1.70491504669
  y: -0.889613866806
  z: 3.54781723022
---
header: 
  seq: 119
  stamp: 
    secs: 1568011248
    nsecs: 635147369
  frame_id: "imu_link"
vector: 
  x: -1.70990109444
  y: -0.860190391541
  z: 3.57295370102
---
header: 
  seq: 120
  stamp: 
    secs: 1568011248
    nsecs: 689739400
  frame_id: "imu_link"
vector: 
  x: -1.7155122757
  y: -0.831373035908
  z: 3.59248209
---
header: 
  seq: 121
  stamp: 
    secs: 1568011248
    nsecs: 742912109
  frame_id: "imu_link"
vector: 
  x: -1.72118139267
  y: -0.844753205776
  z: 3.5741147995
---
header: 
  seq: 122
  stamp: 
    secs: 1568011248
    nsecs: 796023515
  frame_id: "imu_link"
vector: 
  x: -1.68429923058
  y: -0.857449293137
  z: 3.56300258636
---
header: 
  seq: 123
  stamp: 
    secs: 1568011248
    nsecs: 849194556
  frame_id: "imu_link"
vector: 
  x: -1.67697620392
  y: -0.845626831055
  z: 3.57047367096
---
header: 
  seq: 124
  stamp: 
    secs: 1568011248
    nsecs: 902222161
  frame_id: "imu_link"
vector: 
  x: -1.69807708263
  y: -0.84157460928
  z: 3.5825419426
---
header: 
  seq: 125
  stamp: 
    secs: 1568011248
    nsecs: 951901588
  frame_id: "imu_link"
vector: 
  x: -1.70727658272
  y: -0.858892798424
  z: 3.580930233
---
header: 
  seq: 126
  stamp: 
    secs: 1568011249
    nsecs:   4847994
  frame_id: "imu_link"
vector: 
  x: -1.71770834923
  y: -0.88069486618
  z: 3.56918621063
---
header: 
  seq: 127
  stamp: 
    secs: 1568011249
    nsecs:  57998879
  frame_id: "imu_link"
vector: 
  x: -1.71181428432
  y: -0.888958275318
  z: 3.57310652733
---
header: 
  seq: 128
  stamp: 
    secs: 1568011249
    nsecs: 111087108
  frame_id: "imu_link"
vector: 
  x: -1.6886548996
  y: -0.875143527985
  z: 3.57476186752
---
header: 
  seq: 129
  stamp: 
    secs: 1568011249
    nsecs: 163051067
  frame_id: "imu_link"
vector: 
  x: -1.69943094254
  y: -0.867505073547
  z: 3.5886220932
---
header: 
  seq: 130
  stamp: 
    secs: 1568011249
    nsecs: 216149713
  frame_id: "imu_link"
vector: 
  x: -1.66955459118
  y: -0.87334728241
  z: 3.58133220673
---
header: 
  seq: 131
  stamp: 
    secs: 1568011249
    nsecs: 269135233
  frame_id: "imu_link"
vector: 
  x: -1.68799161911
  y: -0.877176165581
  z: 3.58712482452
---
header: 
  seq: 132
  stamp: 
    secs: 1568011249
    nsecs: 319783879
  frame_id: "imu_link"
vector: 
  x: -1.70649337769
  y: -0.864804506302
  z: 3.59440279007
---
header: 
  seq: 133
  stamp: 
    secs: 1568011249
    nsecs: 372992681
  frame_id: "imu_link"
vector: 
  x: -1.70716357231
  y: -0.873363137245
  z: 3.60154390335
---
header: 
  seq: 134
  stamp: 
    secs: 1568011249
    nsecs: 426551952
  frame_id: "imu_link"
vector: 
  x: -1.69363892078
  y: -0.868138849735
  z: 3.60458183289
---
header: 
  seq: 135
  stamp: 
    secs: 1568011249
    nsecs: 479327577
  frame_id: "imu_link"
vector: 
  x: -1.69622075558
  y: -0.873542487621
  z: 3.58113479614
---
header: 
  seq: 136
  stamp: 
    secs: 1568011249
    nsecs: 531086067
  frame_id: "imu_link"
vector: 
  x: -1.70272052288
  y: -0.853576302528
  z: 3.57816338539
---
header: 
  seq: 137
  stamp: 
    secs: 1568011249
    nsecs: 584129035
  frame_id: "imu_link"
vector: 
  x: -1.71245241165
  y: -0.868984520435
  z: 3.59465122223
---
header: 
  seq: 138
  stamp: 
    secs: 1568011249
    nsecs: 638406796
  frame_id: "imu_link"
vector: 
  x: -1.69241929054
  y: -0.874549984932
  z: 3.59277820587
---
header: 
  seq: 139
  stamp: 
    secs: 1568011249
    nsecs: 690110129
  frame_id: "imu_link"
vector: 
  x: -1.68673205376
  y: -0.870370268822
  z: 3.58787107468
---
header: 
  seq: 140
  stamp: 
    secs: 1568011249
    nsecs: 743168150
  frame_id: "imu_link"
vector: 
  x: -1.70560979843
  y: -0.876888036728
  z: 3.58101415634
---
header: 
  seq: 141
  stamp: 
    secs: 1568011249
    nsecs: 796050389
  frame_id: "imu_link"
vector: 
  x: -1.7031981945
  y: -0.895583212376
  z: 3.56924724579
---
header: 
  seq: 142
  stamp: 
    secs: 1568011249
    nsecs: 846617160
  frame_id: "imu_link"
vector: 
  x: -1.69220471382
  y: -0.911593556404
  z: 3.52041959763
---
header: 
  seq: 143
  stamp: 
    secs: 1568011249
    nsecs: 900194817
  frame_id: "imu_link"
vector: 
  x: -1.69071531296
  y: -0.884951114655
  z: 3.56127071381
---
header: 
  seq: 144
  stamp: 
    secs: 1568011249
    nsecs: 952875650
  frame_id: "imu_link"
vector: 
  x: -1.66922402382
  y: -0.881298363209
  z: 3.5608651638
---
header: 
  seq: 145
  stamp: 
    secs: 1568011250
    nsecs:   6066014
  frame_id: "imu_link"
vector: 
  x: -1.69625222683
  y: -0.868717193604
  z: 3.5871796608
---
header: 
  seq: 146
  stamp: 
    secs: 1568011250
    nsecs:  59177994
  frame_id: "imu_link"
vector: 
  x: -1.69582891464
  y: -0.859234929085
  z: 3.58072161674
---
header: 
  seq: 147
  stamp: 
    secs: 1568011250
    nsecs: 112320181
  frame_id: "imu_link"
vector: 
  x: -1.69905352592
  y: -0.855797410011
  z: 3.56909799576
---
header: 
  seq: 148
  stamp: 
    secs: 1568011250
    nsecs: 164346952
  frame_id: "imu_link"
vector: 
  x: -1.70041823387
  y: -0.870520114899
  z: 3.56417894363
---
header: 
  seq: 149
  stamp: 
    secs: 1568011250
    nsecs: 214762941
  frame_id: "imu_link"
vector: 
  x: -1.69477701187
  y: -0.867090523243
  z: 3.57004451752
---
header: 
  seq: 150
  stamp: 
    secs: 1568011250
    nsecs: 267955858
  frame_id: "imu_link"
vector: 
  x: -1.71947300434
  y: -0.851400732994
  z: 3.58238649368
---
header: 
  seq: 151
  stamp: 
    secs: 1568011250
    nsecs: 321737941
  frame_id: "imu_link"
vector: 
  x: -1.71946597099
  y: -0.836504936218
  z: 3.57869291306
---
header: 
  seq: 152
  stamp: 
    secs: 1568011250
    nsecs: 370408671
  frame_id: "imu_link"
vector: 
  x: -1.71946299076
  y: -0.846357107162
  z: 3.57713317871
---
header: 
  seq: 153
  stamp: 
    secs: 1568011250
    nsecs: 423599504
  frame_id: "imu_link"
vector: 
  x: -1.71912717819
  y: -0.850819408894
  z: 3.61033535004
---
header: 
  seq: 154
  stamp: 
    secs: 1568011250
    nsecs: 476571795
  frame_id: "imu_link"
vector: 
  x: -1.71941685677
  y: -0.851673364639
  z: 3.60830235481
---
header: 
  seq: 155
  stamp: 
    secs: 1568011250
    nsecs: 530944400
  frame_id: "imu_link"
vector: 
  x: -1.71603107452
  y: -0.852223455906
  z: 3.59853029251
---
header: 
  seq: 156
  stamp: 
    secs: 1568011250
    nsecs: 580334764
  frame_id: "imu_link"
vector: 
  x: -1.71232795715
  y: -0.869077980518
  z: 3.55343103409
---
header: 
  seq: 157
  stamp: 
    secs: 1568011250
    nsecs: 632036379
  frame_id: "imu_link"
vector: 
  x: -1.71284389496
  y: -0.861114144325
  z: 3.53976726532
---
header: 
  seq: 158
  stamp: 
    secs: 1568011250
    nsecs: 686725181
  frame_id: "imu_link"
vector: 
  x: -1.70626866817
  y: -0.864673793316
  z: 3.55174016953
---
header: 
  seq: 159
  stamp: 
    secs: 1568011250
    nsecs: 740825858
  frame_id: "imu_link"
vector: 
  x: -1.71709120274
  y: -0.855607867241
  z: 3.57162809372
---
header: 
  seq: 160
  stamp: 
    secs: 1568011250
    nsecs: 791655233
  frame_id: "imu_link"
vector: 
  x: -1.71845507622
  y: -0.870608210564
  z: 3.57413434982
---
header: 
  seq: 161
  stamp: 
    secs: 1568011250
    nsecs: 846072681
  frame_id: "imu_link"
vector: 
  x: -1.70865035057
  y: -0.876774907112
  z: 3.56632709503
---
header: 
  seq: 162
  stamp: 
    secs: 1568011250
    nsecs: 899194920
  frame_id: "imu_link"
vector: 
  x: -1.69067001343
  y: -0.862444460392
  z: 3.56300616264
---
header: 
  seq: 163
  stamp: 
    secs: 1568011250
    nsecs: 950926743
  frame_id: "imu_link"
vector: 
  x: -1.68775475025
  y: -0.861793279648
  z: 3.57364463806
---
header: 
  seq: 164
  stamp: 
    secs: 1568011251
    nsecs:   5235493
  frame_id: "imu_link"
vector: 
  x: -1.66801691055
  y: -0.855328083038
  z: 3.56610298157
---
header: 
  seq: 165
  stamp: 
    secs: 1568011251
    nsecs:  57152837
  frame_id: "imu_link"
vector: 
  x: -1.67346167564
  y: -0.845300734043
  z: 3.56291818619
---
header: 
  seq: 166
  stamp: 
    secs: 1568011251
    nsecs: 110319191
  frame_id: "imu_link"
vector: 
  x: -1.72904229164
  y: -0.848046004772
  z: 3.6115398407
---
header: 
  seq: 167
  stamp: 
    secs: 1568011251
    nsecs: 166235181
  frame_id: "imu_link"
vector: 
  x: -1.7062048912
  y: -0.842585384846
  z: 3.58214068413
---
header: 
  seq: 168
  stamp: 
    secs: 1568011251
    nsecs: 216767785
  frame_id: "imu_link"
vector: 
  x: -1.69656062126
  y: -0.848350763321
  z: 3.56972527504
---
header: 
  seq: 169
  stamp: 
    secs: 1568011251
    nsecs: 267622524
  frame_id: "imu_link"
vector: 
  x: -1.68497610092
  y: -0.876062214375
  z: 3.56416702271
---
header: 
  seq: 170
  stamp: 
    secs: 1568011251
    nsecs: 319537524
  frame_id: "imu_link"
vector: 
  x: -1.69213616848
  y: -0.863493561745
  z: 3.57008886337
---
header: 
  seq: 171
  stamp: 
    secs: 1568011251
    nsecs: 373193253
  frame_id: "imu_link"
vector: 
  x: -1.70108914375
  y: -0.848560452461
  z: 3.5912694931
---
header: 
  seq: 172
  stamp: 
    secs: 1568011251
    nsecs: 427609972
  frame_id: "imu_link"
vector: 
  x: -1.71175992489
  y: -0.850712776184
  z: 3.60021400452
---
header: 
  seq: 173
  stamp: 
    secs: 1568011251
    nsecs: 475226222
  frame_id: "imu_link"
vector: 
  x: -1.70475554466
  y: -0.896595358849
  z: 3.57144498825
---
header: 
  seq: 174
  stamp: 
    secs: 1568011251
    nsecs: 527048878
  frame_id: "imu_link"
vector: 
  x: -1.69592654705
  y: -0.903575778008
  z: 3.56517219543
---
header: 
  seq: 175
  stamp: 
    secs: 1568011251
    nsecs: 581283670
  frame_id: "imu_link"
vector: 
  x: -1.69569158554
  y: -0.874050915241
  z: 3.57139420509
---
header: 
  seq: 176
  stamp: 
    secs: 1568011251
    nsecs: 631861951
  frame_id: "imu_link"
vector: 
  x: -1.69209825993
  y: -0.877848982811
  z: 3.5651640892
---
header: 
  seq: 177
  stamp: 
    secs: 1568011251
    nsecs: 683979764
  frame_id: "imu_link"
vector: 
  x: -1.69681453705
  y: -0.856319785118
  z: 3.56139469147
---
header: 
  seq: 178
  stamp: 
    secs: 1568011251
    nsecs: 737036691
  frame_id: "imu_link"
vector: 
  x: -1.69947075844
  y: -0.838386178017
  z: 3.56091880798
---
header: 
  seq: 179
  stamp: 
    secs: 1568011251
    nsecs: 790059139
  frame_id: "imu_link"
vector: 
  x: -1.70769417286
  y: -0.845836043358
  z: 3.59627914429
---
header: 
  seq: 180
  stamp: 
    secs: 1568011251
    nsecs: 840685389
  frame_id: "imu_link"
vector: 
  x: -1.69716143608
  y: -0.867326974869
  z: 3.57824730873
---
header: 
  seq: 181
  stamp: 
    secs: 1568011251
    nsecs: 893729503
  frame_id: "imu_link"
vector: 
  x: -1.70999598503
  y: -0.891725122929
  z: 3.57694387436
---
header: 
  seq: 182
  stamp: 
    secs: 1568011251
    nsecs: 947011482
  frame_id: "imu_link"
vector: 
  x: -1.71545529366
  y: -0.885925650597
  z: 3.57638978958
---
header: 
  seq: 183
  stamp: 
    secs: 1568011252
    nsecs:    151066
  frame_id: "imu_link"
vector: 
  x: -1.68082547188
  y: -0.861667275429
  z: 3.55454802513
---
header: 
  seq: 184
  stamp: 
    secs: 1568011252
    nsecs:  52155024
  frame_id: "imu_link"
vector: 
  x: -1.67198944092
  y: -0.855662763119
  z: 3.55802106857
---
header: 
  seq: 185
  stamp: 
    secs: 1568011252
    nsecs: 105191899
  frame_id: "imu_link"
vector: 
  x: -1.67865586281
  y: -0.869499564171
  z: 3.56838130951
---
header: 
  seq: 186
  stamp: 
    secs: 1568011252
    nsecs: 158231430
  frame_id: "imu_link"
vector: 
  x: -1.68488097191
  y: -0.859753489494
  z: 3.5638756752
---
header: 
  seq: 187
  stamp: 
    secs: 1568011252
    nsecs: 209978878
  frame_id: "imu_link"
vector: 
  x: -1.69904112816
  y: -0.870284557343
  z: 3.58315563202
---
header: 
  seq: 188
  stamp: 
    secs: 1568011252
    nsecs: 263234659
  frame_id: "imu_link"
vector: 
  x: -1.71071767807
  y: -0.868776082993
  z: 3.5790541172
---
header: 
  seq: 189
  stamp: 
    secs: 1568011252
    nsecs: 315092732
  frame_id: "imu_link"
vector: 
  x: -1.71916985512
  y: -0.875947892666
  z: 3.58609676361
---
header: 
  seq: 190
  stamp: 
    secs: 1568011252
    nsecs: 368281326
  frame_id: "imu_link"
vector: 
  x: -1.72616147995
  y: -0.890126466751
  z: 3.56274628639
---
header: 
  seq: 191
  stamp: 
    secs: 1568011252
    nsecs: 419893618
  frame_id: "imu_link"
vector: 
  x: -1.72224223614
  y: -0.902059733868
  z: 3.55270957947
---
header: 
  seq: 192
  stamp: 
    secs: 1568011252
    nsecs: 471796222
  frame_id: "imu_link"
vector: 
  x: -1.71728801727
  y: -0.889856696129
  z: 3.57478380203
---
header: 
  seq: 193
  stamp: 
    secs: 1568011252
    nsecs: 523980232
  frame_id: "imu_link"
vector: 
  x: -1.70833003521
  y: -0.868229210377
  z: 3.5842628479
---
header: 
  seq: 194
  stamp: 
    secs: 1568011252
    nsecs: 576490128
  frame_id: "imu_link"
vector: 
  x: -1.71597480774
  y: -0.864207863808
  z: 3.57342767715
---
header: 
  seq: 195
  stamp: 
    secs: 1568011252
    nsecs: 628222315
  frame_id: "imu_link"
vector: 
  x: -1.69743180275
  y: -0.865020155907
  z: 3.57488918304
---
header: 
  seq: 196
  stamp: 
    secs: 1568011252
    nsecs: 680281690
  frame_id: "imu_link"
vector: 
  x: -1.69970226288
  y: -0.866317629814
  z: 3.56673669815
---
header: 
  seq: 197
  stamp: 
    secs: 1568011252
    nsecs: 733267836
  frame_id: "imu_link"
vector: 
  x: -1.68111681938
  y: -0.865055441856
  z: 3.5836224556
---
header: 
  seq: 198
  stamp: 
    secs: 1568011252
    nsecs: 784986013
  frame_id: "imu_link"
vector: 
  x: -1.68596696854
  y: -0.865196943283
  z: 3.58805847168
---
header: 
  seq: 199
  stamp: 
    secs: 1568011252
    nsecs: 838126117
  frame_id: "imu_link"
vector: 
  x: -1.67765951157
  y: -0.88181746006
  z: 3.56357908249
---
header: 
  seq: 200
  stamp: 
    secs: 1568011252
    nsecs: 890001638
  frame_id: "imu_link"
vector: 
  x: -1.68101882935
  y: -0.880582034588
  z: 3.57065677643
---
header: 
  seq: 201
  stamp: 
    secs: 1568011252
    nsecs: 943142472
  frame_id: "imu_link"
vector: 
  x: -1.71158981323
  y: -0.858390033245
  z: 3.5702829361
---
header: 
  seq: 202
  stamp: 
    secs: 1568011252
    nsecs: 995065701
  frame_id: "imu_link"
vector: 
  x: -1.71943092346
  y: -0.856244087219
  z: 3.56475281715
---
header: 
  seq: 203
  stamp: 
    secs: 1568011253
    nsecs:  47090440
  frame_id: "imu_link"
vector: 
  x: -1.71261751652
  y: -0.862366318703
  z: 3.5711607933
---
header: 
  seq: 204
  stamp: 
    secs: 1568011253
    nsecs:  98679607
  frame_id: "imu_link"
vector: 
  x: -1.69812619686
  y: -0.853840231895
  z: 3.57867336273
---
header: 
  seq: 205
  stamp: 
    secs: 1568011253
    nsecs: 151788044
  frame_id: "imu_link"
vector: 
  x: -1.68641483784
  y: -0.851991295815
  z: 3.58594894409
---
header: 
  seq: 206
  stamp: 
    secs: 1568011253
    nsecs: 203939919
  frame_id: "imu_link"
vector: 
  x: -1.698605299
  y: -0.874983429909
  z: 3.61537742615
---
header: 
  seq: 207
  stamp: 
    secs: 1568011253
    nsecs: 255689034
  frame_id: "imu_link"
vector: 
  x: -1.71062743664
  y: -0.878050804138
  z: 3.61047840118
---
header: 
  seq: 208
  stamp: 
    secs: 1568011253
    nsecs: 308790857
  frame_id: "imu_link"
vector: 
  x: -1.70964503288
  y: -0.8727684021
  z: 3.5955286026
---
header: 
  seq: 209
  stamp: 
    secs: 1568011253
    nsecs: 360811534
  frame_id: "imu_link"
vector: 
  x: -1.70851373672
  y: -0.852747917175
  z: 3.60195207596
---
header: 
  seq: 210
  stamp: 
    secs: 1568011253
    nsecs: 412535544
  frame_id: "imu_link"
vector: 
  x: -1.69761168957
  y: -0.860683917999
  z: 3.57828831673
---
header: 
  seq: 211
  stamp: 
    secs: 1568011253
    nsecs: 464270336
  frame_id: "imu_link"
vector: 
  x: -1.67901563644
  y: -0.888702988625
  z: 3.55086493492
---
header: 
  seq: 212
  stamp: 
    secs: 1568011253
    nsecs: 517344034
  frame_id: "imu_link"
vector: 
  x: -1.67804384232
  y: -0.900456666946
  z: 3.53883886337
---
header: 
  seq: 213
  stamp: 
    secs: 1568011253
    nsecs: 569077576
  frame_id: "imu_link"
vector: 
  x: -1.68445503712
  y: -0.905913472176
  z: 3.53364849091
---
header: 
  seq: 214
  stamp: 
    secs: 1568011253
    nsecs: 622301326
  frame_id: "imu_link"
vector: 
  x: -1.69075381756
  y: -0.899329304695
  z: 3.55775117874
---
header: 
  seq: 215
  stamp: 
    secs: 1568011253
    nsecs: 676639190
  frame_id: "imu_link"
vector: 
  x: -1.70654261112
  y: -0.860474586487
  z: 3.58561658859
---
header: 
  seq: 216
  stamp: 
    secs: 1568011253
    nsecs: 726270128
  frame_id: "imu_link"
vector: 
  x: -1.7173769474
  y: -0.872383117676
  z: 3.58891487122
---
header: 
  seq: 217
  stamp: 
    secs: 1568011253
    nsecs: 779163721
  frame_id: "imu_link"
vector: 
  x: -1.71856606007
  y: -0.87768226862
  z: 3.58153629303
---
header: 
  seq: 218
  stamp: 
    secs: 1568011253
    nsecs: 830903513
  frame_id: "imu_link"
vector: 
  x: -1.68931436539
  y: -0.824505090714
  z: 3.5857155323
---
header: 
  seq: 219
  stamp: 
    secs: 1568011253
    nsecs: 882703617
  frame_id: "imu_link"
vector: 
  x: -1.68948745728
  y: -0.839815497398
  z: 3.58896422386
---
header: 
  seq: 220
  stamp: 
    secs: 1568011253
    nsecs: 935937523
  frame_id: "imu_link"
vector: 
  x: -1.69628095627
  y: -0.855462789536
  z: 3.57279825211
---
header: 
  seq: 221
  stamp: 
    secs: 1568011253
    nsecs: 987759867
  frame_id: "imu_link"
vector: 
  x: -1.71376156807
  y: -0.871815800667
  z: 3.56544780731
---
header: 
  seq: 222
  stamp: 
    secs: 1568011254
    nsecs:  39608877
  frame_id: "imu_link"
vector: 
  x: -1.71494364738
  y: -0.849171161652
  z: 3.56524038315
---
header: 
  seq: 223
  stamp: 
    secs: 1568011254
    nsecs:  91462367
  frame_id: "imu_link"
vector: 
  x: -1.71405780315
  y: -0.843895018101
  z: 3.56257534027
---
header: 
  seq: 224
  stamp: 
    secs: 1568011254
    nsecs: 144497888
  frame_id: "imu_link"
vector: 
  x: -1.70345640182
  y: -0.856707453728
  z: 3.57024216652
---
header: 
  seq: 225
  stamp: 
    secs: 1568011254
    nsecs: 196665336
  frame_id: "imu_link"
vector: 
  x: -1.6819537878
  y: -0.910789549351
  z: 3.56223630905
---
header: 
  seq: 226
  stamp: 
    secs: 1568011254
    nsecs: 248305388
  frame_id: "imu_link"
vector: 
  x: -1.70345079899
  y: -0.901421666145
  z: 3.58766961098
---
header: 
  seq: 227
  stamp: 
    secs: 1568011254
    nsecs: 301436482
  frame_id: "imu_link"
vector: 
  x: -1.71951270103
  y: -0.87377768755
  z: 3.59859108925
---
header: 
  seq: 228
  stamp: 
    secs: 1568011254
    nsecs: 353171794
  frame_id: "imu_link"
vector: 
  x: -1.70865869522
  y: -0.87830388546
  z: 3.5757818222
---
header: 
  seq: 229
  stamp: 
    secs: 1568011254
    nsecs: 406324971
  frame_id: "imu_link"
vector: 
  x: -1.71957993507
  y: -0.909581243992
  z: 3.60609865189
---
header: 
  seq: 230
  stamp: 
    secs: 1568011254
    nsecs: 458132940
  frame_id: "imu_link"
vector: 
  x: -1.71268153191
  y: -0.869266927242
  z: 3.58891558647
---
header: 
  seq: 231
  stamp: 
    secs: 1568011254
    nsecs: 511319867
  frame_id: "imu_link"
vector: 
  x: -1.7268435955
  y: -0.852537453175
  z: 3.59033155441
---
header: 
  seq: 232
  stamp: 
    secs: 1568011254
    nsecs: 563111169
  frame_id: "imu_link"
vector: 
  x: -1.72374176979
  y: -0.851778745651
  z: 3.62071108818
---
header: 
  seq: 233
  stamp: 
    secs: 1568011254
    nsecs: 614998669
  frame_id: "imu_link"
vector: 
  x: -1.70763802528
  y: -0.860064983368
  z: 3.59519052505
---
header: 
  seq: 234
  stamp: 
    secs: 1568011254
    nsecs: 668267106
  frame_id: "imu_link"
vector: 
  x: -1.69733309746
  y: -0.855041265488
  z: 3.5930211544
---
header: 
  seq: 235
  stamp: 
    secs: 1568011254
    nsecs: 720034711
  frame_id: "imu_link"
vector: 
  x: -1.6891477108
  y: -0.86061000824
  z: 3.60130977631
---
header: 
  seq: 236
  stamp: 
    secs: 1568011254
    nsecs: 771769710
  frame_id: "imu_link"
vector: 
  x: -1.71254944801
  y: -0.868451714516
  z: 3.60956144333
---
header: 
  seq: 237
  stamp: 
    secs: 1568011254
    nsecs: 823562471
  frame_id: "imu_link"
vector: 
  x: -1.6857073307
  y: -0.866642475128
  z: 3.5816078186
---
header: 
  seq: 238
  stamp: 
    secs: 1568011254
    nsecs: 876596846
  frame_id: "imu_link"
vector: 
  x: -1.68077015877
  y: -0.866229176521
  z: 3.5689868927
---
header: 
  seq: 239
  stamp: 
    secs: 1568011254
    nsecs: 928510648
  frame_id: "imu_link"
vector: 
  x: -1.69275760651
  y: -0.889487504959
  z: 3.56714010239
---
header: 
  seq: 240
  stamp: 
    secs: 1568011254
    nsecs: 980137002
  frame_id: "imu_link"
vector: 
  x: -1.70125961304
  y: -0.891890287399
  z: 3.58977532387
---
header: 
  seq: 241
  stamp: 
    secs: 1568011255
    nsecs:  33305127
  frame_id: "imu_link"
vector: 
  x: -1.71510827541
  y: -0.901876926422
  z: 3.59070062637
---
header: 
  seq: 242
  stamp: 
    secs: 1568011255
    nsecs:  85042523
  frame_id: "imu_link"
vector: 
  x: -1.72846782207
  y: -0.890735030174
  z: 3.57258915901
---
header: 
  seq: 243
  stamp: 
    secs: 1568011255
    nsecs: 138117679
  frame_id: "imu_link"
vector: 
  x: -1.70759606361
  y: -0.88637816906
  z: 3.59290504456
---
header: 
  seq: 244
  stamp: 
    secs: 1568011255
    nsecs: 190355231
  frame_id: "imu_link"
vector: 
  x: -1.70068979263
  y: -0.890935897827
  z: 3.5832285881
---
header: 
  seq: 245
  stamp: 
    secs: 1568011255
    nsecs: 242205283
  frame_id: "imu_link"
vector: 
  x: -1.71913194656
  y: -0.885781109333
  z: 3.57888221741
---
header: 
  seq: 246
  stamp: 
    secs: 1568011255
    nsecs: 295347523
  frame_id: "imu_link"
vector: 
  x: -1.72926020622
  y: -0.874220609665
  z: 3.59410738945
---
header: 
  seq: 247
  stamp: 
    secs: 1568011255
    nsecs: 347169346
  frame_id: "imu_link"
vector: 
  x: -1.72377705574
  y: -0.861740529537
  z: 3.60133981705
---
header: 
  seq: 248
  stamp: 
    secs: 1568011255
    nsecs: 399222158
  frame_id: "imu_link"
vector: 
  x: -1.71102046967
  y: -0.848908722401
  z: 3.57807731628
---
header: 
  seq: 249
  stamp: 
    secs: 1568011255
    nsecs: 452305439
  frame_id: "imu_link"
vector: 
  x: -1.69805371761
  y: -0.851129055023
  z: 3.5675535202
---
header: 
  seq: 250
  stamp: 
    secs: 1568011255
    nsecs: 504256325
  frame_id: "imu_link"
vector: 
  x: -1.70974326134
  y: -0.844076931477
  z: 3.59201836586
---
header: 
  seq: 251
  stamp: 
    secs: 1568011255
    nsecs: 555952939
  frame_id: "imu_link"
vector: 
  x: -1.71191596985
  y: -0.856927871704
  z: 3.59166455269
---
header: 
  seq: 252
  stamp: 
    secs: 1568011255
    nsecs: 609054294
  frame_id: "imu_link"
vector: 
  x: -1.72364711761
  y: -0.872204780579
  z: 3.58223867416
---
header: 
  seq: 253
  stamp: 
    secs: 1568011255
    nsecs: 660905075
  frame_id: "imu_link"
vector: 
  x: -1.70513129234
  y: -0.859476327896
  z: 3.58090877533
---
header: 
  seq: 254
  stamp: 
    secs: 1568011255
    nsecs: 713246689
  frame_id: "imu_link"
vector: 
  x: -1.71667480469
  y: -0.856705784798
  z: 3.56930375099
---
header: 
  seq: 255
  stamp: 
    secs: 1568011255
    nsecs: 765066481
  frame_id: "imu_link"
vector: 
  x: -1.72909271717
  y: -0.855856835842
  z: 3.56405377388
---
header: 
  seq: 256
  stamp: 
    secs: 1568011255
    nsecs: 818055804
  frame_id: "imu_link"
vector: 
  x: -1.73388051987
  y: -0.862767100334
  z: 3.579621315
---
header: 
  seq: 257
  stamp: 
    secs: 1568011255
    nsecs: 869895075
  frame_id: "imu_link"
vector: 
  x: -1.72123682499
  y: -0.892673373222
  z: 3.58423137665
---
header: 
  seq: 258
  stamp: 
    secs: 1568011255
    nsecs: 921680439
  frame_id: "imu_link"
vector: 
  x: -1.71002578735
  y: -0.885442137718
  z: 3.58831977844
---
header: 
  seq: 259
  stamp: 
    secs: 1568011255
    nsecs: 974863512
  frame_id: "imu_link"
vector: 
  x: -1.72289299965
  y: -0.892008900642
  z: 3.5809044838
---
header: 
  seq: 260
  stamp: 
    secs: 1568011256
    nsecs:  26824033
  frame_id: "imu_link"
vector: 
  x: -1.71833658218
  y: -0.905034899712
  z: 3.60696339607
---
header: 
  seq: 261
  stamp: 
    secs: 1568011256
    nsecs:  78485908
  frame_id: "imu_link"
vector: 
  x: -1.7121475935
  y: -0.90732306242
  z: 3.5892868042
---
header: 
  seq: 262
  stamp: 
    secs: 1568011256
    nsecs: 130304918
  frame_id: "imu_link"
vector: 
  x: -1.72017621994
  y: -0.89173913002
  z: 3.59055280685
---
header: 
  seq: 263
  stamp: 
    secs: 1568011256
    nsecs: 182322470
  frame_id: "imu_link"
vector: 
  x: -1.71293759346
  y: -0.877608597279
  z: 3.58223986626
---
header: 
  seq: 264
  stamp: 
    secs: 1568011256
    nsecs: 235341950
  frame_id: "imu_link"
vector: 
  x: -1.67390108109
  y: -0.890011668205
  z: 3.57334518433
---
header: 
  seq: 265
  stamp: 
    secs: 1568011256
    nsecs: 287283095
  frame_id: "imu_link"
vector: 
  x: -1.67250335217
  y: -0.874950766563
  z: 3.57493114471
---
header: 
  seq: 266
  stamp: 
    secs: 1568011256
    nsecs: 339070647
  frame_id: "imu_link"
vector: 
  x: -1.69256198406
  y: -0.869644522667
  z: 3.59312105179
---
header: 
  seq: 267
  stamp: 
    secs: 1568011256
    nsecs: 391993877
  frame_id: "imu_link"
vector: 
  x: -1.69165325165
  y: -0.856950163841
  z: 3.59550333023
---
header: 
  seq: 268
  stamp: 
    secs: 1568011256
    nsecs: 445086377
  frame_id: "imu_link"
vector: 
  x: -1.6975120306
  y: -0.829507112503
  z: 3.57454633713
---
header: 
  seq: 269
  stamp: 
    secs: 1568011256
    nsecs: 497084918
  frame_id: "imu_link"
vector: 
  x: -1.69974172115
  y: -0.84306871891
  z: 3.56657171249
---
header: 
  seq: 270
  stamp: 
    secs: 1568011256
    nsecs: 548933772
  frame_id: "imu_link"
vector: 
  x: -1.71791982651
  y: -0.840718150139
  z: 3.58953142166
---
header: 
  seq: 271
  stamp: 
    secs: 1568011256
    nsecs: 600653199
  frame_id: "imu_link"
vector: 
  x: -1.71868062019
  y: -0.855836033821
  z: 3.57723093033
---
header: 
  seq: 272
  stamp: 
    secs: 1568011256
    nsecs: 653784554
  frame_id: "imu_link"
vector: 
  x: -1.71924972534
  y: -0.862127542496
  z: 3.59497570992
---
header: 
  seq: 273
  stamp: 
    secs: 1568011256
    nsecs: 705896168
  frame_id: "imu_link"
vector: 
  x: -1.72303390503
  y: -0.87160384655
  z: 3.62818527222
---
header: 
  seq: 274
  stamp: 
    secs: 1568011256
    nsecs: 757603772
  frame_id: "imu_link"
vector: 
  x: -1.71467900276
  y: -0.875527083874
  z: 3.5718164444
---
header: 
  seq: 275
  stamp: 
    secs: 1568011256
    nsecs: 809435491
  frame_id: "imu_link"
vector: 
  x: -1.70318460464
  y: -0.886818051338
  z: 3.57431602478
---
header: 
  seq: 276
  stamp: 
    secs: 1568011256
    nsecs: 862547210
  frame_id: "imu_link"
vector: 
  x: -1.69881045818
  y: -0.915119886398
  z: 3.57526731491
---
header: 
  seq: 277
  stamp: 
    secs: 1568011256
    nsecs: 914296116
  frame_id: "imu_link"
vector: 
  x: -1.71066331863
  y: -0.903307080269
  z: 3.59322595596
---
header: 
  seq: 278
  stamp: 
    secs: 1568011256
    nsecs: 966446116
  frame_id: "imu_link"
vector: 
  x: -1.71343803406
  y: -0.885629415512
  z: 3.56748986244
---
header: 
  seq: 279
  stamp: 
    secs: 1568011257
    nsecs:  19080022
  frame_id: "imu_link"
vector: 
  x: -1.70994782448
  y: -0.859736382961
  z: 3.55474662781
---
header: 
  seq: 280
  stamp: 
    secs: 1568011257
    nsecs:  72211376
  frame_id: "imu_link"
vector: 
  x: -1.72217965126
  y: -0.856638789177
  z: 3.56683731079
---
header: 
  seq: 281
  stamp: 
    secs: 1568011257
    nsecs: 124112366
  frame_id: "imu_link"
vector: 
  x: -1.72409176826
  y: -0.878737568855
  z: 3.5808506012
---
header: 
  seq: 282
  stamp: 
    secs: 1568011257
    nsecs: 176026585
  frame_id: "imu_link"
vector: 
  x: -1.73026323318
  y: -0.865000367165
  z: 3.59437298775
---
header: 
  seq: 283
  stamp: 
    secs: 1568011257
    nsecs: 228031116
  frame_id: "imu_link"
vector: 
  x: -1.71736526489
  y: -0.857369959354
  z: 3.60146951675
---
header: 
  seq: 284
  stamp: 
    secs: 1568011257
    nsecs: 280981116
  frame_id: "imu_link"
vector: 
  x: -1.70149803162
  y: -0.853887379169
  z: 3.59570980072
---
header: 
  seq: 285
  stamp: 
    secs: 1568011257
    nsecs: 333110178
  frame_id: "imu_link"
vector: 
  x: -1.7086673975
  y: -0.878773033619
  z: 3.5736079216
---
header: 
  seq: 286
  stamp: 
    secs: 1568011257
    nsecs: 384559032
  frame_id: "imu_link"
vector: 
  x: -1.71482586861
  y: -0.888427913189
  z: 3.57496356964
---
header: 
  seq: 287
  stamp: 
    secs: 1568011257
    nsecs: 437653355
  frame_id: "imu_link"
vector: 
  x: -1.71063995361
  y: -0.884188354015
  z: 3.57554554939
---
header: 
  seq: 288
  stamp: 
    secs: 1568011257
    nsecs: 489434866
  frame_id: "imu_link"
vector: 
  x: -1.68835067749
  y: -0.87321460247
  z: 3.57579565048
---
header: 
  seq: 289
  stamp: 
    secs: 1568011257
    nsecs: 541200491
  frame_id: "imu_link"
vector: 
  x: -1.69172620773
  y: -0.860446810722
  z: 3.55042028427
---
header: 
  seq: 290
  stamp: 
    secs: 1568011257
    nsecs: 594353043
  frame_id: "imu_link"
vector: 
  x: -1.71442806721
  y: -0.832239031792
  z: 3.5825252533
---
header: 
  seq: 291
  stamp: 
    secs: 1568011257
    nsecs: 646030230
  frame_id: "imu_link"
vector: 
  x: -1.71046042442
  y: -0.836063027382
  z: 3.57878446579
---
header: 
  seq: 292
  stamp: 
    secs: 1568011257
    nsecs: 701857366
  frame_id: "imu_link"
vector: 
  x: -1.70782208443
  y: -0.863060593605
  z: 3.54389572144
---
header: 
  seq: 293
  stamp: 
    secs: 1568011257
    nsecs: 750972470
  frame_id: "imu_link"
vector: 
  x: -1.71119189262
  y: -0.864353179932
  z: 3.5885887146
---
header: 
  seq: 294
  stamp: 
    secs: 1568011257
    nsecs: 804162626
  frame_id: "imu_link"
vector: 
  x: -1.71254277229
  y: -0.865663051605
  z: 3.59019136429
---
header: 
  seq: 295
  stamp: 
    secs: 1568011257
    nsecs: 856120334
  frame_id: "imu_link"
vector: 
  x: -1.70965957642
  y: -0.866411030293
  z: 3.58208465576
---
header: 
  seq: 296
  stamp: 
    secs: 1568011257
    nsecs: 907811688
  frame_id: "imu_link"
vector: 
  x: -1.73500370979
  y: -0.858935594559
  z: 3.611338377
---
header: 
  seq: 297
  stamp: 
    secs: 1568011257
    nsecs: 960871324
  frame_id: "imu_link"
vector: 
  x: -1.74669766426
  y: -0.864290952682
  z: 3.60876083374
---
header: 
  seq: 298
  stamp: 
    secs: 1568011258
    nsecs:  12761532
  frame_id: "imu_link"
vector: 
  x: -1.7414393425
  y: -0.87442779541
  z: 3.59883165359
---
header: 
  seq: 299
  stamp: 
    secs: 1568011258
    nsecs:  64623720
  frame_id: "imu_link"
vector: 
  x: -1.68772375584
  y: -0.855059742928
  z: 3.5834312439
---
header: 
  seq: 300
  stamp: 
    secs: 1568011258
    nsecs: 116291011
  frame_id: "imu_link"
vector: 
  x: -1.70929574966
  y: -0.862056136131
  z: 3.58797645569
---
header: 
  seq: 301
  stamp: 
    secs: 1568011258
    nsecs: 169401063
  frame_id: "imu_link"
vector: 
  x: -1.71519196033
  y: -0.872492909431
  z: 3.59872293472
---
header: 
  seq: 302
  stamp: 
    secs: 1568011258
    nsecs: 221710282
  frame_id: "imu_link"
vector: 
  x: -1.70063138008
  y: -0.876383900642
  z: 3.5945520401
---
header: 
  seq: 303
  stamp: 
    secs: 1568011258
    nsecs: 273825699
  frame_id: "imu_link"
vector: 
  x: -1.71980428696
  y: -0.867872416973
  z: 3.61345481873
---
header: 
  seq: 304
  stamp: 
    secs: 1568011258
    nsecs: 325243407
  frame_id: "imu_link"
vector: 
  x: -1.71624112129
  y: -0.875176012516
  z: 3.60086894035
---
header: 
  seq: 305
  stamp: 
    secs: 1568011258
    nsecs: 377049917
  frame_id: "imu_link"
vector: 
  x: -1.72154164314
  y: -0.878696143627
  z: 3.59546422958
---
header: 
  seq: 306
  stamp: 
    secs: 1568011258
    nsecs: 430026584
  frame_id: "imu_link"
vector: 
  x: -1.70462012291
  y: -0.876852750778
  z: 3.57535767555
---
header: 
  seq: 307
  stamp: 
    secs: 1568011258
    nsecs: 483139188
  frame_id: "imu_link"
vector: 
  x: -1.71328020096
  y: -0.878092050552
  z: 3.61089372635
---
header: 
  seq: 308
  stamp: 
    secs: 1568011258
    nsecs: 535023147
  frame_id: "imu_link"
vector: 
  x: -1.72373354435
  y: -0.887764573097
  z: 3.60856389999
---
header: 
  seq: 309
  stamp: 
    secs: 1568011258
    nsecs: 586732990
  frame_id: "imu_link"
vector: 
  x: -1.72117042542
  y: -0.875695884228
  z: 3.58901882172
---
header: 
  seq: 310
  stamp: 
    secs: 1568011258
    nsecs: 640039344
  frame_id: "imu_link"
vector: 
  x: -1.70852828026
  y: -0.83891415596
  z: 3.57460641861
---
header: 
  seq: 311
  stamp: 
    secs: 1568011258
    nsecs: 692297209
  frame_id: "imu_link"
vector: 
  x: -1.72169303894
  y: -0.854937434196
  z: 3.59298157692
---
header: 
  seq: 312
  stamp: 
    secs: 1568011258
    nsecs: 744156844
  frame_id: "imu_link"
vector: 
  x: -1.7170624733
  y: -0.861605167389
  z: 3.5920791626
---
header: 
  seq: 313
  stamp: 
    secs: 1568011258
    nsecs: 795923980
  frame_id: "imu_link"
vector: 
  x: -1.72989439964
  y: -0.867183864117
  z: 3.57954359055
---
header: 
  seq: 314
  stamp: 
    secs: 1568011258
    nsecs: 848998667
  frame_id: "imu_link"
vector: 
  x: -1.74452912807
  y: -0.859843015671
  z: 3.59510159492
---
header: 
  seq: 315
  stamp: 
    secs: 1568011258
    nsecs: 900920126
  frame_id: "imu_link"
vector: 
  x: -1.7199318409
  y: -0.856095552444
  z: 3.57539844513
---
header: 
  seq: 316
  stamp: 
    secs: 1568011258
    nsecs: 952879084
  frame_id: "imu_link"
vector: 
  x: -1.70170986652
  y: -0.870059907436
  z: 3.58501505852
---
header: 
  seq: 317
  stamp: 
    secs: 1568011259
    nsecs:   4865959
  frame_id: "imu_link"
vector: 
  x: -1.67117989063
  y: -0.836037635803
  z: 3.54755234718
---
header: 
  seq: 318
  stamp: 
    secs: 1568011259
    nsecs:  56424553
  frame_id: "imu_link"
vector: 
  x: -1.65428137779
  y: -0.851955533028
  z: 3.55497980118
---
header: 
  seq: 319
  stamp: 
    secs: 1568011259
    nsecs: 109543615
  frame_id: "imu_link"
vector: 
  x: -1.6718378067
  y: -0.860157847404
  z: 3.56757950783
---
header: 
  seq: 320
  stamp: 
    secs: 1568011259
    nsecs: 161352938
  frame_id: "imu_link"
vector: 
  x: -1.68422746658
  y: -0.857550978661
  z: 3.5568780899
---
header: 
  seq: 321
  stamp: 
    secs: 1568011259
    nsecs: 213311115
  frame_id: "imu_link"
vector: 
  x: -1.69403707981
  y: -0.85511136055
  z: 3.55898451805
---
header: 
  seq: 322
  stamp: 
    secs: 1568011259
    nsecs: 266229865
  frame_id: "imu_link"
vector: 
  x: -1.69824957848
  y: -0.854063749313
  z: 3.55988907814
---
header: 
  seq: 323
  stamp: 
    secs: 1568011259
    nsecs: 318047469
  frame_id: "imu_link"
vector: 
  x: -1.68932843208
  y: -0.861794948578
  z: 3.55105066299
---
header: 
  seq: 324
  stamp: 
    secs: 1568011259
    nsecs: 371179709
  frame_id: "imu_link"
vector: 
  x: -1.68956398964
  y: -0.879530310631
  z: 3.58395695686
---
header: 
  seq: 325
  stamp: 
    secs: 1568011259
    nsecs: 422953980
  frame_id: "imu_link"
vector: 
  x: -1.70322549343
  y: -0.864212274551
  z: 3.58819270134
---
header: 
  seq: 326
  stamp: 
    secs: 1568011259
    nsecs: 476023667
  frame_id: "imu_link"
vector: 
  x: -1.70224332809
  y: -0.848444759846
  z: 3.59011507034
---
header: 
  seq: 327
  stamp: 
    secs: 1568011259
    nsecs: 527777521
  frame_id: "imu_link"
vector: 
  x: -1.71235072613
  y: -0.863669455051
  z: 3.58356904984
---
header: 
  seq: 328
  stamp: 
    secs: 1568011259
    nsecs: 579582886
  frame_id: "imu_link"
vector: 
  x: -1.73022186756
  y: -0.84922516346
  z: 3.61435222626
---
header: 
  seq: 329
  stamp: 
    secs: 1568011259
    nsecs: 632609500
  frame_id: "imu_link"
vector: 
  x: -1.72030746937
  y: -0.850473642349
  z: 3.6190841198
---
header: 
  seq: 330
  stamp: 
    secs: 1568011259
    nsecs: 684480646
  frame_id: "imu_link"
vector: 
  x: -1.70962667465
  y: -0.867320775986
  z: 3.60328626633
---
header: 
  seq: 331
  stamp: 
    secs: 1568011259
    nsecs: 736499136
  frame_id: "imu_link"
vector: 
  x: -1.71683228016
  y: -0.877667963505
  z: 3.61118507385
---
header: 
  seq: 332
  stamp: 
    secs: 1568011259
    nsecs: 792556948
  frame_id: "imu_link"
vector: 
  x: -1.72506666183
  y: -0.889091968536
  z: 3.57351016998
---
header: 
  seq: 333
  stamp: 
    secs: 1568011259
    nsecs: 841291948
  frame_id: "imu_link"
vector: 
  x: -1.72150158882
  y: -0.886226892471
  z: 3.53800702095
---
header: 
  seq: 334
  stamp: 
    secs: 1568011259
    nsecs: 892967938
  frame_id: "imu_link"
vector: 
  x: -1.71596443653
  y: -0.832036316395
  z: 3.5689599514
---
header: 
  seq: 335
  stamp: 
    secs: 1568011259
    nsecs: 946393459
  frame_id: "imu_link"
vector: 
  x: -1.70766556263
  y: -0.844154834747
  z: 3.56417274475
---
header: 
  seq: 336
  stamp: 
    secs: 1568011259
    nsecs: 998526115
  frame_id: "imu_link"
vector: 
  x: -1.70391130447
  y: -0.86649620533
  z: 3.56200695038
---
header: 
  seq: 337
  stamp: 
    secs: 1568011260
    nsecs:  50062833
  frame_id: "imu_link"
vector: 
  x: -1.69567716122
  y: -0.866570234299
  z: 3.56118869781
---
header: 
  seq: 338
  stamp: 
    secs: 1568011260
    nsecs: 103160750
  frame_id: "imu_link"
vector: 
  x: -1.67551898956
  y: -0.846190273762
  z: 3.56447172165
---
header: 
  seq: 339
  stamp: 
    secs: 1568011260
    nsecs: 155131740
  frame_id: "imu_link"
vector: 
  x: -1.67304253578
  y: -0.841396510601
  z: 3.55283784866
---
header: 
  seq: 340
  stamp: 
    secs: 1568011260
    nsecs: 207233615
  frame_id: "imu_link"
vector: 
  x: -1.68929457664
  y: -0.855390548706
  z: 3.57479071617
---
header: 
  seq: 341
  stamp: 
    secs: 1568011260
    nsecs: 259149396
  frame_id: "imu_link"
vector: 
  x: -1.70225644112
  y: -0.867629885674
  z: 3.58832573891
---
header: 
  seq: 342
  stamp: 
    secs: 1568011260
    nsecs: 312324813
  frame_id: "imu_link"
vector: 
  x: -1.69158124924
  y: -0.866487920284
  z: 3.58128356934
---
header: 
  seq: 343
  stamp: 
    secs: 1568011260
    nsecs: 363209240
  frame_id: "imu_link"
vector: 
  x: -1.69384658337
  y: -0.875600457191
  z: 3.55956745148
---
header: 
  seq: 344
  stamp: 
    secs: 1568011260
    nsecs: 416055021
  frame_id: "imu_link"
vector: 
  x: -1.70499825478
  y: -0.871247649193
  z: 3.56013941765
---
header: 
  seq: 345
  stamp: 
    secs: 1568011260
    nsecs: 469234760
  frame_id: "imu_link"
vector: 
  x: -1.70553922653
  y: -0.841562330723
  z: 3.5692653656
---
header: 
  seq: 346
  stamp: 
    secs: 1568011260
    nsecs: 520297573
  frame_id: "imu_link"
vector: 
  x: -1.71047115326
  y: -0.847428500652
  z: 3.60116147995
---
header: 
  seq: 347
  stamp: 
    secs: 1568011260
    nsecs: 573508406
  frame_id: "imu_link"
vector: 
  x: -1.70541381836
  y: -0.842019915581
  z: 3.59560251236
---
header: 
  seq: 348
  stamp: 
    secs: 1568011260
    nsecs: 625052729
  frame_id: "imu_link"
vector: 
  x: -1.70668756962
  y: -0.874478578568
  z: 3.58838701248
---
header: 
  seq: 349
  stamp: 
    secs: 1568011260
    nsecs: 678202052
  frame_id: "imu_link"
vector: 
  x: -1.68548095226
  y: -0.877979159355
  z: 3.56240105629
---
header: 
  seq: 350
  stamp: 
    secs: 1568011260
    nsecs: 730299396
  frame_id: "imu_link"
vector: 
  x: -1.68428134918
  y: -0.855683505535
  z: 3.55256128311
---
header: 
  seq: 351
  stamp: 
    secs: 1568011260
    nsecs: 782399239
  frame_id: "imu_link"
vector: 
  x: -1.69415640831
  y: -0.845552921295
  z: 3.57472014427
---
header: 
  seq: 352
  stamp: 
    secs: 1568011260
    nsecs: 834076531
  frame_id: "imu_link"
vector: 
  x: -1.70348501205
  y: -0.848664402962
  z: 3.56192874908
---
header: 
  seq: 353
  stamp: 
    secs: 1568011260
    nsecs: 887208094
  frame_id: "imu_link"
vector: 
  x: -1.70579087734
  y: -0.86889487505
  z: 3.55184650421
---
header: 
  seq: 354
  stamp: 
    secs: 1568011260
    nsecs: 938938354
  frame_id: "imu_link"
vector: 
  x: -1.70666408539
  y: -0.876555263996
  z: 3.54802894592
---
header: 
  seq: 355
  stamp: 
    secs: 1568011260
    nsecs: 992039135
  frame_id: "imu_link"
vector: 
  x: -1.70234823227
  y: -0.880766093731
  z: 3.55067515373
---
header: 
  seq: 356
  stamp: 
    secs: 1568011261
    nsecs:  43965646
  frame_id: "imu_link"
vector: 
  x: -1.70179009438
  y: -0.872671127319
  z: 3.55662250519
---
header: 
  seq: 357
  stamp: 
    secs: 1568011261
    nsecs:  95970854
  frame_id: "imu_link"
vector: 
  x: -1.68449223042
  y: -0.869031667709
  z: 3.55009412766
---
header: 
  seq: 358
  stamp: 
    secs: 1568011261
    nsecs: 147596896
  frame_id: "imu_link"
