
header: 
  seq: 0
  stamp: 
    secs: 1556851580
    nsecs: 833659489
  frame_id: "imu_link"
orientation: 
  x: -0.8285238933
  y: 0.0064453056
  z: 0.0052368108
  w: 0.5598687854
orientation_covariance: [0.002741552146694444, 0.0, 0.0, 0.0, 0.002741552146694444, 0.0, 0.0, 0.0, 0.007615422629706791]
angular_velocity: 
  x: 0.000742933973992
  y: 0.000840962749093
  z: -0.00146112824776
angular_velocity_covariance: [1.0966208586777776e-06, 0.0, 0.0, 0.0, 1.0966208586777776e-06, 0.0, 0.0, 0.0, 1.0966208586777776e-06]
linear_acceleration: 
  x: -0.0539809892382
  y: -0.150089366115
  z: -10.1378459479
linear_acceleration_covariance: [0.0015387262937311438, 0.0, 0.0, 0.0, 0.0015387262937311438, 0.0, 0.0, 0.0, 0.0015387262937311438]
---
header: 
  seq: 1
  stamp: 
    secs: 1556851580
    nsecs: 883692755
  frame_id: "imu_link"
orientation: 
  x: -0.828154631
  y: 0.0064453056
  z: 0.0052368108
  w: 0.5603723249
orientation_covariance: [0.002741552146694444, 0.0, 0.0, 0.0, 0.002741552146694444, 0.0, 0.0, 0.0, 0.007615422629706791]
angular_velocity: 
  x: 0.00212881823319
  y: -0.00442212645506
  z: -0.000346509376998
angular_velocity_covariance: [1.0966208586777776e-06, 0.0, 0.0, 0.0, 1.0966208586777776e-06, 0.0, 0.0, 0.0, 1.0966208586777776e-06]
linear_acceleration: 
  x: -0.0477954644371
  y: -0.161358144431
  z: -10.1370977599
linear_acceleration_covariance: [0.0015387262937311438, 0.0, 0.0, 0.0, 0.0015387262937311438, 0.0, 0.0, 0.0, 0.0015387262937311438]
---
header: 
  seq: 2
  stamp: 
    secs: 1556851580
    nsecs: 934692951
  frame_id: "imu_link"
orientation: 
  x: -0.827818938
  y: 0.0064788749
  z: 0.0052368108
  w: 0.5608758644
orientation_covariance: [0.002741552146694444, 0.0, 0.0, 0.0, 0.002741552146694444, 0.0, 0.0, 0.0, 0.007615422629706791]
angular_velocity: 
  x: 0.000908483245402
  y: 0.000806954520069
  z: -0.000109790173201
angular_velocity_covariance: [1.0966208586777776e-06, 0.0, 0.0, 0.0, 1.0966208586777776e-06, 0.0, 0.0, 0.0, 1.0966208586777776e-06]
linear_acceleration: 
  x: -0.0486219783891
  y: -0.156126527388
  z: -10.1388606779
linear_acceleration_covariance: [0.0015387262937311438, 0.0, 0.0, 0.0, 0.0015387262937311438, 0.0, 0.0, 0.0, 0.0015387262937311438]
---
header: 
  seq: 3
  stamp: 
    secs: 1556851580
    nsecs: 984693658
  frame_id: "imu_link"
orientation: 
  x: -0.827483245
  y: 0.0064788749
  z: 0.0052368108
  w: 0.5613794039
orientation_covariance: [0.002741552146694444, 0.0, 0.0, 0.0, 0.002741552146694444, 0.0, 0.0, 0.0, 0.007615422629706791]
angular_velocity: 
  x: -0.000393650319148
  y: 0.00072807605783
  z: -0.00132077432679
angular_velocity_covariance: [1.0966208586777776e-06, 0.0, 0.0, 0.0, 1.0966208586777776e-06, 0.0, 0.0, 0.0, 1.0966208586777776e-06]
linear_acceleration: 
  x: -0.0529388917402
  y: -0.159682411505
  z: -10.1425665467
linear_acceleration_covariance: [0.0015387262937311438, 0.0, 0.0, 0.0, 0.0015387262937311438, 0.0, 0.0, 0.0, 0.0015387262937311438]
---
header: 
  seq: 4
  stamp: 
    secs: 1556851581
    nsecs:  35652833
  frame_id: "imu_link"
orientation: 
  x: -0.827147552
  y: 0.0064788749
  z: 0.0052368108
  w: 0.5618829434
orientation_covariance: [0.002741552146694444, 0.0, 0.0, 0.0, 0.002741552146694444, 0.0, 0.0, 0.0, 0.007615422629706791]
angular_velocity: 
  x: -0.00138951145079
  y: -0.00070964517557
  z: -0.00134333655472
angular_velocity_covariance: [1.0966208586777776e-06, 0.0, 0.0, 0.0, 1.0966208586777776e-06, 0.0, 0.0, 0.0, 1.0966208586777776e-06]
linear_acceleration: 
  x: -0.0481737277315
  y: -0.155173592311
  z: -10.1339553702
linear_acceleration_covariance: [0.0015387262937311438, 0.0, 0.0, 0.0, 0.0015387262937311438, 0.0, 0.0, 0.0, 0.0015387262937311438]
---
header: 
  seq: 5
  stamp: 
    secs: 1556851581
    nsecs:  85663056
  frame_id: "imu_link"
orientation: 
  x: -0.826811859
  y: 0.0064788749
  z: 0.0052368108
  w: 0.5623864829
orientation_covariance: [0.002741552146694444, 0.0, 0.0, 0.0, 0.002741552146694444, 0.0, 0.0, 0.0, 0.007615422629706791]
angular_velocity: 
  x: 0.000135386078739
  y: 0.000282011074385
  z: -0.000630927569301
angular_velocity_covariance: [1.0966208586777776e-06, 0.0, 0.0, 0.0, 1.0966208586777776e-06, 0.0, 0.0, 0.0, 1.0966208586777776e-06]
linear_acceleration: 
  x: -0.055674344586
  y: -0.154344247081
  z: -10.1395679494
linear_acceleration_covariance: [0.0015387262937311438, 0.0, 0.0, 0.0, 0.0015387262937311438, 0.0, 0.0, 0.0, 0.0015387262937311438]
---
header: 
  seq: 6
  stamp: 
    secs: 1556851581
    nsecs: 135680745
  frame_id: "imu_link"
orientation: 
  x: -0.8264425967
  y: 0.0064788749
  z: 0.0052032415
  w: 0.5628900224
orientation_covariance: [0.002741552146694444, 0.0, 0.0, 0.0, 0.002741552146694444, 0.0, 0.0, 0.0, 0.007615422629706791]
angular_velocity: 
  x: 4.73004327291e-05
  y: 0.00131791467955
  z: -0.00232540724528
angular_velocity_covariance: [1.0966208586777776e-06, 0.0, 0.0, 0.0, 1.0966208586777776e-06, 0.0, 0.0, 0.0, 1.0966208586777776e-06]
linear_acceleration: 
  x: -0.0519836277088
  y: -0.153845156719
  z: -10.1341003316
linear_acceleration_covariance: [0.0015387262937311438, 0.0, 0.0, 0.0, 0.0015387262937311438, 0.0, 0.0, 0.0, 0.0015387262937311438]
---
header: 
  seq: 7
  stamp: 
    secs: 1556851581
    nsecs: 185698253
  frame_id: "imu_link"
orientation: 
  x: -0.8261069037
  y: 0.0064788749
  z: 0.0052032415
  w: 0.5633935619
orientation_covariance: [0.002741552146694444, 0.0, 0.0, 0.0, 0.002741552146694444, 0.0, 0.0, 0.0, 0.007615422629706791]
angular_velocity: 
  x: 0.00013928797384
  y: 0.00282238613412
  z: 0.00260842662782
angular_velocity_covariance: [1.0966208586777776e-06, 0.0, 0.0, 0.0, 1.0966208586777776e-06, 0.0, 0.0, 0.0, 1.0966208586777776e-06]
linear_acceleration: 
  x: -0.0564499823008
  y: -0.152729761089
  z: -10.1320860692
linear_acceleration_covariance: [0.0015387262937311438, 0.0, 0.0, 0.0, 0.0015387262937311438, 0.0, 0.0, 0.0, 0.0015387262937311438]
---
header: 
  seq: 8
  stamp: 
    secs: 1556851581
    nsecs: 236700653
  frame_id: "imu_link"
orientation: 
  x: -0.82580478
  y: 0.0065124442
  z: 0.0051696722
  w: 0.5638635321
orientation_covariance: [0.002741552146694444, 0.0, 0.0, 0.0, 0.002741552146694444, 0.0, 0.0, 0.0, 0.007615422629706791]
angular_velocity: 
  x: -0.00159661045647
  y: -0.00426933955094
  z: 0.00190943149587
angular_velocity_covariance: [1.0966208586777776e-06, 0.0, 0.0, 0.0, 1.0966208586777776e-06, 0.0, 0.0, 0.0, 1.0966208586777776e-06]
linear_acceleration: 
  x: -0.0577774863112
  y: -0.155427201746
  z: -10.1263694451
linear_acceleration_covariance: [0.0015387262937311438, 0.0, 0.0, 0.0, 0.0015387262937311438, 0.0, 0.0, 0.0, 0.0015387262937311438]
---
header: 
  seq: 9
  stamp: 
    secs: 1556851581
    nsecs: 286675037
  frame_id: "imu_link"
orientation: 
  x: -0.825469087
  y: 0.0065124442
  z: 0.0051361029
  w: 0.5643335023
orientation_covariance: [0.002741552146694444, 0.0, 0.0, 0.0, 0.002741552146694444, 0.0, 0.0, 0.0, 0.007615422629706791]
angular_velocity: 
  x: -5.15479991176e-05
  y: 0.00097813075958
  z: 0.0015327813251
angular_velocity_covariance: [1.0966208586777776e-06, 0.0, 0.0, 0.0, 1.0966208586777776e-06, 0.0, 0.0, 0.0, 1.0966208586777776e-06]
linear_acceleration: 
  x: -0.05524831946
  y: -0.158358451158
  z: -10.1383778628
linear_acceleration_covariance: [0.0015387262937311438, 0.0, 0.0, 0.0, 0.0015387262937311438, 0.0, 0.0, 0.0, 0.0015387262937311438]
---
header: 
  seq: 10
  stamp: 
    secs: 1556851581
    nsecs: 337680601
  frame_id: "imu_link"
orientation: 
  x: -0.825133394
  y: 0.0065460135
  z: 0.005035395
  w: 0.5648034725
orientation_covariance: [0.002741552146694444, 0.0, 0.0, 0.0, 0.002741552146694444, 0.0, 0.0, 0.0, 0.007615422629706791]
angular_velocity: 
  x: -0.000552619710131
  y: -0.000707421800164
  z: -0.000427326498277
angular_velocity_covariance: [1.0966208586777776e-06, 0.0, 0.0, 0.0, 1.0966208586777776e-06, 0.0, 0.0, 0.0, 1.0966208586777776e-06]
linear_acceleration: 
  x: -0.0528526108294
  y: -0.153406546106
  z: -10.1347105725
linear_acceleration_covariance: [0.0015387262937311438, 0.0, 0.0, 0.0, 0.0015387262937311438, 0.0, 0.0, 0.0, 0.0015387262937311438]
---
header: 
  seq: 11
  stamp: 
    secs: 1556851581
    nsecs: 387661224
  frame_id: "imu_link"
orientation: 
  x: -0.824797701
  y: 0.0065460135
  z: 0.0050018257
  w: 0.565307012
orientation_covariance: [0.002741552146694444, 0.0, 0.0, 0.0, 0.002741552146694444, 0.0, 0.0, 0.0, 0.007615422629706791]
angular_velocity: 
  x: 0.000108281441404
  y: 0.000419612173642
  z: 0.000630077126257
angular_velocity_covariance: [1.0966208586777776e-06, 0.0, 0.0, 0.0, 1.0966208586777776e-06, 0.0, 0.0, 0.0, 1.0966208586777776e-06]
linear_acceleration: 
  x: -0.0537936271397
  y: -0.149567378935
  z: -10.132455487
linear_acceleration_covariance: [0.0015387262937311438, 0.0, 0.0, 0.0, 0.0015387262937311438, 0.0, 0.0, 0.0, 0.0015387262937311438]
---
header: 
  seq: 12
  stamp: 
    secs: 1556851581
    nsecs: 437670055
  frame_id: "imu_link"
orientation: 
  x: -0.824462008
  y: 0.0065460135
  z: 0.0050018257
  w: 0.5658105515
orientation_covariance: [0.002741552146694444, 0.0, 0.0, 0.0, 0.002741552146694444, 0.0, 0.0, 0.0, 0.007615422629706791]
angular_velocity: 
  x: -0.000878665528962
  y: -0.00285240339259
  z: -1.47070405438e-06
angular_velocity_covariance: [1.0966208586777776e-06, 0.0, 0.0, 0.0, 1.0966208586777776e-06, 0.0, 0.0, 0.0, 1.0966208586777776e-06]
linear_acceleration: 
  x: -0.0525910007511
  y: -0.147660905992
  z: -10.1366663827
linear_acceleration_covariance: [0.0015387262937311438, 0.0, 0.0, 0.0, 0.0015387262937311438, 0.0, 0.0, 0.0, 0.0015387262937311438]
---
header: 
  seq: 13
  stamp: 
    secs: 1556851581
    nsecs: 488660882
  frame_id: "imu_link"
orientation: 
  x: -0.8241598843
  y: 0.0065460135
  z: 0.0049682564
  w: 0.5662805217
orientation_covariance: [0.002741552146694444, 0.0, 0.0, 0.0, 0.002741552146694444, 0.0, 0.0, 0.0, 0.007615422629706791]
angular_velocity: 
  x: -0.00068758872718
  y: -0.00148479397106
  z: 4.61659397586e-05
angular_velocity_covariance: [1.0966208586777776e-06, 0.0, 0.0, 0.0, 1.0966208586777776e-06, 0.0, 0.0, 0.0, 1.0966208586777776e-06]
linear_acceleration: 
  x: -0.0507977104264
  y: -0.153876885297
  z: -10.1332925224
linear_acceleration_covariance: [0.0015387262937311438, 0.0, 0.0, 0.0, 0.0015387262937311438, 0.0, 0.0, 0.0, 0.0015387262937311438]
---
header: 
  seq: 14
  stamp: 
    secs: 1556851581
    nsecs: 538662611
  frame_id: "imu_link"
orientation: 
  x: -0.823790622
  y: 0.0065460135
  z: 0.0049011178
  w: 0.5667840612
orientation_covariance: [0.002741552146694444, 0.0, 0.0, 0.0, 0.002741552146694444, 0.0, 0.0, 0.0, 0.007615422629706791]
angular_velocity: 
  x: -0.00048791048724
  y: -0.000832930418578
  z: -0.00109466804913
angular_velocity_covariance: [1.0966208586777776e-06, 0.0, 0.0, 0.0, 1.0966208586777776e-06, 0.0, 0.0, 0.0, 1.0966208586777776e-06]
linear_acceleration: 
  x: -0.0509250357337
  y: -0.151480546479
  z: -10.1365342808
linear_acceleration_covariance: [0.0015387262937311438, 0.0, 0.0, 0.0, 0.0015387262937311438, 0.0, 0.0, 0.0, 0.0015387262937311438]
---
header: 
  seq: 15
  stamp: 
    secs: 1556851581
    nsecs: 588676970
  frame_id: "imu_link"
orientation: 
  x: -0.823454929
  y: 0.0065795828
  z: 0.0048675485
  w: 0.5672540314
orientation_covariance: [0.002741552146694444, 0.0, 0.0, 0.0, 0.002741552146694444, 0.0, 0.0, 0.0, 0.007615422629706791]
angular_velocity: 
  x: 0.000200184409595
  y: 0.000308124714758
  z: -0.00135436422626
angular_velocity_covariance: [1.0966208586777776e-06, 0.0, 0.0, 0.0, 1.0966208586777776e-06, 0.0, 0.0, 0.0, 1.0966208586777776e-06]
linear_acceleration: 
  x: -0.0515370621182
  y: -0.156449256536
  z: -10.1326168151
linear_acceleration_covariance: [0.0015387262937311438, 0.0, 0.0, 0.0, 0.0015387262937311438, 0.0, 0.0, 0.0, 0.0015387262937311438]
---
header: 
  seq: 16
  stamp: 
    secs: 1556851581
    nsecs: 638701308
  frame_id: "imu_link"
orientation: 
  x: -0.823119236
  y: 0.0065460135
  z: 0.0048675485
  w: 0.5677575709
orientation_covariance: [0.002741552146694444, 0.0, 0.0, 0.0, 0.002741552146694444, 0.0, 0.0, 0.0, 0.007615422629706791]
angular_velocity: 
  x: -0.000777341742197
  y: -0.00177432431433
  z: -0.000807442744596
angular_velocity_covariance: [1.0966208586777776e-06, 0.0, 0.0, 0.0, 1.0966208586777776e-06, 0.0, 0.0, 0.0, 1.0966208586777776e-06]
linear_acceleration: 
  x: -0.0515344363363
  y: -0.149785341667
  z: -10.1385403599
linear_acceleration_covariance: [0.0015387262937311438, 0.0, 0.0, 0.0, 0.0015387262937311438, 0.0, 0.0, 0.0, 0.0015387262937311438]
---
header: 
  seq: 17
  stamp: 
    secs: 1556851581
    nsecs: 692673092
  frame_id: "imu_link"
orientation: 
  x: -0.822783543
  y: 0.0065460135
  z: 0.0048339792
  w: 0.5682611104
orientation_covariance: [0.002741552146694444, 0.0, 0.0, 0.0, 0.002741552146694444, 0.0, 0.0, 0.0, 0.007615422629706791]
angular_velocity: 
  x: 0.000352314918632
  y: -0.000607246371582
  z: 0.00152925250662
angular_velocity_covariance: [1.0966208586777776e-06, 0.0, 0.0, 0.0, 1.0966208586777776e-06, 0.0, 0.0, 0.0, 1.0966208586777776e-06]
linear_acceleration: 
  x: -0.0461977514835
  y: -0.154704111635
  z: -10.1370369696
linear_acceleration_covariance: [0.0015387262937311438, 0.0, 0.0, 0.0, 0.0015387262937311438, 0.0, 0.0, 0.0, 0.0015387262937311438]
---
header: 
  seq: 18
  stamp: 
    secs: 1556851581
    nsecs: 742703970
  frame_id: "imu_link"
orientation: 
  x: -0.8224142807
  y: 0.0065460135
  z: 0.0048004099
  w: 0.5687646499
orientation_covariance: [0.002741552146694444, 0.0, 0.0, 0.0, 0.002741552146694444, 0.0, 0.0, 0.0, 0.007615422629706791]
angular_velocity: 
  x: 0.00196023779552
  y: 0.000113046360644
  z: -0.00173780766844
angular_velocity_covariance: [1.0966208586777776e-06, 0.0, 0.0, 0.0, 1.0966208586777776e-06, 0.0, 0.0, 0.0, 1.0966208586777776e-06]
linear_acceleration: 
  x: -0.0498753166182
  y: -0.159478723892
  z: -10.1285836141
linear_acceleration_covariance: [0.0015387262937311438, 0.0, 0.0, 0.0, 0.0015387262937311438, 0.0, 0.0, 0.0, 0.0015387262937311438]
---
header: 
  seq: 19
  stamp: 
    secs: 1556851581
    nsecs: 792702948
  frame_id: "imu_link"
orientation: 
  x: -0.8220785877
  y: 0.0065460135
  z: 0.0047668406
  w: 0.5692681894
orientation_covariance: [0.002741552146694444, 0.0, 0.0, 0.0, 0.002741552146694444, 0.0, 0.0, 0.0, 0.007615422629706791]
angular_velocity: 
  x: -1.61668702404e-07
  y: 0.000246005490799
  z: -0.00198791555539
angular_velocity_covariance: [1.0966208586777776e-06, 0.0, 0.0, 0.0, 1.0966208586777776e-06, 0.0, 0.0, 0.0, 1.0966208586777776e-06]
linear_acceleration: 
  x: -0.0554472715316
  y: -0.156235284992
  z: -10.1237051944
linear_acceleration_covariance: [0.0015387262937311438, 0.0, 0.0, 0.0, 0.0015387262937311438, 0.0, 0.0, 0.0, 0.0015387262937311438]
---
header: 
  seq: 20
  stamp: 
    secs: 1556851581
    nsecs: 842672149
  frame_id: "imu_link"
orientation: 
  x: -0.821776464
  y: 0.0065460135
  z: 0.0047668406
  w: 0.5697381596
orientation_covariance: [0.002741552146694444, 0.0, 0.0, 0.0, 0.002741552146694444, 0.0, 0.0, 0.0, 0.007615422629706791]
angular_velocity: 
  x: -0.00311373023574
  y: -0.00135154632095
  z: -0.000850730685618
angular_velocity_covariance: [1.0966208586777776e-06, 0.0, 0.0, 0.0, 1.0966208586777776e-06, 0.0, 0.0, 0.0, 1.0966208586777776e-06]
linear_acceleration: 
  x: -0.0610526537906
  y: -0.155050440855
  z: -10.1294872849
linear_acceleration_covariance: [0.0015387262937311438, 0.0, 0.0, 0.0, 0.0015387262937311438, 0.0, 0.0, 0.0, 0.0015387262937311438]
---
header: 
  seq: 21
  stamp: 
    secs: 1556851581
    nsecs: 893676159
  frame_id: "imu_link"
orientation: 
  x: -0.821440771
  y: 0.0065795828
  z: 0.0047332713
  w: 0.5702081298
orientation_covariance: [0.002741552146694444, 0.0, 0.0, 0.0, 0.002741552146694444, 0.0, 0.0, 0.0, 0.007615422629706791]
angular_velocity: 
  x: -0.000515390850701
  y: -0.000828819813831
  z: 0.00158445146162
angular_velocity_covariance: [1.0966208586777776e-06, 0.0, 0.0, 0.0, 1.0966208586777776e-06, 0.0, 0.0, 0.0, 1.0966208586777776e-06]
linear_acceleration: 
  x: -0.0550546143857
  y: -0.156743837302
  z: -10.1357486834
linear_acceleration_covariance: [0.0015387262937311438, 0.0, 0.0, 0.0, 0.0015387262937311438, 0.0, 0.0, 0.0, 0.0015387262937311438]
---
header: 
  seq: 22
  stamp: 
    secs: 1556851581
    nsecs: 943678733
  frame_id: "imu_link"
orientation: 
  x: -0.821105078
  y: 0.0065795828
  z: 0.0047332713
  w: 0.5706781
orientation_covariance: [0.002741552146694444, 0.0, 0.0, 0.0, 0.002741552146694444, 0.0, 0.0, 0.0, 0.007615422629706791]
angular_velocity: 
  x: 0.00198775938076
  y: -0.000838901985159
  z: -0.0009771619177
angular_velocity_covariance: [1.0966208586777776e-06, 0.0, 0.0, 0.0, 1.0966208586777776e-06, 0.0, 0.0, 0.0, 1.0966208586777776e-06]
linear_acceleration: 
  x: -0.0612583963627
  y: -0.154214976412
  z: -10.1350133548
linear_acceleration_covariance: [0.0015387262937311438, 0.0, 0.0, 0.0, 0.0015387262937311438, 0.0, 0.0, 0.0, 0.0015387262937311438]
---
header: 
  seq: 23
  stamp: 
    secs: 1556851581
    nsecs: 993704047
  frame_id: "imu_link"
orientation: 
  x: -0.820769385
  y: 0.0065795828
  z: 0.0047332713
  w: 0.5711480702
orientation_covariance: [0.002741552146694444, 0.0, 0.0, 0.0, 0.002741552146694444, 0.0, 0.0, 0.0, 0.007615422629706791]
angular_velocity: 
  x: -0.000145674456497
  y: 0.000870924286635
  z: -0.000189944535698
angular_velocity_covariance: [1.0966208586777776e-06, 0.0, 0.0, 0.0, 1.0966208586777776e-06, 0.0, 0.0, 0.0, 1.0966208586777776e-06]
linear_acceleration: 
  x: -0.0550220364235
  y: -0.152407634729
  z: -10.1251407801
linear_acceleration_covariance: [0.0015387262937311438, 0.0, 0.0, 0.0, 0.0015387262937311438, 0.0, 0.0, 0.0, 0.0015387262937311438]
---
header: 
  seq: 24
  stamp: 
    secs: 1556851582
    nsecs:  44699056
  frame_id: "imu_link"
orientation: 
  x: -0.820433692
  y: 0.0066131521
  z: 0.004699702
  w: 0.5716516097
orientation_covariance: [0.002741552146694444, 0.0, 0.0, 0.0, 0.002741552146694444, 0.0, 0.0, 0.0, 0.007615422629706791]
angular_velocity: 
  x: -0.00118706439457
  y: -0.00532348684987
  z: 0.00121318222864
angular_velocity_covariance: [1.0966208586777776e-06, 0.0, 0.0, 0.0, 1.0966208586777776e-06, 0.0, 0.0, 0.0, 1.0966208586777776e-06]
linear_acceleration: 
  x: -0.0481257147382
  y: -0.149694914304
  z: -10.1409006593
linear_acceleration_covariance: [0.0015387262937311438, 0.0, 0.0, 0.0, 0.0015387262937311438, 0.0, 0.0, 0.0, 0.0015387262937311438]
---
header: 
  seq: 25
  stamp: 
    secs: 1556851582
    nsecs:  94656244
  frame_id: "imu_link"
orientation: 
  x: -0.820097999
  y: 0.0066131521
  z: 0.004699702
  w: 0.5721215799
orientation_covariance: [0.002741552146694444, 0.0, 0.0, 0.0, 0.002741552146694444, 0.0, 0.0, 0.0, 0.007615422629706791]
angular_velocity: 
  x: 0.00171995447628
  y: -0.000606491960983
  z: 0.00122120838239
angular_velocity_covariance: [1.0966208586777776e-06, 0.0, 0.0, 0.0, 1.0966208586777776e-06, 0.0, 0.0, 0.0, 1.0966208586777776e-06]
linear_acceleration: 
  x: -0.0483255755587
  y: -0.152420238482
  z: -10.1405534533
linear_acceleration_covariance: [0.0015387262937311438, 0.0, 0.0, 0.0, 0.0015387262937311438, 0.0, 0.0, 0.0, 0.0015387262937311438]
---
header: 
  seq: 26
  stamp: 
    secs: 1556851582
    nsecs: 144710167
  frame_id: "imu_link"
orientation: 
  x: -0.819762306
  y: 0.0066467214
  z: 0.0046661327
  w: 0.5726251194
orientation_covariance: [0.002741552146694444, 0.0, 0.0, 0.0, 0.002741552146694444, 0.0, 0.0, 0.0, 0.007615422629706791]
angular_velocity: 
  x: 0.00149406796142
  y: -0.00219631935396
  z: -0.00145661387762
angular_velocity_covariance: [1.0966208586777776e-06, 0.0, 0.0, 0.0, 1.0966208586777776e-06, 0.0, 0.0, 0.0, 1.0966208586777776e-06]
linear_acceleration: 
  x: -0.0561775357347
  y: -0.154234466563
  z: -10.1304552531
linear_acceleration_covariance: [0.0015387262937311438, 0.0, 0.0, 0.0, 0.0015387262937311438, 0.0, 0.0, 0.0, 0.0015387262937311438]
---
header: 
  seq: 27
  stamp: 
    secs: 1556851582
    nsecs: 195673848
  frame_id: "imu_link"
orientation: 
  x: -0.819426613
  y: 0.0066467214
  z: 0.0046661327
  w: 0.5730950896
orientation_covariance: [0.002741552146694444, 0.0, 0.0, 0.0, 0.002741552146694444, 0.0, 0.0, 0.0, 0.007615422629706791]
angular_velocity: 
  x: 0.00108356898719
  y: 1.22713898828e-06
  z: -0.000355004867378
angular_velocity_covariance: [1.0966208586777776e-06, 0.0, 0.0, 0.0, 1.0966208586777776e-06, 0.0, 0.0, 0.0, 1.0966208586777776e-06]
linear_acceleration: 
  x: -0.0576113679301
  y: -0.151017906536
  z: -10.1324473037
linear_acceleration_covariance: [0.0015387262937311438, 0.0, 0.0, 0.0, 0.0015387262937311438, 0.0, 0.0, 0.0, 0.0015387262937311438]
---
header: 
  seq: 28
  stamp: 
    secs: 1556851582
    nsecs: 245705238
  frame_id: "imu_link"
orientation: 
  x: -0.81909092
  y: 0.0066131521
  z: 0.0046325634
  w: 0.5735650598
orientation_covariance: [0.002741552146694444, 0.0, 0.0, 0.0, 0.002741552146694444, 0.0, 0.0, 0.0, 0.007615422629706791]
angular_velocity: 
  x: 6.80804688407e-05
  y: -0.000151781781876
  z: -0.00111237156852
angular_velocity_covariance: [1.0966208586777776e-06, 0.0, 0.0, 0.0, 1.0966208586777776e-06, 0.0, 0.0, 0.0, 1.0966208586777776e-06]
linear_acceleration: 
  x: -0.0522117054102
  y: -0.147984667187
  z: -10.1252354727
linear_acceleration_covariance: [0.0015387262937311438, 0.0, 0.0, 0.0, 0.0015387262937311438, 0.0, 0.0, 0.0, 0.0015387262937311438]
---
header: 
  seq: 29
  stamp: 
    secs: 1556851582
    nsecs: 295713613
  frame_id: "imu_link"
orientation: 
  x: -0.818755227
  y: 0.0066131521
  z: 0.0046325634
  w: 0.57403503
orientation_covariance: [0.002741552146694444, 0.0, 0.0, 0.0, 0.002741552146694444, 0.0, 0.0, 0.0, 0.007615422629706791]
angular_velocity: 
  x: 0.001319077992
  y: 6.64483683492e-05
  z: -0.000747439176509
angular_velocity_covariance: [1.0966208586777776e-06, 0.0, 0.0, 0.0, 1.0966208586777776e-06, 0.0, 0.0, 0.0, 1.0966208586777776e-06]
linear_acceleration: 
  x: -0.0493468585976
  y: -0.153006413473
  z: -10.1288899035
linear_acceleration_covariance: [0.0015387262937311438, 0.0, 0.0, 0.0, 0.0015387262937311438, 0.0, 0.0, 0.0, 0.0015387262937311438]
---
header: 
  seq: 30
  stamp: 
    secs: 1556851582
    nsecs: 345680024
  frame_id: "imu_link"
orientation: 
  x: -0.8184531033
  y: 0.0066131521
  z: 0.0046325634
  w: 0.5744714309
orientation_covariance: [0.002741552146694444, 0.0, 0.0, 0.0, 0.002741552146694444, 0.0, 0.0, 0.0, 0.007615422629706791]
angular_velocity: 
  x: 0.000878943938527
  y: 3.71406495333e-05
  z: 0.00166428868786
angular_velocity_covariance: [1.0966208586777776e-06, 0.0, 0.0, 0.0, 1.0966208586777776e-06, 0.0, 0.0, 0.0, 1.0966208586777776e-06]
linear_acceleration: 
  x: -0.0527259659421
  y: -0.15502344325
  z: -10.127995585
linear_acceleration_covariance: [0.0015387262937311438, 0.0, 0.0, 0.0, 0.0015387262937311438, 0.0, 0.0, 0.0, 0.0015387262937311438]
---
header: 
  seq: 31
  stamp: 
    secs: 1556851582
    nsecs: 396677301
  frame_id: "imu_link"
orientation: 
  x: -0.8181174103
  y: 0.0066131521
  z: 0.0045989941
  w: 0.5749414011
orientation_covariance: [0.002741552146694444, 0.0, 0.0, 0.0, 0.002741552146694444, 0.0, 0.0, 0.0, 0.007615422629706791]
angular_velocity: 
  x: -0.000437785647339
  y: -0.00161076513166
  z: 0.00145228285989
angular_velocity_covariance: [1.0966208586777776e-06, 0.0, 0.0, 0.0, 1.0966208586777776e-06, 0.0, 0.0, 0.0, 1.0966208586777776e-06]
linear_acceleration: 
  x: -0.0470348735945
  y: -0.149673652321
  z: -10.1280353325
linear_acceleration_covariance: [0.0015387262937311438, 0.0, 0.0, 0.0, 0.0015387262937311438, 0.0, 0.0, 0.0, 0.0015387262937311438]
---
header: 
  seq: 32
  stamp: 
    secs: 1556851582
    nsecs: 446678313
  frame_id: "imu_link"
orientation: 
  x: -0.8178152866
  y: 0.0066131521
  z: 0.0045989941
  w: 0.575377802
orientation_covariance: [0.002741552146694444, 0.0, 0.0, 0.0, 0.002741552146694444, 0.0, 0.0, 0.0, 0.007615422629706791]
angular_velocity: 
  x: 0.000692660826707
  y: -0.000391010987368
  z: -0.00147630384471
angular_velocity_covariance: [1.0966208586777776e-06, 0.0, 0.0, 0.0, 1.0966208586777776e-06, 0.0, 0.0, 0.0, 1.0966208586777776e-06]
linear_acceleration: 
  x: -0.0468997440067
  y: -0.152802040874
  z: -10.1294662421
linear_acceleration_covariance: [0.0015387262937311438, 0.0, 0.0, 0.0, 0.0015387262937311438, 0.0, 0.0, 0.0, 0.0015387262937311438]
---
header: 
  seq: 33
  stamp: 
    secs: 1556851582
    nsecs: 496681912
  frame_id: "imu_link"
orientation: 
  x: -0.8174795936
  y: 0.0066131521
  z: 0.0045989941
  w: 0.5758477722
orientation_covariance: [0.002741552146694444, 0.0, 0.0, 0.0, 0.002741552146694444, 0.0, 0.0, 0.0, 0.007615422629706791]
angular_velocity: 
  x: -0.000316085947455
  y: -0.000806143543305
  z: 0.00155399532773
angular_velocity_covariance: [1.0966208586777776e-06, 0.0, 0.0, 0.0, 1.0966208586777776e-06, 0.0, 0.0, 0.0, 1.0966208586777776e-06]
linear_acceleration: 
  x: -0.0498111653408
  y: -0.14939993168
  z: -10.1298438432
linear_acceleration_covariance: [0.0015387262937311438, 0.0, 0.0, 0.0, 0.0015387262937311438, 0.0, 0.0, 0.0, 0.0015387262937311438]
---
header: 
  seq: 34
  stamp: 
    secs: 1556851582
    nsecs: 546688288
  frame_id: "imu_link"
orientation: 
  x: -0.8171439006
  y: 0.0065795828
  z: 0.0045989941
  w: 0.5763513117
orientation_covariance: [0.002741552146694444, 0.0, 0.0, 0.0, 0.002741552146694444, 0.0, 0.0, 0.0, 0.007615422629706791]
angular_velocity: 
  x: -0.000782806033807
  y: 0.00163110931571
  z: -0.00136876454165
angular_velocity_covariance: [1.0966208586777776e-06, 0.0, 0.0, 0.0, 1.0966208586777776e-06, 0.0, 0.0, 0.0, 1.0966208586777776e-06]
linear_acceleration: 
  x: -0.0518245144572
  y: -0.148261538767
  z: -10.141986701
linear_acceleration_covariance: [0.0015387262937311438, 0.0, 0.0, 0.0, 0.0015387262937311438, 0.0, 0.0, 0.0, 0.0015387262937311438]
---
header: 
  seq: 35
  stamp: 
    secs: 1556851582
    nsecs: 597677686
  frame_id: "imu_link"
orientation: 
  x: -0.8168082076
  y: 0.0065795828
  z: 0.0045654248
  w: 0.5768212819
orientation_covariance: [0.002741552146694444, 0.0, 0.0, 0.0, 0.002741552146694444, 0.0, 0.0, 0.0, 0.007615422629706791]
angular_velocity: 
  x: -0.000551615303087
  y: -0.00152957304822
  z: -0.000837987758887
angular_velocity_covariance: [1.0966208586777776e-06, 0.0, 0.0, 0.0, 1.0966208586777776e-06, 0.0, 0.0, 0.0, 1.0966208586777776e-06]
linear_acceleration: 
  x: -0.0538754967368
  y: -0.156367167743
  z: -10.1404003086
linear_acceleration_covariance: [0.0015387262937311438, 0.0, 0.0, 0.0, 0.0015387262937311438, 0.0, 0.0, 0.0, 0.0015387262937311438]
---
header: 
  seq: 36
  stamp: 
    secs: 1556851582
    nsecs: 650715129
  frame_id: "imu_link"
orientation: 
  x: -0.8164389453
  y: 0.0065795828
  z: 0.0045654248
  w: 0.5773248214
orientation_covariance: [0.002741552146694444, 0.0, 0.0, 0.0, 0.002741552146694444, 0.0, 0.0, 0.0, 0.007615422629706791]
angular_velocity: 
  x: 0.000954145860068
  y: -8.252281874e-05
  z: 0.000458533596781
angular_velocity_covariance: [1.0966208586777776e-06, 0.0, 0.0, 0.0, 1.0966208586777776e-06, 0.0, 0.0, 0.0, 1.0966208586777776e-06]
linear_acceleration: 
  x: -0.04791960684
  y: -0.155486768179
  z: -10.1343984378
linear_acceleration_covariance: [0.0015387262937311438, 0.0, 0.0, 0.0, 0.0015387262937311438, 0.0, 0.0, 0.0, 0.0015387262937311438]
---
header: 
  seq: 37
  stamp: 
    secs: 1556851582
    nsecs: 701674343
  frame_id: "imu_link"
orientation: 
  x: -0.8161032523
  y: 0.0066131521
  z: 0.0045654248
  w: 0.5777947916
orientation_covariance: [0.002741552146694444, 0.0, 0.0, 0.0, 0.002741552146694444, 0.0, 0.0, 0.0, 0.007615422629706791]
angular_velocity: 
  x: 0.000720284816214
  y: -0.000713646744156
  z: 0.00178396774027
angular_velocity_covariance: [1.0966208586777776e-06, 0.0, 0.0, 0.0, 1.0966208586777776e-06, 0.0, 0.0, 0.0, 1.0966208586777776e-06]
linear_acceleration: 
  x: -0.0525825525832
  y: -0.155575907768
  z: -10.1324098943
linear_acceleration_covariance: [0.0015387262937311438, 0.0, 0.0, 0.0, 0.0015387262937311438, 0.0, 0.0, 0.0, 0.0015387262937311438]
---
header: 
  seq: 38
  stamp: 
    secs: 1556851582
    nsecs: 751701067
  frame_id: "imu_link"
orientation: 
  x: -0.8158011286
  y: 0.0066131521
  z: 0.0045318555
  w: 0.5782647618
orientation_covariance: [0.002741552146694444, 0.0, 0.0, 0.0, 0.002741552146694444, 0.0, 0.0, 0.0, 0.007615422629706791]
angular_velocity: 
  x: -0.0018317723921
  y: -0.00121141892471
  z: -0.000949087934592
angular_velocity_covariance: [1.0966208586777776e-06, 0.0, 0.0, 0.0, 1.0966208586777776e-06, 0.0, 0.0, 0.0, 1.0966208586777776e-06]
linear_acceleration: 
  x: -0.0495331064512
  y: -0.157326916153
  z: -10.130291587
linear_acceleration_covariance: [0.0015387262937311438, 0.0, 0.0, 0.0, 0.0015387262937311438, 0.0, 0.0, 0.0, 0.0015387262937311438]
---
header: 
  seq: 39
  stamp: 
    secs: 1556851582
    nsecs: 801680863
  frame_id: "imu_link"
orientation: 
  x: -0.8154654356
  y: 0.0066131521
  z: 0.0045318555
  w: 0.5787011627
orientation_covariance: [0.002741552146694444, 0.0, 0.0, 0.0, 0.002741552146694444, 0.0, 0.0, 0.0, 0.007615422629706791]
angular_velocity: 
  x: -0.00216936017945
  y: 0.00029895868775
  z: -0.00170222338901
angular_velocity_covariance: [1.0966208586777776e-06, 0.0, 0.0, 0.0, 1.0966208586777776e-06, 0.0, 0.0, 0.0, 1.0966208586777776e-06]
linear_acceleration: 
  x: -0.0550141727774
  y: -0.152048710889
  z: -10.1319831934
linear_acceleration_covariance: [0.0015387262937311438, 0.0, 0.0, 0.0, 0.0015387262937311438, 0.0, 0.0, 0.0, 0.0015387262937311438]
---
header: 
  seq: 40
  stamp: 
    secs: 1556851582
    nsecs: 851684013
  frame_id: "imu_link"
orientation: 
  x: -0.8151297426
  y: 0.0066131521
  z: 0.0044982862
  w: 0.5791711329
orientation_covariance: [0.002741552146694444, 0.0, 0.0, 0.0, 0.002741552146694444, 0.0, 0.0, 0.0, 0.007615422629706791]
angular_velocity: 
  x: -0.00223720355803
  y: 0.00121867694895
  z: 0.000585543299181
angular_velocity_covariance: [1.0966208586777776e-06, 0.0, 0.0, 0.0, 1.0966208586777776e-06, 0.0, 0.0, 0.0, 1.0966208586777776e-06]
linear_acceleration: 
  x: -0.0506174584887
  y: -0.154105890014
  z: -10.1282925222
linear_acceleration_covariance: [0.0015387262937311438, 0.0, 0.0, 0.0, 0.0015387262937311438, 0.0, 0.0, 0.0, 0.0015387262937311438]
---
header: 
  seq: 41
  stamp: 
    secs: 1556851582
    nsecs: 902649567
  frame_id: "imu_link"
orientation: 
  x: -0.8147940496
  y: 0.0066131521
  z: 0.0045318555
  w: 0.5796411031
orientation_covariance: [0.002741552146694444, 0.0, 0.0, 0.0, 0.002741552146694444, 0.0, 0.0, 0.0, 0.007615422629706791]
angular_velocity: 
  x: -0.000426474104676
  y: 0.000145190133085
  z: -0.00119552812337
angular_velocity_covariance: [1.0966208586777776e-06, 0.0, 0.0, 0.0, 1.0966208586777776e-06, 0.0, 0.0, 0.0, 1.0966208586777776e-06]
linear_acceleration: 
  x: -0.045608809147
  y: -0.154412837071
  z: -10.1294545517
linear_acceleration_covariance: [0.0015387262937311438, 0.0, 0.0, 0.0, 0.0015387262937311438, 0.0, 0.0, 0.0, 0.0015387262937311438]
---
header: 
  seq: 42
  stamp: 
    secs: 1556851582
    nsecs: 952684151
  frame_id: "imu_link"
orientation: 
  x: -0.8144919259
  y: 0.0066131521
  z: 0.0045318555
  w: 0.5801110733
orientation_covariance: [0.002741552146694444, 0.0, 0.0, 0.0, 0.002741552146694444, 0.0, 0.0, 0.0, 0.007615422629706791]
angular_velocity: 
  x: 0.00117662930238
  y: 0.000835598651117
  z: 0.000304721999815
angular_velocity_covariance: [1.0966208586777776e-06, 0.0, 0.0, 0.0, 1.0966208586777776e-06, 0.0, 0.0, 0.0, 1.0966208586777776e-06]
linear_acceleration: 
  x: -0.0469702382599
  y: -0.154212601791
  z: -10.1246322461
linear_acceleration_covariance: [0.0015387262937311438, 0.0, 0.0, 0.0, 0.0015387262937311438, 0.0, 0.0, 0.0, 0.0015387262937311438]
---
header: 
  seq: 43
  stamp: 
    secs: 1556851583
    nsecs:   2686120
  frame_id: "imu_link"
orientation: 
  x: -0.8141562329
  y: 0.0065795828
  z: 0.0045318555
  w: 0.5805474742
orientation_covariance: [0.002741552146694444, 0.0, 0.0, 0.0, 0.002741552146694444, 0.0, 0.0, 0.0, 0.007615422629706791]
angular_velocity: 
  x: 0.00101125909214
  y: 0.000621189606342
  z: -0.000472044002845
angular_velocity_covariance: [1.0966208586777776e-06, 0.0, 0.0, 0.0, 1.0966208586777776e-06, 0.0, 0.0, 0.0, 1.0966208586777776e-06]
linear_acceleration: 
  x: -0.0445947367336
  y: -0.154711893083
  z: -10.1341961932
linear_acceleration_covariance: [0.0015387262937311438, 0.0, 0.0, 0.0, 0.0015387262937311438, 0.0, 0.0, 0.0, 0.0015387262937311438]
---
header: 
  seq: 44
  stamp: 
    secs: 1556851583
    nsecs:  52693554
  frame_id: "imu_link"
orientation: 
  x: -0.8138205399
  y: 0.0065795828
  z: 0.0045318555
  w: 0.5809838751
orientation_covariance: [0.002741552146694444, 0.0, 0.0, 0.0, 0.002741552146694444, 0.0, 0.0, 0.0, 0.007615422629706791]
angular_velocity: 
  x: -0.000471835553273
  y: 0.000393417227534
  z: 0.00162478963965
angular_velocity_covariance: [1.0966208586777776e-06, 0.0, 0.0, 0.0, 1.0966208586777776e-06, 0.0, 0.0, 0.0, 1.0966208586777776e-06]
linear_acceleration: 
  x: -0.0529664784334
  y: -0.153725147068
  z: -10.1294229875
linear_acceleration_covariance: [0.0015387262937311438, 0.0, 0.0, 0.0, 0.0015387262937311438, 0.0, 0.0, 0.0, 0.0015387262937311438]
---
header: 
  seq: 45
  stamp: 
    secs: 1556851583
    nsecs: 102725247
  frame_id: "imu_link"
orientation: 
  x: -0.8135184162
  y: 0.0065795828
  z: 0.0044982862
  w: 0.5814538453
orientation_covariance: [0.002741552146694444, 0.0, 0.0, 0.0, 0.002741552146694444, 0.0, 0.0, 0.0, 0.007615422629706791]
angular_velocity: 
  x: 0.000757774790266
  y: 0.000587456665992
  z: -0.000195241501989
angular_velocity_covariance: [1.0966208586777776e-06, 0.0, 0.0, 0.0, 1.0966208586777776e-06, 0.0, 0.0, 0.0, 1.0966208586777776e-06]
linear_acceleration: 
  x: -0.0541204981736
  y: -0.151358554934
  z: -10.1281522369
linear_acceleration_covariance: [0.0015387262937311438, 0.0, 0.0, 0.0, 0.0015387262937311438, 0.0, 0.0, 0.0, 0.0015387262937311438]
---
header: 
  seq: 46
  stamp: 
    secs: 1556851583
    nsecs: 153726272
  frame_id: "imu_link"
orientation: 
  x: -0.8131827232
  y: 0.0065795828
  z: 0.0044982862
  w: 0.5819238155
orientation_covariance: [0.002741552146694444, 0.0, 0.0, 0.0, 0.002741552146694444, 0.0, 0.0, 0.0, 0.007615422629706791]
angular_velocity: 
  x: 0.000462044925264
  y: -0.0024546074887
  z: -3.69340814369e-05
angular_velocity_covariance: [1.0966208586777776e-06, 0.0, 0.0, 0.0, 1.0966208586777776e-06, 0.0, 0.0, 0.0, 1.0966208586777776e-06]
linear_acceleration: 
  x: -0.0497852865475
  y: -0.157370791828
  z: -10.1364641382
linear_acceleration_covariance: [0.0015387262937311438, 0.0, 0.0, 0.0, 0.0015387262937311438, 0.0, 0.0, 0.0, 0.0015387262937311438]
---
header: 
  seq: 47
  stamp: 
    secs: 1556851583
    nsecs: 203683771
  frame_id: "imu_link"
orientation: 
  x: -0.8128470302
  y: 0.0065460135
  z: 0.0044982862
  w: 0.5823602164
orientation_covariance: [0.002741552146694444, 0.0, 0.0, 0.0, 0.002741552146694444, 0.0, 0.0, 0.0, 0.007615422629706791]
angular_velocity: 
  x: -0.000265283857757
  y: 0.000660354003919
  z: 0.000788750682695
angular_velocity_covariance: [1.0966208586777776e-06, 0.0, 0.0, 0.0, 1.0966208586777776e-06, 0.0, 0.0, 0.0, 1.0966208586777776e-06]
linear_acceleration: 
  x: -0.0468292497535
  y: -0.152185817805
  z: -10.1304552531
linear_acceleration_covariance: [0.0015387262937311438, 0.0, 0.0, 0.0, 0.0015387262937311438, 0.0, 0.0, 0.0, 0.0015387262937311438]
---
header: 
  seq: 48
  stamp: 
    secs: 1556851583
    nsecs: 253686003
  frame_id: "imu_link"
orientation: 
  x: -0.8125449065
  y: 0.0065795828
  z: 0.0044982862
  w: 0.5827966173
orientation_covariance: [0.002741552146694444, 0.0, 0.0, 0.0, 0.002741552146694444, 0.0, 0.0, 0.0, 0.007615422629706791]
angular_velocity: 
  x: -0.00137457772297
  y: -0.00140405597739
  z: 0.00127879963107
angular_velocity_covariance: [1.0966208586777776e-06, 0.0, 0.0, 0.0, 1.0966208586777776e-06, 0.0, 0.0, 0.0, 1.0966208586777776e-06]
linear_acceleration: 
  x: -0.0530149389513
  y: -0.153236614632
  z: -10.1256855545
linear_acceleration_covariance: [0.0015387262937311438, 0.0, 0.0, 0.0, 0.0015387262937311438, 0.0, 0.0, 0.0, 0.0015387262937311438]
---
header: 
  seq: 49
  stamp: 
    secs: 1556851583
    nsecs: 303727190
  frame_id: "imu_link"
orientation: 
  x: -0.8122092135
  y: 0.0065795828
  z: 0.0044647169
  w: 0.5832665875
orientation_covariance: [0.002741552146694444, 0.0, 0.0, 0.0, 0.002741552146694444, 0.0, 0.0, 0.0, 0.007615422629706791]
angular_velocity: 
  x: -0.000676015354689
  y: -0.00254886726668
  z: 0.000835432983772
angular_velocity_covariance: [1.0966208586777776e-06, 0.0, 0.0, 0.0, 1.0966208586777776e-06, 0.0, 0.0, 0.0, 1.0966208586777776e-06]
linear_acceleration: 
  x: -0.0547079655056
  y: -0.145564573034
  z: -10.1287087017
linear_acceleration_covariance: [0.0015387262937311438, 0.0, 0.0, 0.0, 0.0015387262937311438, 0.0, 0.0, 0.0, 0.0015387262937311438]
---
header: 
  seq: 50
  stamp: 
    secs: 1556851583
    nsecs: 354722926
  frame_id: "imu_link"
orientation: 
  x: -0.8118735205
  y: 0.0065795828
  z: 0.0044647169
  w: 0.5837029884
orientation_covariance: [0.002741552146694444, 0.0, 0.0, 0.0, 0.002741552146694444, 0.0, 0.0, 0.0, 0.007615422629706791]
angular_velocity: 
  x: 0.000939512973217
  y: -0.00280392215741
  z: 0.00114456265823
angular_velocity_covariance: [1.0966208586777776e-06, 0.0, 0.0, 0.0, 1.0966208586777776e-06, 0.0, 0.0, 0.0, 1.0966208586777776e-06]
linear_acceleration: 
  x: -0.0600908915198
  y: -0.144323477799
  z: -10.1399525648
linear_acceleration_covariance: [0.0015387262937311438, 0.0, 0.0, 0.0, 0.0015387262937311438, 0.0, 0.0, 0.0, 0.0015387262937311438]
---
header: 
  seq: 51
  stamp: 
    secs: 1556851583
    nsecs: 407658667
  frame_id: "imu_link"
orientation: 
  x: -0.8115378275
  y: 0.0066131521
  z: 0.0044311476
  w: 0.5842065279
orientation_covariance: [0.002741552146694444, 0.0, 0.0, 0.0, 0.002741552146694444, 0.0, 0.0, 0.0, 0.007615422629706791]
angular_velocity: 
  x: -0.000157863798772
  y: -0.00165632651239
  z: 5.50899025886e-05
angular_velocity_covariance: [1.0966208586777776e-06, 0.0, 0.0, 0.0, 1.0966208586777776e-06, 0.0, 0.0, 0.0, 1.0966208586777776e-06]
linear_acceleration: 
  x: -0.0553886184133
  y: -0.14378299598
  z: -10.1293318021
linear_acceleration_covariance: [0.0015387262937311438, 0.0, 0.0, 0.0, 0.0015387262937311438, 0.0, 0.0, 0.0, 0.0015387262937311438]
---
header: 
  seq: 52
  stamp: 
    secs: 1556851583
    nsecs: 457692228
  frame_id: "imu_link"
orientation: 
  x: -0.8112021345
  y: 0.0066131521
  z: 0.0043975783
  w: 0.5846429288
orientation_covariance: [0.002741552146694444, 0.0, 0.0, 0.0, 0.002741552146694444, 0.0, 0.0, 0.0, 0.007615422629706791]
angular_velocity: 
  x: -0.00213224263183
  y: 0.000118451436581
  z: 0.000555460436966
angular_velocity_covariance: [1.0966208586777776e-06, 0.0, 0.0, 0.0, 1.0966208586777776e-06, 0.0, 0.0, 0.0, 1.0966208586777776e-06]
linear_acceleration: 
  x: -0.0544410216651
  y: -0.149491893412
  z: -10.1290336959
linear_acceleration_covariance: [0.0015387262937311438, 0.0, 0.0, 0.0, 0.0015387262937311438, 0.0, 0.0, 0.0, 0.0015387262937311438]
---
header: 
  seq: 53
  stamp: 
    secs: 1556851583
    nsecs: 507728524
  frame_id: "imu_link"
orientation: 
  x: -0.8109000108
  y: 0.0066131521
  z: 0.004364009
  w: 0.585112899
orientation_covariance: [0.002741552146694444, 0.0, 0.0, 0.0, 0.002741552146694444, 0.0, 0.0, 0.0, 0.007615422629706791]
angular_velocity: 
  x: 0.000121156567165
  y: -0.00136392624894
  z: 0.000738199645994
angular_velocity_covariance: [1.0966208586777776e-06, 0.0, 0.0, 0.0, 1.0966208586777776e-06, 0.0, 0.0, 0.0, 1.0966208586777776e-06]
linear_acceleration: 
  x: -0.0554667936494
  y: -0.147292775933
  z: -10.1362478651
linear_acceleration_covariance: [0.0015387262937311438, 0.0, 0.0, 0.0, 0.0015387262937311438, 0.0, 0.0, 0.0, 0.0015387262937311438]
---
header: 
  seq: 54
  stamp: 
    secs: 1556851583
    nsecs: 558695678
  frame_id: "imu_link"
orientation: 
  x: -0.8105643178
  y: 0.0066131521
  z: 0.004364009
  w: 0.5855492999
orientation_covariance: [0.002741552146694444, 0.0, 0.0, 0.0, 0.002741552146694444, 0.0, 0.0, 0.0, 0.007615422629706791]
angular_velocity: 
  x: -0.001284016592
  y: 0.00150992781392
  z: 0.000380274956677
angular_velocity_covariance: [1.0966208586777776e-06, 0.0, 0.0, 0.0, 1.0966208586777776e-06, 0.0, 0.0, 0.0, 1.0966208586777776e-06]
linear_acceleration: 
  x: -0.0562698947598
  y: -0.148995077206
  z: -10.1368955153
linear_acceleration_covariance: [0.0015387262937311438, 0.0, 0.0, 0.0, 0.0015387262937311438, 0.0, 0.0, 0.0, 0.0015387262937311438]
---
header: 
  seq: 55
  stamp: 
    secs: 1556851583
    nsecs: 608687155
  frame_id: "imu_link"
orientation: 
  x: -0.8102286248
  y: 0.0066131521
  z: 0.0043304397
  w: 0.5860192701
orientation_covariance: [0.002741552146694444, 0.0, 0.0, 0.0, 0.002741552146694444, 0.0, 0.0, 0.0, 0.007615422629706791]
angular_velocity: 
  x: 0.00114118429275
  y: -3.16954347818e-05
  z: -0.00215090465515
angular_velocity_covariance: [1.0966208586777776e-06, 0.0, 0.0, 0.0, 1.0966208586777776e-06, 0.0, 0.0, 0.0, 1.0966208586777776e-06]
linear_acceleration: 
  x: -0.0568428221098
  y: -0.1495316957
  z: -10.1326589007
linear_acceleration_covariance: [0.0015387262937311438, 0.0, 0.0, 0.0, 0.0015387262937311438, 0.0, 0.0, 0.0, 0.0015387262937311438]
---
header: 
  seq: 56
  stamp: 
    secs: 1556851583
    nsecs: 658713481
  frame_id: "imu_link"
orientation: 
  x: -0.8099265011
  y: 0.0066131521
  z: 0.0043304397
  w: 0.5864221017
orientation_covariance: [0.002741552146694444, 0.0, 0.0, 0.0, 0.002741552146694444, 0.0, 0.0, 0.0, 0.007615422629706791]
angular_velocity: 
  x: 0.000779126502254
  y: 0.00115446992958
  z: 0.00197572171058
angular_velocity_covariance: [1.0966208586777776e-06, 0.0, 0.0, 0.0, 1.0966208586777776e-06, 0.0, 0.0, 0.0, 1.0966208586777776e-06]
linear_acceleration: 
  x: -0.0484475397042
  y: -0.15116296843
  z: -10.129730446
linear_acceleration_covariance: [0.0015387262937311438, 0.0, 0.0, 0.0, 0.0015387262937311438, 0.0, 0.0, 0.0, 0.0015387262937311438]
---
header: 
  seq: 57
  stamp: 
    secs: 1556851583
    nsecs: 708718004
  frame_id: "imu_link"
orientation: 
  x: -0.8096243774
  y: 0.0066467214
  z: 0.0043304397
  w: 0.5868585026
orientation_covariance: [0.002741552146694444, 0.0, 0.0, 0.0, 0.002741552146694444, 0.0, 0.0, 0.0, 0.007615422629706791]
angular_velocity: 
  x: -0.000553480101017
  y: 0.0004498218546
  z: -0.000538368027221
angular_velocity_covariance: [1.0966208586777776e-06, 0.0, 0.0, 0.0, 1.0966208586777776e-06, 0.0, 0.0, 0.0, 1.0966208586777776e-06]
linear_acceleration: 
  x: -0.0478955592441
  y: -0.158844919501
  z: -10.1201209061
linear_acceleration_covariance: [0.0015387262937311438, 0.0, 0.0, 0.0, 0.0015387262937311438, 0.0, 0.0, 0.0, 0.0015387262937311438]
---
header: 
  seq: 58
  stamp: 
    secs: 1556851583
    nsecs: 762714675
  frame_id: "imu_link"
orientation: 
  x: -0.8092886844
  y: 0.0066467214
  z: 0.0043304397
  w: 0.5873284728
orientation_covariance: [0.002741552146694444, 0.0, 0.0, 0.0, 0.002741552146694444, 0.0, 0.0, 0.0, 0.007615422629706791]
angular_velocity: 
  x: -0.00151041948443
  y: -0.000116702688691
  z: 0.000910587571786
angular_velocity_covariance: [1.0966208586777776e-06, 0.0, 0.0, 0.0, 1.0966208586777776e-06, 0.0, 0.0, 0.0, 1.0966208586777776e-06]
linear_acceleration: 
  x: -0.0473099550756
  y: -0.155952778256
  z: -10.1310573107
linear_acceleration_covariance: [0.0015387262937311438, 0.0, 0.0, 0.0, 0.0015387262937311438, 0.0, 0.0, 0.0, 0.0015387262937311438]
---
header: 
  seq: 59
  stamp: 
    secs: 1556851583
    nsecs: 812696381
  frame_id: "imu_link"
orientation: 
  x: -0.8089529914
  y: 0.0066802907
  z: 0.0042968704
  w: 0.5877648737
orientation_covariance: [0.002741552146694444, 0.0, 0.0, 0.0, 0.002741552146694444, 0.0, 0.0, 0.0, 0.007615422629706791]
angular_velocity: 
  x: -0.00165099095757
  y: 0.000993379957564
  z: -0.000576875802145
angular_velocity_covariance: [1.0966208586777776e-06, 0.0, 0.0, 0.0, 1.0966208586777776e-06, 0.0, 0.0, 0.0, 1.0966208586777776e-06]
linear_acceleration: 
  x: -0.0555015361693
  y: -0.15198887046
  z: -10.131972672
linear_acceleration_covariance: [0.0015387262937311438, 0.0, 0.0, 0.0, 0.0015387262937311438, 0.0, 0.0, 0.0, 0.0015387262937311438]
---
header: 
  seq: 60
  stamp: 
    secs: 1556851583
    nsecs: 862725379
  frame_id: "imu_link"
orientation: 
  x: -0.8086508677
  y: 0.0066802907
  z: 0.0042968704
  w: 0.5882012746
orientation_covariance: [0.002741552146694444, 0.0, 0.0, 0.0, 0.002741552146694444, 0.0, 0.0, 0.0, 0.007615422629706791]
angular_velocity: 
  x: -0.000811947036853
  y: 0.000626086480793
  z: 0.00156890603898
angular_velocity_covariance: [1.0966208586777776e-06, 0.0, 0.0, 0.0, 1.0966208586777776e-06, 0.0, 0.0, 0.0, 1.0966208586777776e-06]
linear_acceleration: 
  x: -0.0531464061442
  y: -0.151828638397
  z: -10.1278669902
linear_acceleration_covariance: [0.0015387262937311438, 0.0, 0.0, 0.0, 0.0015387262937311438, 0.0, 0.0, 0.0, 0.0015387262937311438]
---
header: 
  seq: 61
  stamp: 
    secs: 1556851583
    nsecs: 915699687
  frame_id: "imu_link"
orientation: 
  x: -0.8082816054
  y: 0.0066467214
  z: 0.0042968704
  w: 0.5886712448
orientation_covariance: [0.002741552146694444, 0.0, 0.0, 0.0, 0.002741552146694444, 0.0, 0.0, 0.0, 0.007615422629706791]
angular_velocity: 
  x: -0.00287965814157
  y: -0.00245818038978
  z: -0.00193655035602
angular_velocity_covariance: [1.0966208586777776e-06, 0.0, 0.0, 0.0, 1.0966208586777776e-06, 0.0, 0.0, 0.0, 1.0966208586777776e-06]
linear_acceleration: 
  x: -0.0541830968147
  y: -0.150311575765
  z: -10.1277430716
linear_acceleration_covariance: [0.0015387262937311438, 0.0, 0.0, 0.0, 0.0015387262937311438, 0.0, 0.0, 0.0, 0.0015387262937311438]
---
header: 
  seq: 62
  stamp: 
    secs: 1556851583
    nsecs: 966675497
  frame_id: "imu_link"
orientation: 
  x: -0.8079794817
  y: 0.0066467214
  z: 0.0042633011
  w: 0.5891076457
orientation_covariance: [0.002741552146694444, 0.0, 0.0, 0.0, 0.002741552146694444, 0.0, 0.0, 0.0, 0.007615422629706791]
angular_velocity: 
  x: -0.000982540644857
  y: 0.000470527541964
  z: 0.000607818470079
angular_velocity_covariance: [1.0966208586777776e-06, 0.0, 0.0, 0.0, 1.0966208586777776e-06, 0.0, 0.0, 0.0, 1.0966208586777776e-06]
linear_acceleration: 
  x: -0.0519224127406
  y: -0.15165006696
  z: -10.1321772546
linear_acceleration_covariance: [0.0015387262937311438, 0.0, 0.0, 0.0, 0.0015387262937311438, 0.0, 0.0, 0.0, 0.0015387262937311438]
---
header: 
  seq: 63
  stamp: 
    secs: 1556851584
    nsecs:  16727616
  frame_id: "imu_link"
orientation: 
  x: -0.8076437887
  y: 0.0066131521
  z: 0.0042297318
  w: 0.5895776159
orientation_covariance: [0.002741552146694444, 0.0, 0.0, 0.0, 0.002741552146694444, 0.0, 0.0, 0.0, 0.007615422629706791]
angular_velocity: 
  x: 0.000251742779177
  y: -0.0019707656042
  z: 0.00125823984541
angular_velocity_covariance: [1.0966208586777776e-06, 0.0, 0.0, 0.0, 1.0966208586777776e-06, 0.0, 0.0, 0.0, 1.0966208586777776e-06]
linear_acceleration: 
  x: -0.0529007105877
  y: -0.150638076906
  z: -10.1331662657
linear_acceleration_covariance: [0.0015387262937311438, 0.0, 0.0, 0.0, 0.0015387262937311438, 0.0, 0.0, 0.0, 0.0015387262937311438]
---
header: 
  seq: 64
  stamp: 
    secs: 1556851584
    nsecs:  66665502
  frame_id: "imu_link"
orientation: 
  x: -0.807341665
  y: 0.0066467214
  z: 0.0041961625
  w: 0.5900140168
orientation_covariance: [0.002741552146694444, 0.0, 0.0, 0.0, 0.002741552146694444, 0.0, 0.0, 0.0, 0.007615422629706791]
angular_velocity: 
  x: 0.000530039114447
  y: 0.000168296176433
  z: -0.000301059438112
angular_velocity_covariance: [1.0966208586777776e-06, 0.0, 0.0, 0.0, 1.0966208586777776e-06, 0.0, 0.0, 0.0, 1.0966208586777776e-06]
linear_acceleration: 
  x: -0.0555792638808
  y: -0.145719133408
  z: -10.1399993266
linear_acceleration_covariance: [0.0015387262937311438, 0.0, 0.0, 0.0, 0.0015387262937311438, 0.0, 0.0, 0.0, 0.0015387262937311438]
---
header: 
  seq: 65
  stamp: 
    secs: 1556851584
    nsecs: 116698716
  frame_id: "imu_link"
orientation: 
  x: -0.807005972
  y: 0.0066467214
  z: 0.0041625932
  w: 0.5904504177
orientation_covariance: [0.002741552146694444, 0.0, 0.0, 0.0, 0.002741552146694444, 0.0, 0.0, 0.0, 0.007615422629706791]
angular_velocity: 
  x: -9.21376527602e-05
  y: -0.00120803899878
  z: 0.000721057627071
angular_velocity_covariance: [1.0966208586777776e-06, 0.0, 0.0, 0.0, 1.0966208586777776e-06, 0.0, 0.0, 0.0, 1.0966208586777776e-06]
linear_acceleration: 
  x: -0.0547307344598
  y: -0.147905537536
  z: -10.1372462285
linear_acceleration_covariance: [0.0015387262937311438, 0.0, 0.0, 0.0, 0.0015387262937311438, 0.0, 0.0, 0.0, 0.0015387262937311438]
---
header: 
  seq: 66
  stamp: 
    secs: 1556851584
    nsecs: 169696895
  frame_id: "imu_link"
orientation: 
  x: -0.8066367097
  y: 0.0066467214
  z: 0.0041625932
  w: 0.5909203879
orientation_covariance: [0.002741552146694444, 0.0, 0.0, 0.0, 0.002741552146694444, 0.0, 0.0, 0.0, 0.007615422629706791]
angular_velocity: 
  x: -0.00162377313915
  y: 0.000138510514154
  z: -0.00163450393584
angular_velocity_covariance: [1.0966208586777776e-06, 0.0, 0.0, 0.0, 1.0966208586777776e-06, 0.0, 0.0, 0.0, 1.0966208586777776e-06]
linear_acceleration: 
  x: -0.0553509167514
  y: -0.156643957124
  z: -10.1282679722
linear_acceleration_covariance: [0.0015387262937311438, 0.0, 0.0, 0.0, 0.0015387262937311438, 0.0, 0.0, 0.0, 0.0015387262937311438]
---
header: 
  seq: 67
  stamp: 
    secs: 1556851584
    nsecs: 219700400
  frame_id: "imu_link"
orientation: 
  x: -0.806334586
  y: 0.0066802907
  z: 0.0041625932
  w: 0.5913567888
orientation_covariance: [0.002741552146694444, 0.0, 0.0, 0.0, 0.002741552146694444, 0.0, 0.0, 0.0, 0.007615422629706791]
angular_velocity: 
  x: -0.000365939204741
  y: 0.000122397983193
  z: 0.000110207746912
angular_velocity_covariance: [1.0966208586777776e-06, 0.0, 0.0, 0.0, 1.0966208586777776e-06, 0.0, 0.0, 0.0, 1.0966208586777776e-06]
linear_acceleration: 
  x: -0.049360033173
  y: -0.154083970443
  z: -10.1255791715
linear_acceleration_covariance: [0.0015387262937311438, 0.0, 0.0, 0.0, 0.0015387262937311438, 0.0, 0.0, 0.0, 0.0015387262937311438]
---
header: 
  seq: 68
  stamp: 
    secs: 1556851584
    nsecs: 269735447
  frame_id: "imu_link"
orientation: 
  x: -0.8060324623
  y: 0.0066467214
  z: 0.0041625932
  w: 0.5917931897
orientation_covariance: [0.002741552146694444, 0.0, 0.0, 0.0, 0.002741552146694444, 0.0, 0.0, 0.0, 0.007615422629706791]
angular_velocity: 
  x: -0.00213740731782
  y: -0.00272966183496
  z: -0.000948076635578
angular_velocity_covariance: [1.0966208586777776e-06, 0.0, 0.0, 0.0, 1.0966208586777776e-06, 0.0, 0.0, 0.0, 1.0966208586777776e-06]
linear_acceleration: 
  x: -0.0521233101741
  y: -0.148651460533
  z: -10.1227781426
linear_acceleration_covariance: [0.0015387262937311438, 0.0, 0.0, 0.0, 0.0015387262937311438, 0.0, 0.0, 0.0, 0.0015387262937311438]
---
header: 
  seq: 69
  stamp: 
    secs: 1556851584
    nsecs: 322775284
  frame_id: "imu_link"
orientation: 
  x: -0.8056967693
  y: 0.0066802907
  z: 0.0041625932
  w: 0.5922295906
orientation_covariance: [0.002741552146694444, 0.0, 0.0, 0.0, 0.002741552146694444, 0.0, 0.0, 0.0, 0.007615422629706791]
angular_velocity: 
  x: 0.00128786686235
  y: -0.000592444501438
  z: 0.00121450067543
angular_velocity_covariance: [1.0966208586777776e-06, 0.0, 0.0, 0.0, 1.0966208586777776e-06, 0.0, 0.0, 0.0, 1.0966208586777776e-06]
linear_acceleration: 
  x: -0.0514321815382
  y: -0.154233808976
  z: -10.1380061069
linear_acceleration_covariance: [0.0015387262937311438, 0.0, 0.0, 0.0, 0.0015387262937311438, 0.0, 0.0, 0.0, 0.0015387262937311438]
---
header: 
  seq: 70
  stamp: 
    secs: 1556851584
    nsecs: 376709918
  frame_id: "imu_link"
orientation: 
  x: -0.8053610763
  y: 0.0066802907
  z: 0.0041625932
  w: 0.5926995608
orientation_covariance: [0.002741552146694444, 0.0, 0.0, 0.0, 0.002741552146694444, 0.0, 0.0, 0.0, 0.007615422629706791]
angular_velocity: 
  x: -0.000930362648196
  y: 0.0019053292135
  z: 0.000809579190159
angular_velocity_covariance: [1.0966208586777776e-06, 0.0, 0.0, 0.0, 1.0966208586777776e-06, 0.0, 0.0, 0.0, 1.0966208586777776e-06]
linear_acceleration: 
  x: -0.0536284266406
  y: -0.154147354535
  z: -10.1343142667
linear_acceleration_covariance: [0.0015387262937311438, 0.0, 0.0, 0.0, 0.0015387262937311438, 0.0, 0.0, 0.0, 0.0015387262937311438]
---
header: 
  seq: 71
  stamp: 
    secs: 1556851584
    nsecs: 426707197
  frame_id: "imu_link"
orientation: 
  x: -0.8050253833
  y: 0.0066802907
  z: 0.0041625932
  w: 0.5931359617
orientation_covariance: [0.002741552146694444, 0.0, 0.0, 0.0, 0.002741552146694444, 0.0, 0.0, 0.0, 0.007615422629706791]
angular_velocity: 
  x: 0.00038009700082
  y: 0.000111446716616
  z: -5.34406737646e-05
angular_velocity_covariance: [1.0966208586777776e-06, 0.0, 0.0, 0.0, 1.0966208586777776e-06, 0.0, 0.0, 0.0, 1.0966208586777776e-06]
linear_acceleration: 
  x: -0.051161086679
  y: -0.151121987965
  z: -10.127515108
linear_acceleration_covariance: [0.0015387262937311438, 0.0, 0.0, 0.0, 0.0015387262937311438, 0.0, 0.0, 0.0, 0.0015387262937311438]
---
header: 
  seq: 72
  stamp: 
    secs: 1556851584
    nsecs: 479706095
  frame_id: "imu_link"
orientation: 
  x: -0.8046896903
  y: 0.0066802907
  z: 0.0041290239
  w: 0.5936059319
orientation_covariance: [0.002741552146694444, 0.0, 0.0, 0.0, 0.002741552146694444, 0.0, 0.0, 0.0, 0.007615422629706791]
angular_velocity: 
  x: 0.000304027828932
  y: -0.00119399654567
  z: 0.000183804245899
angular_velocity_covariance: [1.0966208586777776e-06, 0.0, 0.0, 0.0, 1.0966208586777776e-06, 0.0, 0.0, 0.0, 1.0966208586777776e-06]
linear_acceleration: 
  x: -0.0547585997143
  y: -0.15057404436
  z: -10.1396006826
linear_acceleration_covariance: [0.0015387262937311438, 0.0, 0.0, 0.0, 0.0015387262937311438, 0.0, 0.0, 0.0, 0.0015387262937311438]
---
header: 
  seq: 73
  stamp: 
    secs: 1556851584
    nsecs: 529706092
  frame_id: "imu_link"
orientation: 
  x: -0.8043875666
  y: 0.00671386
  z: 0.0041290239
  w: 0.5940423328
orientation_covariance: [0.002741552146694444, 0.0, 0.0, 0.0, 0.002741552146694444, 0.0, 0.0, 0.0, 0.007615422629706791]
angular_velocity: 
  x: 0.00128017477407
  y: 0.000976315245735
  z: 1.69229713224e-05
angular_velocity_covariance: [1.0966208586777776e-06, 0.0, 0.0, 0.0, 1.0966208586777776e-06, 0.0, 0.0, 0.0, 1.0966208586777776e-06]
linear_acceleration: 
  x: -0.0491697941308
  y: -0.150376658624
  z: -10.1365319427
linear_acceleration_covariance: [0.0015387262937311438, 0.0, 0.0, 0.0, 0.0015387262937311438, 0.0, 0.0, 0.0, 0.0015387262937311438]
---
header: 
  seq: 74
  stamp: 
    secs: 1556851584
    nsecs: 582683307
  frame_id: "imu_link"
orientation: 
  x: -0.8040183043
  y: 0.00671386
  z: 0.0041290239
  w: 0.5944787337
orientation_covariance: [0.002741552146694444, 0.0, 0.0, 0.0, 0.002741552146694444, 0.0, 0.0, 0.0, 0.007615422629706791]
angular_velocity: 
  x: -0.000946845898853
  y: 0.000347154881474
  z: -0.00139887919795
angular_velocity_covariance: [1.0966208586777776e-06, 0.0, 0.0, 0.0, 1.0966208586777776e-06, 0.0, 0.0, 0.0, 1.0966208586777776e-06]
linear_acceleration: 
  x: -0.0413094314526
  y: -0.150739701516
  z: -10.1249654236
linear_acceleration_covariance: [0.0015387262937311438, 0.0, 0.0, 0.0, 0.0015387262937311438, 0.0, 0.0, 0.0, 0.0015387262937311438]
---
header: 
  seq: 75
  stamp: 
    secs: 1556851584
    nsecs: 632742720
  frame_id: "imu_link"
orientation: 
  x: -0.8037161806
  y: 0.00671386
  z: 0.0041290239
  w: 0.5949151346
orientation_covariance: [0.002741552146694444, 0.0, 0.0, 0.0, 0.002741552146694444, 0.0, 0.0, 0.0, 0.007615422629706791]
angular_velocity: 
  x: -0.000379868005376
  y: -0.00118929570224
  z: -0.00113015792158
angular_velocity_covariance: [1.0966208586777776e-06, 0.0, 0.0, 0.0, 1.0966208586777776e-06, 0.0, 0.0, 0.0, 1.0966208586777776e-06]
linear_acceleration: 
  x: -0.0500650990027
  y: -0.15205957021
  z: -10.1248274764
linear_acceleration_covariance: [0.0015387262937311438, 0.0, 0.0, 0.0, 0.0015387262937311438, 0.0, 0.0, 0.0, 0.0015387262937311438]
---
header: 
  seq: 76
  stamp: 
    secs: 1556851584
    nsecs: 685706386
  frame_id: "imu_link"
orientation: 
  x: -0.8033804876
  y: 0.00671386
  z: 0.0041290239
  w: 0.5953515355
orientation_covariance: [0.002741552146694444, 0.0, 0.0, 0.0, 0.002741552146694444, 0.0, 0.0, 0.0, 0.007615422629706791]
angular_velocity: 
  x: 0.000922540132642
  y: 0.00116484078341
  z: -0.000214946033238
angular_velocity_covariance: [1.0966208586777776e-06, 0.0, 0.0, 0.0, 1.0966208586777776e-06, 0.0, 0.0, 0.0, 1.0966208586777776e-06]
linear_acceleration: 
  x: -0.0493493199827
  y: -0.144829792486
  z: -10.1328997237
linear_acceleration_covariance: [0.0015387262937311438, 0.0, 0.0, 0.0, 0.0015387262937311438, 0.0, 0.0, 0.0, 0.0015387262937311438]
---
header: 
  seq: 77
  stamp: 
    secs: 1556851584
    nsecs: 739738387
  frame_id: "imu_link"
orientation: 
  x: -0.8030447946
  y: 0.00671386
  z: 0.0041290239
  w: 0.5958215057
orientation_covariance: [0.002741552146694444, 0.0, 0.0, 0.0, 0.002741552146694444, 0.0, 0.0, 0.0, 0.007615422629706791]
angular_velocity: 
  x: 0.00053694688358
  y: 0.000710353422976
  z: -0.00103213226737
angular_velocity_covariance: [1.0966208586777776e-06, 0.0, 0.0, 0.0, 1.0966208586777776e-06, 0.0, 0.0, 0.0, 1.0966208586777776e-06]
linear_acceleration: 
  x: -0.0497302090591
  y: -0.145388147888
  z: -10.1312046102
linear_acceleration_covariance: [0.0015387262937311438, 0.0, 0.0, 0.0, 0.0015387262937311438, 0.0, 0.0, 0.0, 0.0015387262937311438]
---
header: 
  seq: 78
  stamp: 
    secs: 1556851584
    nsecs: 792674772
  frame_id: "imu_link"
orientation: 
  x: -0.8027091016
  y: 0.00671386
  z: 0.0041290239
  w: 0.5962579066
orientation_covariance: [0.002741552146694444, 0.0, 0.0, 0.0, 0.002741552146694444, 0.0, 0.0, 0.0, 0.007615422629706791]
angular_velocity: 
  x: -0.000390248904576
  y: 0.000856643215327
  z: -0.000437086892646
angular_velocity_covariance: [1.0966208586777776e-06, 0.0, 0.0, 0.0, 1.0966208586777776e-06, 0.0, 0.0, 0.0, 1.0966208586777776e-06]
linear_acceleration: 
  x: -0.0525735335931
  y: -0.144804740243
  z: -10.130424858
linear_acceleration_covariance: [0.0015387262937311438, 0.0, 0.0, 0.0, 0.0015387262937311438, 0.0, 0.0, 0.0, 0.0015387262937311438]
---
header: 
  seq: 79
  stamp: 
    secs: 1556851584
    nsecs: 845739390
  frame_id: "imu_link"
orientation: 
  x: -0.8023734086
  y: 0.0066802907
  z: 0.0041290239
  w: 0.5967278768
orientation_covariance: [0.002741552146694444, 0.0, 0.0, 0.0, 0.002741552146694444, 0.0, 0.0, 0.0, 0.007615422629706791]
angular_velocity: 
  x: -0.00173629260546
  y: -0.00136440231499
  z: -0.000204390022744
angular_velocity_covariance: [1.0966208586777776e-06, 0.0, 0.0, 0.0, 1.0966208586777776e-06, 0.0, 0.0, 0.0, 1.0966208586777776e-06]
linear_acceleration: 
  x: -0.0478023919348
  y: -0.15019809632
  z: -10.1398719008
linear_acceleration_covariance: [0.0015387262937311438, 0.0, 0.0, 0.0, 0.0015387262937311438, 0.0, 0.0, 0.0, 0.0015387262937311438]
---
header: 
  seq: 80
  stamp: 
    secs: 1556851584
    nsecs: 898737376
  frame_id: "imu_link"
orientation: 
  x: -0.8020377156
  y: 0.0066467214
  z: 0.0041290239
  w: 0.5971642777
orientation_covariance: [0.002741552146694444, 0.0, 0.0, 0.0, 0.002741552146694444, 0.0, 0.0, 0.0, 0.007615422629706791]
angular_velocity: 
  x: -0.00111401718881
  y: 0.0024184550769
  z: 0.00110315960588
angular_velocity_covariance: [1.0966208586777776e-06, 0.0, 0.0, 0.0, 1.0966208586777776e-06, 0.0, 0.0, 0.0, 1.0966208586777776e-06]
linear_acceleration: 
  x: -0.0519341990765
  y: -0.146411207325
  z: -10.1355850172
