
header: 
  seq: 0
  stamp: 
    secs: 1559006719
    nsecs: 179778448
  frame_id: "imu_link"
orientation: 
  x: -0.5028345447
  y: 0.3697994088
  z: 0.0886900906
  w: -0.7761893546
orientation_covariance: [0.002741552146694444, 0.0, 0.0, 0.0, 0.002741552146694444, 0.0, 0.0, 0.0, 0.007615422629706791]
angular_velocity: 
  x: -5.36280573159e-05
  y: 0.000493256705106
  z: -0.000433744742511
angular_velocity_covariance: [1.0966208586777776e-06, 0.0, 0.0, 0.0, 1.0966208586777776e-06, 0.0, 0.0, 0.0, 1.0966208586777776e-06]
linear_acceleration: 
  x: -0.928544366753
  y: 1.01338932648
  z: -9.9497970727
linear_acceleration_covariance: [0.0015387262937311438, 0.0, 0.0, 0.0, 0.0015387262937311438, 0.0, 0.0, 0.0, 0.0015387262937311438]
---
header: 
  seq: 1
  stamp: 
    secs: 1559006719
    nsecs: 231725829
  frame_id: "imu_link"
orientation: 
  x: -0.5020624508
  y: 0.3723171063
  z: 0.0892607687
  w: -0.77545083
orientation_covariance: [0.002741552146694444, 0.0, 0.0, 0.0, 0.002741552146694444, 0.0, 0.0, 0.0, 0.007615422629706791]
angular_velocity: 
  x: 0.000334040698644
  y: -0.000383171339418
  z: -0.000912427337563
angular_velocity_covariance: [1.0966208586777776e-06, 0.0, 0.0, 0.0, 1.0966208586777776e-06, 0.0, 0.0, 0.0, 1.0966208586777776e-06]
linear_acceleration: 
  x: -0.925527137824
  y: 1.01042711567
  z: -9.94380689237
linear_acceleration_covariance: [0.0015387262937311438, 0.0, 0.0, 0.0, 0.0015387262937311438, 0.0, 0.0, 0.0, 0.0015387262937311438]
---
header: 
  seq: 2
  stamp: 
    secs: 1559006719
    nsecs: 282766244
  frame_id: "imu_link"
orientation: 
  x: -0.5021295894
  y: 0.3714107352
  z: 0.0889922143
  w: -0.7758536616
orientation_covariance: [0.002741552146694444, 0.0, 0.0, 0.0, 0.002741552146694444, 0.0, 0.0, 0.0, 0.007615422629706791]
angular_velocity: 
  x: -0.00177458230806
  y: 0.000129519549676
  z: 0.00180044656967
angular_velocity_covariance: [1.0966208586777776e-06, 0.0, 0.0, 0.0, 1.0966208586777776e-06, 0.0, 0.0, 0.0, 1.0966208586777776e-06]
linear_acceleration: 
  x: -0.927480317719
  y: 1.01412523954
  z: -9.945586177
linear_acceleration_covariance: [0.0015387262937311438, 0.0, 0.0, 0.0, 0.0015387262937311438, 0.0, 0.0, 0.0, 0.0015387262937311438]
---
header: 
  seq: 3
  stamp: 
    secs: 1559006719
    nsecs: 336758758
  frame_id: "imu_link"
orientation: 
  x: -0.5022974359
  y: 0.3705043641
  z: 0.0887572292
  w: -0.7761893546
orientation_covariance: [0.002741552146694444, 0.0, 0.0, 0.0, 0.002741552146694444, 0.0, 0.0, 0.0, 0.007615422629706791]
angular_velocity: 
  x: 0.00110499989181
  y: -0.00103288284187
  z: 0.000931643189155
angular_velocity_covariance: [1.0966208586777776e-06, 0.0, 0.0, 0.0, 1.0966208586777776e-06, 0.0, 0.0, 0.0, 1.0966208586777776e-06]
linear_acceleration: 
  x: -0.931009441693
  y: 1.01729912033
  z: -9.96333109253
linear_acceleration_covariance: [0.0015387262937311438, 0.0, 0.0, 0.0, 0.0015387262937311438, 0.0, 0.0, 0.0, 0.0015387262937311438]
---
header: 
  seq: 4
  stamp: 
    secs: 1559006719
    nsecs: 388771452
  frame_id: "imu_link"
orientation: 
  x: -0.5017603271
  y: 0.3731563388
  z: 0.0894286152
  w: -0.7752158449
orientation_covariance: [0.002741552146694444, 0.0, 0.0, 0.0, 0.002741552146694444, 0.0, 0.0, 0.0, 0.007615422629706791]
angular_velocity: 
  x: 0.000960358320493
  y: 0.00210463093083
  z: -0.000973283949437
angular_velocity_covariance: [1.0966208586777776e-06, 0.0, 0.0, 0.0, 1.0966208586777776e-06, 0.0, 0.0, 0.0, 1.0966208586777776e-06]
linear_acceleration: 
  x: -0.93704959864
  y: 1.01025796965
  z: -9.94887002098
linear_acceleration_covariance: [0.0015387262937311438, 0.0, 0.0, 0.0, 0.0015387262937311438, 0.0, 0.0, 0.0, 0.0015387262937311438]
---
header: 
  seq: 5
  stamp: 
    secs: 1559006719
    nsecs: 439788472
  frame_id: "imu_link"
orientation: 
  x: -0.5020960201
  y: 0.3721828291
  z: 0.0892271994
  w: -0.7754843993
orientation_covariance: [0.002741552146694444, 0.0, 0.0, 0.0, 0.002741552146694444, 0.0, 0.0, 0.0, 0.007615422629706791]
angular_velocity: 
  x: -0.00520702556704
  y: -0.0018816928786
  z: -0.00204722953641
angular_velocity_covariance: [1.0966208586777776e-06, 0.0, 0.0, 0.0, 1.0966208586777776e-06, 0.0, 0.0, 0.0, 1.0966208586777776e-06]
linear_acceleration: 
  x: -0.935282150576
  y: 1.01073406273
  z: -9.94927217204
linear_acceleration_covariance: [0.0015387262937311438, 0.0, 0.0, 0.0, 0.0015387262937311438, 0.0, 0.0, 0.0, 0.0015387262937311438]
---
header: 
  seq: 6
  stamp: 
    secs: 1559006719
    nsecs: 493757971
  frame_id: "imu_link"
orientation: 
  x: -0.5023981438
  y: 0.3713771659
  z: 0.0890257836
  w: -0.7756858151
orientation_covariance: [0.002741552146694444, 0.0, 0.0, 0.0, 0.002741552146694444, 0.0, 0.0, 0.0, 0.007615422629706791]
angular_velocity: 
  x: 0.000514777367877
  y: -0.000925798668881
  z: 0.000678294646076
angular_velocity_covariance: [1.0966208586777776e-06, 0.0, 0.0, 0.0, 1.0966208586777776e-06, 0.0, 0.0, 0.0, 1.0966208586777776e-06]
linear_acceleration: 
  x: -0.931802710962
  y: 1.01302297738
  z: -9.94693291544
linear_acceleration_covariance: [0.0015387262937311438, 0.0, 0.0, 0.0, 0.0015387262937311438, 0.0, 0.0, 0.0, 0.0015387262937311438]
---
header: 
  seq: 7
  stamp: 
    secs: 1559006719
    nsecs: 544759192
  frame_id: "imu_link"
orientation: 
  x: -0.5025995596
  y: 0.3705379334
  z: 0.0887907985
  w: -0.7759879388
orientation_covariance: [0.002741552146694444, 0.0, 0.0, 0.0, 0.002741552146694444, 0.0, 0.0, 0.0, 0.007615422629706791]
angular_velocity: 
  x: -0.00145580699703
  y: -0.000329912636408
  z: 0.000363068341793
angular_velocity_covariance: [1.0966208586777776e-06, 0.0, 0.0, 0.0, 1.0966208586777776e-06, 0.0, 0.0, 0.0, 1.0966208586777776e-06]
linear_acceleration: 
  x: -0.922809111037
  y: 1.01474212933
  z: -9.94768928676
linear_acceleration_covariance: [0.0015387262937311438, 0.0, 0.0, 0.0, 0.0015387262937311438, 0.0, 0.0, 0.0, 0.0015387262937311438]
---
header: 
  seq: 8
  stamp: 
    secs: 1559006719
    nsecs: 593775208
  frame_id: "imu_link"
orientation: 
  x: -0.5019617429
  y: 0.3732570467
  z: 0.0894621845
  w: -0.7750144291
orientation_covariance: [0.002741552146694444, 0.0, 0.0, 0.0, 0.002741552146694444, 0.0, 0.0, 0.0, 0.007615422629706791]
angular_velocity: 
  x: -0.00207655928839
  y: -0.00175307130055
  z: -4.77910954529e-05
angular_velocity_covariance: [1.0966208586777776e-06, 0.0, 0.0, 0.0, 1.0966208586777776e-06, 0.0, 0.0, 0.0, 1.0966208586777776e-06]
linear_acceleration: 
  x: -0.926066359267
  y: 1.01266050075
  z: -9.93740871577
linear_acceleration_covariance: [0.0015387262937311438, 0.0, 0.0, 0.0, 0.0015387262937311438, 0.0, 0.0, 0.0, 0.0015387262937311438]
---
header: 
  seq: 9
  stamp: 
    secs: 1559006719
    nsecs: 644764028
  frame_id: "imu_link"
orientation: 
  x: -0.5021295894
  y: 0.3723171063
  z: 0.0892271994
  w: -0.7753836914
orientation_covariance: [0.002741552146694444, 0.0, 0.0, 0.0, 0.002741552146694444, 0.0, 0.0, 0.0, 0.007615422629706791]
angular_velocity: 
  x: -0.00186849644727
  y: 0.00212451387307
  z: 0.00185890516623
angular_velocity_covariance: [1.0966208586777776e-06, 0.0, 0.0, 0.0, 1.0966208586777776e-06, 0.0, 0.0, 0.0, 1.0966208586777776e-06]
linear_acceleration: 
  x: -0.932671456621
  y: 1.01171635176
  z: -9.95123733463
linear_acceleration_covariance: [0.0015387262937311438, 0.0, 0.0, 0.0, 0.0015387262937311438, 0.0, 0.0, 0.0, 0.0015387262937311438]
---
header: 
  seq: 10
  stamp: 
    secs: 1559006719
    nsecs: 698806602
  frame_id: "imu_link"
orientation: 
  x: -0.5022638666
  y: 0.3714443045
  z: 0.0889922143
  w: -0.7757529537
orientation_covariance: [0.002741552146694444, 0.0, 0.0, 0.0, 0.002741552146694444, 0.0, 0.0, 0.0, 0.007615422629706791]
angular_velocity: 
  x: 0.0007939301279
  y: -0.000497626213844
  z: 0.000468253744648
angular_velocity_covariance: [1.0966208586777776e-06, 0.0, 0.0, 0.0, 1.0966208586777776e-06, 0.0, 0.0, 0.0, 1.0966208586777776e-06]
linear_acceleration: 
  x: -0.932528614084
  y: 1.01429058617
  z: -9.95209658181
linear_acceleration_covariance: [0.0015387262937311438, 0.0, 0.0, 0.0, 0.0015387262937311438, 0.0, 0.0, 0.0, 0.0015387262937311438]
---
header: 
  seq: 11
  stamp: 
    secs: 1559006719
    nsecs: 749790346
  frame_id: "imu_link"
orientation: 
  x: -0.5024317131
  y: 0.3705715027
  z: 0.0887572292
  w: -0.7760886467
orientation_covariance: [0.002741552146694444, 0.0, 0.0, 0.0, 0.002741552146694444, 0.0, 0.0, 0.0, 0.007615422629706791]
angular_velocity: 
  x: 0.00225075499082
  y: -0.00048248881531
  z: -0.00131644747024
angular_velocity_covariance: [1.0966208586777776e-06, 0.0, 0.0, 0.0, 1.0966208586777776e-06, 0.0, 0.0, 0.0, 1.0966208586777776e-06]
linear_acceleration: 
  x: -0.927988267241
  y: 1.01204653357
  z: -9.95382793565
linear_acceleration_covariance: [0.0015387262937311438, 0.0, 0.0, 0.0, 0.0015387262937311438, 0.0, 0.0, 0.0, 0.0015387262937311438]
---
header: 
  seq: 12
  stamp: 
    secs: 1559006719
    nsecs: 801788646
  frame_id: "imu_link"
orientation: 
  x: -0.5020288815
  y: 0.3725856607
  z: 0.089294338
  w: -0.7753165528
orientation_covariance: [0.002741552146694444, 0.0, 0.0, 0.0, 0.002741552146694444, 0.0, 0.0, 0.0, 0.007615422629706791]
angular_velocity: 
  x: -0.000839701063523
  y: -0.000325654406972
  z: -0.000218272335093
angular_velocity_covariance: [1.0966208586777776e-06, 0.0, 0.0, 0.0, 1.0966208586777776e-06, 0.0, 0.0, 0.0, 1.0966208586777776e-06]
linear_acceleration: 
  x: -0.930387218141
  y: 1.01191940005
  z: -9.95653544104
linear_acceleration_covariance: [0.0015387262937311438, 0.0, 0.0, 0.0, 0.0015387262937311438, 0.0, 0.0, 0.0, 0.0015387262937311438]
---
header: 
  seq: 13
  stamp: 
    secs: 1559006719
    nsecs: 852767580
  frame_id: "imu_link"
orientation: 
  x: -0.5020624508
  y: 0.3715450124
  z: 0.0889922143
  w: -0.7758200923
orientation_covariance: [0.002741552146694444, 0.0, 0.0, 0.0, 0.002741552146694444, 0.0, 0.0, 0.0, 0.007615422629706791]
angular_velocity: 
  x: 0.000462017032292
  y: 0.0015164088661
  z: 0.000751331708934
angular_velocity_covariance: [1.0966208586777776e-06, 0.0, 0.0, 0.0, 1.0966208586777776e-06, 0.0, 0.0, 0.0, 1.0966208586777776e-06]
linear_acceleration: 
  x: -0.927650194393
  y: 1.01431228654
  z: -9.95396120664
linear_acceleration_covariance: [0.0015387262937311438, 0.0, 0.0, 0.0, 0.0015387262937311438, 0.0, 0.0, 0.0, 0.0015387262937311438]
---
header: 
  seq: 14
  stamp: 
    secs: 1559006719
    nsecs: 903731597
  frame_id: "imu_link"
orientation: 
  x: -0.5023310052
  y: 0.3705043641
  z: 0.0887572292
  w: -0.7761893546
orientation_covariance: [0.002741552146694444, 0.0, 0.0, 0.0, 0.002741552146694444, 0.0, 0.0, 0.0, 0.007615422629706791]
angular_velocity: 
  x: 0.00155255256541
  y: 0.00134633690218
  z: 0.00211022695009
angular_velocity_covariance: [1.0966208586777776e-06, 0.0, 0.0, 0.0, 1.0966208586777776e-06, 0.0, 0.0, 0.0, 1.0966208586777776e-06]
linear_acceleration: 
  x: -0.924152999927
  y: 1.01022611321
  z: -9.95477953728
linear_acceleration_covariance: [0.0015387262937311438, 0.0, 0.0, 0.0, 0.0015387262937311438, 0.0, 0.0, 0.0, 0.0015387262937311438]
---
header: 
  seq: 15
  stamp: 
    secs: 1559006719
    nsecs: 957791484
  frame_id: "imu_link"
orientation: 
  x: -0.5022638666
  y: 0.3728877844
  z: 0.0894286152
  w: -0.7750144291
orientation_covariance: [0.002741552146694444, 0.0, 0.0, 0.0, 0.002741552146694444, 0.0, 0.0, 0.0, 0.007615422629706791]
angular_velocity: 
  x: 0.0025426647541
  y: 0.000729853470787
  z: -0.00108907853173
angular_velocity_covariance: [1.0966208586777776e-06, 0.0, 0.0, 0.0, 1.0966208586777776e-06, 0.0, 0.0, 0.0, 1.0966208586777776e-06]
linear_acceleration: 
  x: -0.928488837174
  y: 1.01068576661
  z: -9.95410850616
linear_acceleration_covariance: [0.0015387262937311438, 0.0, 0.0, 0.0, 0.0015387262937311438, 0.0, 0.0, 0.0, 0.0015387262937311438]
---
header: 
  seq: 16
  stamp: 
    secs: 1559006720
    nsecs:   9762254
  frame_id: "imu_link"
orientation: 
  x: -0.5024988517
  y: 0.3720149826
  z: 0.0892271994
  w: -0.7753165528
orientation_covariance: [0.002741552146694444, 0.0, 0.0, 0.0, 0.002741552146694444, 0.0, 0.0, 0.0, 0.007615422629706791]
angular_velocity: 
  x: 0.000230515382716
  y: 0.00202725387767
  z: 0.000719952051115
angular_velocity_covariance: [1.0966208586777776e-06, 0.0, 0.0, 0.0, 1.0966208586777776e-06, 0.0, 0.0, 0.0, 1.0966208586777776e-06]
linear_acceleration: 
  x: -0.930081440128
  y: 1.00710513164
  z: -9.93719244267
linear_acceleration_covariance: [0.0015387262937311438, 0.0, 0.0, 0.0, 0.0015387262937311438, 0.0, 0.0, 0.0, 0.0015387262937311438]
---
header: 
  seq: 17
  stamp: 
    secs: 1559006720
    nsecs:  63799201
  frame_id: "imu_link"
orientation: 
  x: -0.5027338368
  y: 0.3711421808
  z: 0.0890257836
  w: -0.7755851072
orientation_covariance: [0.002741552146694444, 0.0, 0.0, 0.0, 0.002741552146694444, 0.0, 0.0, 0.0, 0.007615422629706791]
angular_velocity: 
  x: -0.000930460371124
  y: -0.00175095364536
  z: -0.000431850588691
angular_velocity_covariance: [1.0966208586777776e-06, 0.0, 0.0, 0.0, 1.0966208586777776e-06, 0.0, 0.0, 0.0, 1.0966208586777776e-06]
linear_acceleration: 
  x: -0.920336802639
  y: 1.00867260015
  z: -9.94298739268
linear_acceleration_covariance: [0.0015387262937311438, 0.0, 0.0, 0.0, 0.0015387262937311438, 0.0, 0.0, 0.0, 0.0015387262937311438]
---
header: 
  seq: 18
  stamp: 
    secs: 1559006720
    nsecs: 114800131
  frame_id: "imu_link"
orientation: 
  x: -0.5030695298
  y: 0.3702022404
  z: 0.0887907985
  w: -0.7758200923
orientation_covariance: [0.002741552146694444, 0.0, 0.0, 0.0, 0.002741552146694444, 0.0, 0.0, 0.0, 0.007615422629706791]
angular_velocity: 
  x: -0.000201611047306
  y: -0.00278712707763
  z: -0.00155260041909
angular_velocity_covariance: [1.0966208586777776e-06, 0.0, 0.0, 0.0, 1.0966208586777776e-06, 0.0, 0.0, 0.0, 1.0966208586777776e-06]
linear_acceleration: 
  x: -0.923508199217
  y: 1.01299455501
  z: -9.94910382974
linear_acceleration_covariance: [0.0015387262937311438, 0.0, 0.0, 0.0, 0.0015387262937311438, 0.0, 0.0, 0.0, 0.0015387262937311438]
---
header: 
  seq: 19
  stamp: 
    secs: 1559006720
    nsecs: 166764737
  frame_id: "imu_link"
orientation: 
  x: -0.5025659903
  y: 0.3726863686
  z: 0.0894286152
  w: -0.7749137212
orientation_covariance: [0.002741552146694444, 0.0, 0.0, 0.0, 0.002741552146694444, 0.0, 0.0, 0.0, 0.007615422629706791]
angular_velocity: 
  x: 0.00097158767967
  y: -0.000189865586886
  z: 0.000434318661528
angular_velocity_covariance: [1.0966208586777776e-06, 0.0, 0.0, 0.0, 1.0966208586777776e-06, 0.0, 0.0, 0.0, 1.0966208586777776e-06]
linear_acceleration: 
  x: -0.923332111998
  y: 1.0100987605
  z: -9.94880455453
linear_acceleration_covariance: [0.0015387262937311438, 0.0, 0.0, 0.0, 0.0015387262937311438, 0.0, 0.0, 0.0, 0.0015387262937311438]
---
header: 
  seq: 20
  stamp: 
    secs: 1559006720
    nsecs: 217764967
  frame_id: "imu_link"
orientation: 
  x: -0.5028345447
  y: 0.3716457203
  z: 0.0891936301
  w: -0.7752494142
orientation_covariance: [0.002741552146694444, 0.0, 0.0, 0.0, 0.002741552146694444, 0.0, 0.0, 0.0, 0.007615422629706791]
angular_velocity: 
  x: -0.00150393076005
  y: 0.000318205390659
  z: 0.000100268697737
angular_velocity_covariance: [1.0966208586777776e-06, 0.0, 0.0, 0.0, 1.0966208586777776e-06, 0.0, 0.0, 0.0, 1.0966208586777776e-06]
linear_acceleration: 
  x: -0.933657398918
  y: 1.00318364735
  z: -9.95784243199
linear_acceleration_covariance: [0.0015387262937311438, 0.0, 0.0, 0.0, 0.0015387262937311438, 0.0, 0.0, 0.0, 0.0015387262937311438]
---
header: 
  seq: 21
  stamp: 
    secs: 1559006720
    nsecs: 271796479
  frame_id: "imu_link"
orientation: 
  x: -0.5031702377
  y: 0.3706386413
  z: 0.088958645
  w: -0.7755515379
orientation_covariance: [0.002741552146694444, 0.0, 0.0, 0.0, 0.002741552146694444, 0.0, 0.0, 0.0, 0.007615422629706791]
angular_velocity: 
  x: -0.000639023683044
  y: -0.000904781022364
  z: 0.000432469110455
angular_velocity_covariance: [1.0966208586777776e-06, 0.0, 0.0, 0.0, 1.0966208586777776e-06, 0.0, 0.0, 0.0, 1.0966208586777776e-06]
linear_acceleration: 
  x: -0.932244098054
  y: 1.00374288867
  z: -9.9565237506
linear_acceleration_covariance: [0.0015387262937311438, 0.0, 0.0, 0.0, 0.0015387262937311438, 0.0, 0.0, 0.0, 0.0015387262937311438]
---
header: 
  seq: 22
  stamp: 
    secs: 1559006720
    nsecs: 322770961
  frame_id: "imu_link"
orientation: 
  x: -0.5027002675
  y: 0.3729884923
  z: 0.0895964617
  w: -0.7746451668
orientation_covariance: [0.002741552146694444, 0.0, 0.0, 0.0, 0.002741552146694444, 0.0, 0.0, 0.0, 0.007615422629706791]
angular_velocity: 
  x: 0.000802591188097
  y: 0.000851203890852
  z: 0.00138021470393
angular_velocity_covariance: [1.0966208586777776e-06, 0.0, 0.0, 0.0, 1.0966208586777776e-06, 0.0, 0.0, 0.0, 1.0966208586777776e-06]
linear_acceleration: 
  x: -0.926609160907
  y: 1.01367924933
  z: -9.94558033178
linear_acceleration_covariance: [0.0015387262937311438, 0.0, 0.0, 0.0, 0.0015387262937311438, 0.0, 0.0, 0.0, 0.0015387262937311438]
---
header: 
  seq: 23
  stamp: 
    secs: 1559006720
    nsecs: 374764008
  frame_id: "imu_link"
orientation: 
  x: -0.502868114
  y: 0.3721492598
  z: 0.0893614766
  w: -0.7749808598
orientation_covariance: [0.002741552146694444, 0.0, 0.0, 0.0, 0.002741552146694444, 0.0, 0.0, 0.0, 0.007615422629706791]
angular_velocity: 
  x: -0.000844322389226
  y: -0.000293663411942
  z: 0.00116753294278
angular_velocity_covariance: [1.0966208586777776e-06, 0.0, 0.0, 0.0, 1.0966208586777776e-06, 0.0, 0.0, 0.0, 1.0966208586777776e-06]
linear_acceleration: 
  x: -0.928643224018
  y: 1.01653405424
  z: -9.95210944129
linear_acceleration_covariance: [0.0015387262937311438, 0.0, 0.0, 0.0, 0.0015387262937311438, 0.0, 0.0, 0.0, 0.0015387262937311438]
---
header: 
  seq: 24
  stamp: 
    secs: 1559006720
    nsecs: 426773078
  frame_id: "imu_link"
orientation: 
  x: -0.503203807
  y: 0.3711086115
  z: 0.0891264915
  w: -0.7752829835
orientation_covariance: [0.002741552146694444, 0.0, 0.0, 0.0, 0.002741552146694444, 0.0, 0.0, 0.0, 0.007615422629706791]
angular_velocity: 
  x: 0.0015437976834
  y: -0.00154176819341
  z: 0.000338132903132
angular_velocity_covariance: [1.0966208586777776e-06, 0.0, 0.0, 0.0, 1.0966208586777776e-06, 0.0, 0.0, 0.0, 1.0966208586777776e-06]
linear_acceleration: 
  x: -0.936872050116
  y: 1.0171695026
  z: -9.96365959383
linear_acceleration_covariance: [0.0015387262937311438, 0.0, 0.0, 0.0, 0.0015387262937311438, 0.0, 0.0, 0.0, 0.0015387262937311438]
---
header: 
  seq: 25
  stamp: 
    secs: 1559006720
    nsecs: 479792696
  frame_id: "imu_link"
orientation: 
  x: -0.5034387921
  y: 0.3701686711
  z: 0.0888915064
  w: -0.7756186765
orientation_covariance: [0.002741552146694444, 0.0, 0.0, 0.0, 0.002741552146694444, 0.0, 0.0, 0.0, 0.007615422629706791]
angular_velocity: 
  x: -0.00097107526823
  y: -0.000176707939135
  z: 0.00035041949695
angular_velocity_covariance: [1.0966208586777776e-06, 0.0, 0.0, 0.0, 1.0966208586777776e-06, 0.0, 0.0, 0.0, 1.0966208586777776e-06]
linear_acceleration: 
  x: -0.930347324522
  y: 1.01576526183
  z: -9.95952351694
linear_acceleration_covariance: [0.0015387262937311438, 0.0, 0.0, 0.0, 0.0015387262937311438, 0.0, 0.0, 0.0, 0.0015387262937311438]
---
header: 
  seq: 26
  stamp: 
    secs: 1559006720
    nsecs: 527771317
  frame_id: "imu_link"
orientation: 
  x: -0.5026331289
  y: 0.3729213537
  z: 0.0895964617
  w: -0.7747458747
orientation_covariance: [0.002741552146694444, 0.0, 0.0, 0.0, 0.002741552146694444, 0.0, 0.0, 0.0, 0.007615422629706791]
angular_velocity: 
  x: -0.00177014309941
  y: -0.00206110021043
  z: -0.000688472134644
angular_velocity_covariance: [1.0966208586777776e-06, 0.0, 0.0, 0.0, 1.0966208586777776e-06, 0.0, 0.0, 0.0, 1.0966208586777776e-06]
linear_acceleration: 
  x: -0.927093510358
  y: 1.01709607204
  z: -9.94755718482
linear_acceleration_covariance: [0.0015387262937311438, 0.0, 0.0, 0.0, 0.0015387262937311438, 0.0, 0.0, 0.0, 0.0015387262937311438]
---
header: 
  seq: 27
  stamp: 
    secs: 1559006720
    nsecs: 579797359
  frame_id: "imu_link"
orientation: 
  x: -0.5028009754
  y: 0.3718807054
  z: 0.0893279073
  w: -0.7751487063
orientation_covariance: [0.002741552146694444, 0.0, 0.0, 0.0, 0.002741552146694444, 0.0, 0.0, 0.0, 0.007615422629706791]
angular_velocity: 
  x: -0.000522048623389
  y: 0.00152201125718
  z: -0.00135640242875
angular_velocity_covariance: [1.0966208586777776e-06, 0.0, 0.0, 0.0, 1.0966208586777776e-06, 0.0, 0.0, 0.0, 1.0966208586777776e-06]
linear_acceleration: 
  x: -0.928480726933
  y: 1.01662604338
  z: -9.94460651832
linear_acceleration_covariance: [0.0015387262937311438, 0.0, 0.0, 0.0, 0.0015387262937311438, 0.0, 0.0, 0.0, 0.0015387262937311438]
---
header: 
  seq: 28
  stamp: 
    secs: 1559006720
    nsecs: 633761312
  frame_id: "imu_link"
orientation: 
  x: -0.5030359605
  y: 0.370940765
  z: 0.0890929222
  w: -0.7754843993
orientation_covariance: [0.002741552146694444, 0.0, 0.0, 0.0, 0.002741552146694444, 0.0, 0.0, 0.0, 0.007615422629706791]
angular_velocity: 
  x: 0.00318144968891
  y: 0.00284536214031
  z: 0.00169732371876
angular_velocity_covariance: [1.0966208586777776e-06, 0.0, 0.0, 0.0, 1.0966208586777776e-06, 0.0, 0.0, 0.0, 1.0966208586777776e-06]
linear_acceleration: 
  x: -0.928251521287
  y: 1.01528398112
  z: -9.94362569059
linear_acceleration_covariance: [0.0015387262937311438, 0.0, 0.0, 0.0, 0.0015387262937311438, 0.0, 0.0, 0.0, 0.0015387262937311438]
---
header: 
  seq: 29
  stamp: 
    secs: 1559006720
    nsecs: 684770311
  frame_id: "imu_link"
orientation: 
  x: -0.5033045149
  y: 0.3700008246
  z: 0.0888579371
  w: -0.775786523
orientation_covariance: [0.002741552146694444, 0.0, 0.0, 0.0, 0.002741552146694444, 0.0, 0.0, 0.0, 0.007615422629706791]
angular_velocity: 
  x: 0.00040020295679
  y: 0.000209857711575
  z: 0.000871989746127
angular_velocity_covariance: [1.0966208586777776e-06, 0.0, 0.0, 0.0, 1.0966208586777776e-06, 0.0, 0.0, 0.0, 1.0966208586777776e-06]
linear_acceleration: 
  x: -0.925964287132
  y: 1.01216782186
  z: -9.94767759632
linear_acceleration_covariance: [0.0015387262937311438, 0.0, 0.0, 0.0, 0.0015387262937311438, 0.0, 0.0, 0.0, 0.0015387262937311438]
---
header: 
  seq: 30
  stamp: 
    secs: 1559006720
    nsecs: 736805957
  frame_id: "imu_link"
orientation: 
  x: -0.5027674061
  y: 0.3722499677
  z: 0.0894621845
  w: -0.7749808598
orientation_covariance: [0.002741552146694444, 0.0, 0.0, 0.0, 0.002741552146694444, 0.0, 0.0, 0.0, 0.007615422629706791]
angular_velocity: 
  x: 0.00372565209351
  y: -0.00091828999802
  z: 0.000339020926916
angular_velocity_covariance: [1.0966208586777776e-06, 0.0, 0.0, 0.0, 1.0966208586777776e-06, 0.0, 0.0, 0.0, 1.0966208586777776e-06]
linear_acceleration: 
  x: -0.930479134208
  y: 1.01744437402
  z: -9.95485435609
linear_acceleration_covariance: [0.0015387262937311438, 0.0, 0.0, 0.0, 0.0015387262937311438, 0.0, 0.0, 0.0, 0.0015387262937311438]
---
header: 
  seq: 31
  stamp: 
    secs: 1559006720
    nsecs: 787747195
  frame_id: "imu_link"
orientation: 
  x: -0.5029688219
  y: 0.3713100273
  z: 0.0892271994
  w: -0.7753165528
orientation_covariance: [0.002741552146694444, 0.0, 0.0, 0.0, 0.002741552146694444, 0.0, 0.0, 0.0, 0.007615422629706791]
angular_velocity: 
  x: -0.000380956156353
  y: -0.000957495747414
  z: 0.000429727114335
angular_velocity_covariance: [1.0966208586777776e-06, 0.0, 0.0, 0.0, 1.0966208586777776e-06, 0.0, 0.0, 0.0, 1.0966208586777776e-06]
linear_acceleration: 
  x: -0.92966160728
  y: 1.01038919481
  z: -9.95301895735
linear_acceleration_covariance: [0.0015387262937311438, 0.0, 0.0, 0.0, 0.0015387262937311438, 0.0, 0.0, 0.0, 0.0015387262937311438]
---
header: 
  seq: 32
  stamp: 
    secs: 1559006720
    nsecs: 841767024
  frame_id: "imu_link"
orientation: 
  x: -0.5030695298
  y: 0.3704707948
  z: 0.0889922143
  w: -0.7756858151
orientation_covariance: [0.002741552146694444, 0.0, 0.0, 0.0, 0.002741552146694444, 0.0, 0.0, 0.0, 0.007615422629706791]
angular_velocity: 
  x: 0.00152267041556
  y: 0.000405879078937
  z: -0.00134063295208
angular_velocity_covariance: [1.0966208586777776e-06, 0.0, 0.0, 0.0, 1.0966208586777776e-06, 0.0, 0.0, 0.0, 1.0966208586777776e-06]
linear_acceleration: 
  x: -0.929427725459
  y: 1.0076501983
  z: -9.95621746113
linear_acceleration_covariance: [0.0015387262937311438, 0.0, 0.0, 0.0, 0.0015387262937311438, 0.0, 0.0, 0.0, 0.0015387262937311438]
---
header: 
  seq: 33
  stamp: 
    secs: 1559006720
    nsecs: 892773545
  frame_id: "imu_link"
orientation: 
  x: -0.5025995596
  y: 0.3730220616
  z: 0.0896971696
  w: -0.7746787361
orientation_covariance: [0.002741552146694444, 0.0, 0.0, 0.0, 0.002741552146694444, 0.0, 0.0, 0.0, 0.007615422629706791]
angular_velocity: 
  x: -0.00104124572686
  y: 0.000709235948619
  z: 0.000958300742469
angular_velocity_covariance: [1.0966208586777776e-06, 0.0, 0.0, 0.0, 1.0966208586777776e-06, 0.0, 0.0, 0.0, 1.0966208586777776e-06]
linear_acceleration: 
  x: -0.928557883822
  y: 1.01336265767
  z: -9.94805052129
linear_acceleration_covariance: [0.0015387262937311438, 0.0, 0.0, 0.0, 0.0015387262937311438, 0.0, 0.0, 0.0, 0.0015387262937311438]
---
header: 
  seq: 34
  stamp: 
    secs: 1559006720
    nsecs: 944784810
  frame_id: "imu_link"
orientation: 
  x: -0.5028009754
  y: 0.3721828291
  z: 0.0894621845
  w: -0.7749808598
orientation_covariance: [0.002741552146694444, 0.0, 0.0, 0.0, 0.002741552146694444, 0.0, 0.0, 0.0, 0.007615422629706791]
angular_velocity: 
  x: 0.000341073758583
  y: 0.00066594514678
  z: 0.0013299399962
angular_velocity_covariance: [1.0966208586777776e-06, 0.0, 0.0, 0.0, 1.0966208586777776e-06, 0.0, 0.0, 0.0, 1.0966208586777776e-06]
linear_acceleration: 
  x: -0.929606369962
  y: 1.01551048335
  z: -9.95129695587
linear_acceleration_covariance: [0.0015387262937311438, 0.0, 0.0, 0.0, 0.0015387262937311438, 0.0, 0.0, 0.0, 0.0015387262937311438]
---
header: 
  seq: 35
  stamp: 
    secs: 1559006720
    nsecs: 998795512
  frame_id: "imu_link"
orientation: 
  x: -0.5030695298
  y: 0.3712428887
  z: 0.0892271994
  w: -0.7753165528
orientation_covariance: [0.002741552146694444, 0.0, 0.0, 0.0, 0.002741552146694444, 0.0, 0.0, 0.0, 0.007615422629706791]
angular_velocity: 
  x: -0.00219579660457
  y: 0.000186250635039
  z: -5.41901592059e-05
angular_velocity_covariance: [1.0966208586777776e-06, 0.0, 0.0, 0.0, 1.0966208586777776e-06, 0.0, 0.0, 0.0, 1.0966208586777776e-06]
linear_acceleration: 
  x: -0.926454627933
  y: 1.0148098608
  z: -9.96166637419
linear_acceleration_covariance: [0.0015387262937311438, 0.0, 0.0, 0.0, 0.0015387262937311438, 0.0, 0.0, 0.0, 0.0015387262937311438]
---
header: 
  seq: 36
  stamp: 
    secs: 1559006721
    nsecs:  49773552
  frame_id: "imu_link"
orientation: 
  x: -0.503203807
  y: 0.3702358097
  z: 0.0889922143
  w: -0.7757193844
orientation_covariance: [0.002741552146694444, 0.0, 0.0, 0.0, 0.002741552146694444, 0.0, 0.0, 0.0, 0.007615422629706791]
angular_velocity: 
  x: -0.000910833081949
  y: 0.00133516670991
  z: -0.00173780259699
angular_velocity_covariance: [1.0966208586777776e-06, 0.0, 0.0, 0.0, 1.0966208586777776e-06, 0.0, 0.0, 0.0, 1.0966208586777776e-06]
linear_acceleration: 
  x: -0.923848244826
  y: 1.01807076229
  z: -9.95285412218
linear_acceleration_covariance: [0.0015387262937311438, 0.0, 0.0, 0.0, 0.0015387262937311438, 0.0, 0.0, 0.0, 0.0015387262937311438]
---
header: 
  seq: 37
  stamp: 
    secs: 1559006721
    nsecs: 101743044
  frame_id: "imu_link"
orientation: 
  x: -0.5026331289
  y: 0.3723842449
  z: 0.0895293231
  w: -0.7749808598
orientation_covariance: [0.002741552146694444, 0.0, 0.0, 0.0, 0.002741552146694444, 0.0, 0.0, 0.0, 0.007615422629706791]
angular_velocity: 
  x: 0.002622801716
  y: -4.13831891728e-05
  z: -0.000664340423175
angular_velocity_covariance: [1.0966208586777776e-06, 0.0, 0.0, 0.0, 1.0966208586777776e-06, 0.0, 0.0, 0.0, 1.0966208586777776e-06]
linear_acceleration: 
  x: -0.919667232815
  y: 1.01461572647
  z: -9.95004374093
linear_acceleration_covariance: [0.0015387262937311438, 0.0, 0.0, 0.0, 0.0015387262937311438, 0.0, 0.0, 0.0, 0.0015387262937311438]
---
header: 
  seq: 38
  stamp: 
    secs: 1559006721
    nsecs: 152753237
  frame_id: "imu_link"
orientation: 
  x: -0.5029688219
  y: 0.3712093194
  z: 0.0892607687
  w: -0.7753836914
orientation_covariance: [0.002741552146694444, 0.0, 0.0, 0.0, 0.002741552146694444, 0.0, 0.0, 0.0, 0.007615422629706791]
angular_velocity: 
  x: -0.000574420570478
  y: 0.000610292232042
  z: 6.77304413082e-05
angular_velocity_covariance: [1.0966208586777776e-06, 0.0, 0.0, 0.0, 1.0966208586777776e-06, 0.0, 0.0, 0.0, 1.0966208586777776e-06]
linear_acceleration: 
  x: -0.921981501107
  y: 1.00693905436
  z: -9.95259108733
linear_acceleration_covariance: [0.0015387262937311438, 0.0, 0.0, 0.0, 0.0015387262937311438, 0.0, 0.0, 0.0, 0.0015387262937311438]
---
header: 
  seq: 39
  stamp: 
    secs: 1559006721
    nsecs: 206800500
  frame_id: "imu_link"
orientation: 
  x: -0.5032373763
  y: 0.3701015325
  z: 0.0889922143
  w: -0.7757529537
orientation_covariance: [0.002741552146694444, 0.0, 0.0, 0.0, 0.002741552146694444, 0.0, 0.0, 0.0, 0.007615422629706791]
angular_velocity: 
  x: 0.000845793759721
  y: 0.00133152176824
  z: -0.00150931546892
angular_velocity_covariance: [1.0966208586777776e-06, 0.0, 0.0, 0.0, 1.0966208586777776e-06, 0.0, 0.0, 0.0, 1.0966208586777776e-06]
linear_acceleration: 
  x: -0.919027692802
  y: 1.00913210742
  z: -9.95458898315
linear_acceleration_covariance: [0.0015387262937311438, 0.0, 0.0, 0.0, 0.0015387262937311438, 0.0, 0.0, 0.0, 0.0015387262937311438]
---
header: 
  seq: 40
  stamp: 
    secs: 1559006721
    nsecs: 254782842
  frame_id: "imu_link"
orientation: 
  x: -0.5033045149
  y: 0.3690944535
  z: 0.0887236599
  w: -0.7762229239
orientation_covariance: [0.002741552146694444, 0.0, 0.0, 0.0, 0.002741552146694444, 0.0, 0.0, 0.0, 0.007615422629706791]
angular_velocity: 
  x: 0.000176651698062
  y: 0.000550945286606
  z: 0.000842482428394
angular_velocity_covariance: [1.0966208586777776e-06, 0.0, 0.0, 0.0, 1.0966208586777776e-06, 0.0, 0.0, 0.0, 1.0966208586777776e-06]
linear_acceleration: 
  x: -0.927880276822
  y: 1.00559048929
  z: -9.95943233153
linear_acceleration_covariance: [0.0015387262937311438, 0.0, 0.0, 0.0, 0.0015387262937311438, 0.0, 0.0, 0.0, 0.0015387262937311438]
---
header: 
  seq: 41
  stamp: 
    secs: 1559006721
    nsecs: 309811025
  frame_id: "imu_link"
orientation: 
  x: -0.5027002675
  y: 0.371276458
  z: 0.0892607687
  w: -0.7755179686
orientation_covariance: [0.002741552146694444, 0.0, 0.0, 0.0, 0.002741552146694444, 0.0, 0.0, 0.0, 0.007615422629706791]
angular_velocity: 
  x: -0.00076750104988
  y: -0.000685731796498
  z: -9.53425974336e-06
angular_velocity_covariance: [1.0966208586777776e-06, 0.0, 0.0, 0.0, 1.0966208586777776e-06, 0.0, 0.0, 0.0, 1.0966208586777776e-06]
linear_acceleration: 
  x: -0.926172669186
  y: 1.01801048347
  z: -9.95893782601
linear_acceleration_covariance: [0.0015387262937311438, 0.0, 0.0, 0.0, 0.0015387262937311438, 0.0, 0.0, 0.0, 0.0015387262937311438]
---
header: 
  seq: 42
  stamp: 
    secs: 1559006721
    nsecs: 361811138
  frame_id: "imu_link"
orientation: 
  x: -0.5029352526
  y: 0.3703700869
  z: 0.0890257836
  w: -0.7758200923
orientation_covariance: [0.002741552146694444, 0.0, 0.0, 0.0, 0.002741552146694444, 0.0, 0.0, 0.0, 0.007615422629706791]
angular_velocity: 
  x: -0.00161279306121
  y: 0.000116042644436
  z: 0.00155768448203
angular_velocity_covariance: [1.0966208586777776e-06, 0.0, 0.0, 0.0, 1.0966208586777776e-06, 0.0, 0.0, 0.0, 1.0966208586777776e-06]
linear_acceleration: 
  x: -0.922087080373
  y: 1.00856059115
  z: -9.95327731603
linear_acceleration_covariance: [0.0015387262937311438, 0.0, 0.0, 0.0, 0.0015387262937311438, 0.0, 0.0, 0.0, 0.0015387262937311438]
---
header: 
  seq: 43
  stamp: 
    secs: 1559006721
    nsecs: 414789045
  frame_id: "imu_link"
orientation: 
  x: -0.5031702377
  y: 0.3695644237
  z: 0.0888243678
  w: -0.7760886467
orientation_covariance: [0.002741552146694444, 0.0, 0.0, 0.0, 0.002741552146694444, 0.0, 0.0, 0.0, 0.007615422629706791]
angular_velocity: 
  x: 0.000918085059452
  y: -0.000295388679997
  z: 0.00140518248933
angular_velocity_covariance: [1.0966208586777776e-06, 0.0, 0.0, 0.0, 1.0966208586777776e-06, 0.0, 0.0, 0.0, 1.0966208586777776e-06]
linear_acceleration: 
  x: -0.920528379689
  y: 1.01377350349
  z: -9.95182185652
linear_acceleration_covariance: [0.0015387262937311438, 0.0, 0.0, 0.0, 0.0015387262937311438, 0.0, 0.0, 0.0, 0.0015387262937311438]
---
header: 
  seq: 44
  stamp: 
    secs: 1559006721
    nsecs: 466772102
  frame_id: "imu_link"
orientation: 
  x: -0.5026666982
  y: 0.3721492598
  z: 0.0894957538
  w: -0.7750815677
orientation_covariance: [0.002741552146694444, 0.0, 0.0, 0.0, 0.002741552146694444, 0.0, 0.0, 0.0, 0.007615422629706791]
angular_velocity: 
  x: -0.0029679055213
  y: 0.000704283938412
  z: 0.00159911861326
angular_velocity_covariance: [1.0966208586777776e-06, 0.0, 0.0, 0.0, 1.0966208586777776e-06, 0.0, 0.0, 0.0, 1.0966208586777776e-06]
linear_acceleration: 
  x: -0.920691461296
  y: 1.01470815399
  z: -9.95529976177
linear_acceleration_covariance: [0.0015387262937311438, 0.0, 0.0, 0.0, 0.0015387262937311438, 0.0, 0.0, 0.0, 0.0015387262937311438]
---
header: 
  seq: 45
  stamp: 
    secs: 1559006721
    nsecs: 518771641
  frame_id: "imu_link"
orientation: 
  x: -0.5029352526
  y: 0.371276458
  z: 0.089294338
  w: -0.7753501221
orientation_covariance: [0.002741552146694444, 0.0, 0.0, 0.0, 0.002741552146694444, 0.0, 0.0, 0.0, 0.007615422629706791]
angular_velocity: 
  x: 0.000692897104231
  y: 0.000127387492867
  z: -0.000316134353789
angular_velocity_covariance: [1.0966208586777776e-06, 0.0, 0.0, 0.0, 1.0966208586777776e-06, 0.0, 0.0, 0.0, 1.0966208586777776e-06]
linear_acceleration: 
  x: -0.921155498611
  y: 1.01523780389
  z: -9.95692356358
linear_acceleration_covariance: [0.0015387262937311438, 0.0, 0.0, 0.0, 0.0015387262937311438, 0.0, 0.0, 0.0, 0.0015387262937311438]
---
header: 
  seq: 46
  stamp: 
    secs: 1559006721
    nsecs: 571781498
  frame_id: "imu_link"
orientation: 
  x: -0.5031366684
  y: 0.3704372255
  z: 0.0890593529
  w: -0.7756522458
orientation_covariance: [0.002741552146694444, 0.0, 0.0, 0.0, 0.002741552146694444, 0.0, 0.0, 0.0, 0.007615422629706791]
angular_velocity: 
  x: 0.000169022872862
  y: -7.50786788204e-05
  z: -0.00167216998021
angular_velocity_covariance: [1.0966208586777776e-06, 0.0, 0.0, 0.0, 1.0966208586777776e-06, 0.0, 0.0, 0.0, 1.0966208586777776e-06]
linear_acceleration: 
  x: -0.923314503276
  y: 1.01758495154
  z: -9.95214568165
linear_acceleration_covariance: [0.0015387262937311438, 0.0, 0.0, 0.0, 0.0015387262937311438, 0.0, 0.0, 0.0, 0.0015387262937311438]
---
header: 
  seq: 47
  stamp: 
    secs: 1559006721
    nsecs: 619804043
  frame_id: "imu_link"
orientation: 
  x: -0.5033045149
  y: 0.369597993
  z: 0.0888579371
  w: -0.7759879388
orientation_covariance: [0.002741552146694444, 0.0, 0.0, 0.0, 0.002741552146694444, 0.0, 0.0, 0.0, 0.007615422629706791]
angular_velocity: 
  x: -0.0012706684073
  y: 0.000299917061638
  z: 0.000163299059585
angular_velocity_covariance: [1.0966208586777776e-06, 0.0, 0.0, 0.0, 1.0966208586777776e-06, 0.0, 0.0, 0.0, 1.0966208586777776e-06]
linear_acceleration: 
  x: -0.92682799129
  y: 1.01621395544
  z: -9.95141035311
linear_acceleration_covariance: [0.0015387262937311438, 0.0, 0.0, 0.0, 0.0015387262937311438, 0.0, 0.0, 0.0, 0.0015387262937311438]
---
header: 
  seq: 48
  stamp: 
    secs: 1559006721
    nsecs: 674755831
  frame_id: "imu_link"
orientation: 
  x: -0.5028345447
  y: 0.3722163984
  z: 0.0895964617
  w: -0.7749472905
orientation_covariance: [0.002741552146694444, 0.0, 0.0, 0.0, 0.002741552146694444, 0.0, 0.0, 0.0, 0.007615422629706791]
angular_velocity: 
  x: -0.000389972640624
  y: 0.00177751321567
  z: 0.00268768193776
angular_velocity_covariance: [1.0966208586777776e-06, 0.0, 0.0, 0.0, 1.0966208586777776e-06, 0.0, 0.0, 0.0, 1.0966208586777776e-06]
linear_acceleration: 
  x: -0.924529505089
  y: 1.00549017072
  z: -9.95911552066
linear_acceleration_covariance: [0.0015387262937311438, 0.0, 0.0, 0.0, 0.0015387262937311438, 0.0, 0.0, 0.0, 0.0015387262937311438]
---
header: 
  seq: 49
  stamp: 
    secs: 1559006721
    nsecs: 726810395
  frame_id: "imu_link"
orientation: 
  x: -0.5029016833
  y: 0.3714107352
  z: 0.0893614766
  w: -0.7753165528
orientation_covariance: [0.002741552146694444, 0.0, 0.0, 0.0, 0.002741552146694444, 0.0, 0.0, 0.0, 0.007615422629706791]
angular_velocity: 
  x: -0.00144363720909
  y: 0.000284136531808
  z: 3.27199020899e-05
angular_velocity_covariance: [1.0966208586777776e-06, 0.0, 0.0, 0.0, 1.0966208586777776e-06, 0.0, 0.0, 0.0, 1.0966208586777776e-06]
linear_acceleration: 
  x: -0.9248745922
  y: 1.00743034501
  z: -9.95349358913
linear_acceleration_covariance: [0.0015387262937311438, 0.0, 0.0, 0.0, 0.0015387262937311438, 0.0, 0.0, 0.0, 0.0015387262937311438]
---
header: 
  seq: 50
  stamp: 
    secs: 1559006721
    nsecs: 776784348
  frame_id: "imu_link"
orientation: 
  x: -0.5029016833
  y: 0.3705379334
  z: 0.0891264915
  w: -0.7757529537
orientation_covariance: [0.002741552146694444, 0.0, 0.0, 0.0, 0.002741552146694444, 0.0, 0.0, 0.0, 0.007615422629706791]
angular_velocity: 
  x: -0.000244187652539
  y: 0.000362546080039
  z: -0.00136969079636
angular_velocity_covariance: [1.0966208586777776e-06, 0.0, 0.0, 0.0, 1.0966208586777776e-06, 0.0, 0.0, 0.0, 1.0966208586777776e-06]
linear_acceleration: 
  x: -0.925011735648
  y: 1.0128566809
  z: -9.96110289509
linear_acceleration_covariance: [0.0015387262937311438, 0.0, 0.0, 0.0, 0.0015387262937311438, 0.0, 0.0, 0.0, 0.0015387262937311438]
---
header: 
  seq: 51
  stamp: 
    secs: 1559006721
    nsecs: 828775280
  frame_id: "imu_link"
orientation: 
  x: -0.5019281736
  y: 0.3735256011
  z: 0.0898314468
  w: -0.7748801519
orientation_covariance: [0.002741552146694444, 0.0, 0.0, 0.0, 0.002741552146694444, 0.0, 0.0, 0.0, 0.007615422629706791]
angular_velocity: 
  x: -0.00143392655394
  y: 0.000430153961322
  z: 0.00191981938456
angular_velocity_covariance: [1.0966208586777776e-06, 0.0, 0.0, 0.0, 1.0966208586777776e-06, 0.0, 0.0, 0.0, 1.0966208586777776e-06]
linear_acceleration: 
  x: -0.927357641187
  y: 1.01161311058
  z: -9.95418800113
linear_acceleration_covariance: [0.0015387262937311438, 0.0, 0.0, 0.0, 0.0015387262937311438, 0.0, 0.0, 0.0, 0.0015387262937311438]
---
header: 
  seq: 52
  stamp: 
    secs: 1559006721
    nsecs: 879779111
  frame_id: "imu_link"
orientation: 
  x: -0.5020960201
  y: 0.3726863686
  z: 0.0895964617
  w: -0.7751822756
orientation_covariance: [0.002741552146694444, 0.0, 0.0, 0.0, 0.002741552146694444, 0.0, 0.0, 0.0, 0.007615422629706791]
angular_velocity: 
  x: 2.13589940688e-05
  y: 0.000435763016803
  z: 0.000178547396073
angular_velocity_covariance: [1.0966208586777776e-06, 0.0, 0.0, 0.0, 1.0966208586777776e-06, 0.0, 0.0, 0.0, 1.0966208586777776e-06]
linear_acceleration: 
  x: -0.927505890551
  y: 1.01562300381
  z: -9.94154829979
linear_acceleration_covariance: [0.0015387262937311438, 0.0, 0.0, 0.0, 0.0015387262937311438, 0.0, 0.0, 0.0, 0.0015387262937311438]
---
header: 
  seq: 53
  stamp: 
    secs: 1559006721
    nsecs: 931778920
  frame_id: "imu_link"
orientation: 
  x: -0.5023310052
  y: 0.3718135668
  z: 0.0893614766
  w: -0.7754843993
orientation_covariance: [0.002741552146694444, 0.0, 0.0, 0.0, 0.002741552146694444, 0.0, 0.0, 0.0, 0.007615422629706791]
angular_velocity: 
  x: 0.00110524839283
  y: -0.000267765925843
  z: 0.000676878281301
angular_velocity_covariance: [1.0966208586777776e-06, 0.0, 0.0, 0.0, 1.0966208586777776e-06, 0.0, 0.0, 0.0, 1.0966208586777776e-06]
linear_acceleration: 
  x: -0.924819354881
  y: 1.00723920635
  z: -9.94446389498
linear_acceleration_covariance: [0.0015387262937311438, 0.0, 0.0, 0.0, 0.0015387262937311438, 0.0, 0.0, 0.0, 0.0015387262937311438]
---
header: 
  seq: 54
  stamp: 
    secs: 1559006721
    nsecs: 984754139
  frame_id: "imu_link"
orientation: 
  x: -0.5025995596
  y: 0.370940765
  z: 0.0891600608
  w: -0.7757529537
orientation_covariance: [0.002741552146694444, 0.0, 0.0, 0.0, 0.002741552146694444, 0.0, 0.0, 0.0, 0.007615422629706791]
angular_velocity: 
  x: -0.000515489613926
  y: -0.00022770908322
  z: 0.000518281186714
angular_velocity_covariance: [1.0966208586777776e-06, 0.0, 0.0, 0.0, 1.0966208586777776e-06, 0.0, 0.0, 0.0, 1.0966208586777776e-06]
linear_acceleration: 
  x: -0.923247502454
  y: 1.00695308288
  z: -9.95167221892
linear_acceleration_covariance: [0.0015387262937311438, 0.0, 0.0, 0.0, 0.0015387262937311438, 0.0, 0.0, 0.0, 0.0015387262937311438]
---
header: 
  seq: 55
  stamp: 
    secs: 1559006722
    nsecs:  36797869
  frame_id: "imu_link"
orientation: 
  x: -0.5021295894
  y: 0.3734920318
  z: 0.0898314468
  w: -0.7747458747
orientation_covariance: [0.002741552146694444, 0.0, 0.0, 0.0, 0.002741552146694444, 0.0, 0.0, 0.0, 0.007615422629706791]
angular_velocity: 
  x: 0.000776857093692
  y: 0.000593028953465
  z: -0.00227546777335
angular_velocity_covariance: [1.0966208586777776e-06, 0.0, 0.0, 0.0, 1.0966208586777776e-06, 0.0, 0.0, 0.0, 1.0966208586777776e-06]
linear_acceleration: 
  x: -0.926544205912
  y: 0.998311145941
  z: -9.95877299083
linear_acceleration_covariance: [0.0015387262937311438, 0.0, 0.0, 0.0, 0.0015387262937311438, 0.0, 0.0, 0.0, 0.0015387262937311438]
---
header: 
  seq: 56
  stamp: 
    secs: 1559006722
    nsecs:  87753918
  frame_id: "imu_link"
orientation: 
  x: -0.5023310052
  y: 0.3725856607
  z: 0.0895964617
  w: -0.7750815677
orientation_covariance: [0.002741552146694444, 0.0, 0.0, 0.0, 0.002741552146694444, 0.0, 0.0, 0.0, 0.007615422629706791]
angular_velocity: 
  x: -0.00159692293577
  y: 0.000635655590496
  z: 0.000397733323507
angular_velocity_covariance: [1.0966208586777776e-06, 0.0, 0.0, 0.0, 1.0966208586777776e-06, 0.0, 0.0, 0.0, 1.0966208586777776e-06]
linear_acceleration: 
  x: -0.922311171452
  y: 1.00647837804
  z: -9.96325159755
linear_acceleration_covariance: [0.0015387262937311438, 0.0, 0.0, 0.0, 0.0015387262937311438, 0.0, 0.0, 0.0, 0.0015387262937311438]
---
header: 
  seq: 57
  stamp: 
    secs: 1559006722
    nsecs: 141784519
  frame_id: "imu_link"
orientation: 
  x: -0.5024317131
  y: 0.3716792896
  z: 0.0893279073
  w: -0.7754843993
orientation_covariance: [0.002741552146694444, 0.0, 0.0, 0.0, 0.002741552146694444, 0.0, 0.0, 0.0, 0.007615422629706791]
angular_velocity: 
  x: 0.000710806797544
  y: 0.00067568766104
  z: -0.00162024588111
angular_velocity_covariance: [1.0966208586777776e-06, 0.0, 0.0, 0.0, 1.0966208586777776e-06, 0.0, 0.0, 0.0, 1.0966208586777776e-06]
linear_acceleration: 
  x: -0.925102263476
  y: 1.01351923647
  z: -9.96690252128
linear_acceleration_covariance: [0.0015387262937311438, 0.0, 0.0, 0.0, 0.0015387262937311438, 0.0, 0.0, 0.0, 0.0015387262937311438]
---
header: 
  seq: 58
  stamp: 
    secs: 1559006722
    nsecs: 189785503
  frame_id: "imu_link"
orientation: 
  x: -0.5026666982
  y: 0.3707393492
  z: 0.0890929222
  w: -0.7758200923
orientation_covariance: [0.002741552146694444, 0.0, 0.0, 0.0, 0.002741552146694444, 0.0, 0.0, 0.0, 0.007615422629706791]
angular_velocity: 
  x: 0.000834846061039
  y: 0.000563644130739
  z: -0.000265014420756
angular_velocity_covariance: [1.0966208586777776e-06, 0.0, 0.0, 0.0, 1.0966208586777776e-06, 0.0, 0.0, 0.0, 1.0966208586777776e-06]
linear_acceleration: 
  x: -0.924791370896
  y: 1.00968221559
  z: -9.96487773745
linear_acceleration_covariance: [0.0015387262937311438, 0.0, 0.0, 0.0, 0.0015387262937311438, 0.0, 0.0, 0.0, 0.0015387262937311438]
---
header: 
  seq: 59
  stamp: 
    secs: 1559006722
    nsecs: 244781829
  frame_id: "imu_link"
orientation: 
  x: -0.5022638666
  y: 0.3729884923
  z: 0.0896971696
  w: -0.7749137212
orientation_covariance: [0.002741552146694444, 0.0, 0.0, 0.0, 0.002741552146694444, 0.0, 0.0, 0.0, 0.007615422629706791]
angular_velocity: 
  x: -0.000749929908321
  y: -0.00143705355759
  z: 0.00107136812037
angular_velocity_covariance: [1.0966208586777776e-06, 0.0, 0.0, 0.0, 1.0966208586777776e-06, 0.0, 0.0, 0.0, 1.0966208586777776e-06]
linear_acceleration: 
  x: -0.926548662892
  y: 1.01207773242
  z: -9.96078608422
linear_acceleration_covariance: [0.0015387262937311438, 0.0, 0.0, 0.0, 0.0015387262937311438, 0.0, 0.0, 0.0, 0.0015387262937311438]
---
header: 
  seq: 60
  stamp: 
    secs: 1559006722
    nsecs: 296795920
  frame_id: "imu_link"
orientation: 
  x: -0.5024317131
  y: 0.3720149826
  z: 0.0894621845
  w: -0.7752829835
orientation_covariance: [0.002741552146694444, 0.0, 0.0, 0.0, 0.002741552146694444, 0.0, 0.0, 0.0, 0.007615422629706791]
angular_velocity: 
  x: 0.00141281606089
  y: 0.00142992531045
  z: -0.000594340053157
angular_velocity_covariance: [1.0966208586777776e-06, 0.0, 0.0, 0.0, 1.0966208586777776e-06, 0.0, 0.0, 0.0, 1.0966208586777776e-06]
linear_acceleration: 
  x: -0.92321367325
  y: 1.01688491351
  z: -9.96102924533
linear_acceleration_covariance: [0.0015387262937311438, 0.0, 0.0, 0.0, 0.0015387262937311438, 0.0, 0.0, 0.0, 0.0015387262937311438]
---
header: 
  seq: 61
  stamp: 
    secs: 1559006722
    nsecs: 346755204
  frame_id: "imu_link"
orientation: 
  x: -0.5027338368
  y: 0.3710079036
  z: 0.0891936301
  w: -0.7756186765
orientation_covariance: [0.002741552146694444, 0.0, 0.0, 0.0, 0.002741552146694444, 0.0, 0.0, 0.0, 0.007615422629706791]
angular_velocity: 
  x: 0.00178912436396
  y: -0.000492545011715
  z: 0.00100722820018
angular_velocity_covariance: [1.0966208586777776e-06, 0.0, 0.0, 0.0, 1.0966208586777776e-06, 0.0, 0.0, 0.0, 1.0966208586777776e-06]
linear_acceleration: 
  x: -0.930579671973
  y: 1.00972510488
  z: -9.95104093528
linear_acceleration_covariance: [0.0015387262937311438, 0.0, 0.0, 0.0, 0.0015387262937311438, 0.0, 0.0, 0.0, 0.0015387262937311438]
---
header: 
  seq: 62
  stamp: 
    secs: 1559006722
    nsecs: 397798268
  frame_id: "imu_link"
orientation: 
  x: -0.5021295894
  y: 0.3734584625
  z: 0.0898314468
  w: -0.7747458747
orientation_covariance: [0.002741552146694444, 0.0, 0.0, 0.0, 0.002741552146694444, 0.0, 0.0, 0.0, 0.007615422629706791]
angular_velocity: 
  x: -0.000624786174185
  y: 0.000226761925036
  z: -0.000894110822987
angular_velocity_covariance: [1.0966208586777776e-06, 0.0, 0.0, 0.0, 1.0966208586777776e-06, 0.0, 0.0, 0.0, 1.0966208586777776e-06]
linear_acceleration: 
  x: -0.937047918139
  y: 1.00878607046
  z: -9.95678561641
linear_acceleration_covariance: [0.0015387262937311438, 0.0, 0.0, 0.0, 0.0015387262937311438, 0.0, 0.0, 0.0, 0.0015387262937311438]
---
header: 
  seq: 63
  stamp: 
    secs: 1559006722
    nsecs: 449789528
  frame_id: "imu_link"
orientation: 
  x: -0.5023310052
  y: 0.3724849528
  z: 0.0895628924
  w: -0.775115137
orientation_covariance: [0.002741552146694444, 0.0, 0.0, 0.0, 0.002741552146694444, 0.0, 0.0, 0.0, 0.007615422629706791]
angular_velocity: 
  x: -0.00249003325283
  y: 0.00199194605725
  z: -0.000781473803076
angular_velocity_covariance: [1.0966208586777776e-06, 0.0, 0.0, 0.0, 1.0966208586777776e-06, 0.0, 0.0, 0.0, 1.0966208586777776e-06]
linear_acceleration: 
  x: -0.927777400969
  y: 1.0078101381
  z: -9.94701942468
linear_acceleration_covariance: [0.0015387262937311438, 0.0, 0.0, 0.0, 0.0015387262937311438, 0.0, 0.0, 0.0, 0.0015387262937311438]
---
header: 
  seq: 64
  stamp: 
    secs: 1559006722
    nsecs: 503777399
  frame_id: "imu_link"
orientation: 
  x: -0.5026666982
  y: 0.3715450124
  z: 0.0893614766
  w: -0.7754172607
orientation_covariance: [0.002741552146694444, 0.0, 0.0, 0.0, 0.002741552146694444, 0.0, 0.0, 0.0, 0.007615422629706791]
angular_velocity: 
  x: 0.00211710487569
  y: -0.0013191322175
  z: -0.00145827068111
angular_velocity_covariance: [1.0966208586777776e-06, 0.0, 0.0, 0.0, 1.0966208586777776e-06, 0.0, 0.0, 0.0, 1.0966208586777776e-06]
linear_acceleration: 
  x: -0.91678751266
  y: 1.01432938381
  z: -9.94575802644
linear_acceleration_covariance: [0.0015387262937311438, 0.0, 0.0, 0.0, 0.0015387262937311438, 0.0, 0.0, 0.0, 0.0015387262937311438]
---
header: 
  seq: 65
  stamp: 
    secs: 1559006722
    nsecs: 554781892
  frame_id: "imu_link"
orientation: 
  x: -0.5031366684
  y: 0.3705715027
  z: 0.0891600608
  w: -0.7755851072
orientation_covariance: [0.002741552146694444, 0.0, 0.0, 0.0, 0.002741552146694444, 0.0, 0.0, 0.0, 0.007615422629706791]
angular_velocity: 
  x: -0.00075949459676
  y: -0.000448043303818
  z: -0.000200538647081
angular_velocity_covariance: [1.0966208586777776e-06, 0.0, 0.0, 0.0, 1.0966208586777776e-06, 0.0, 0.0, 0.0, 1.0966208586777776e-06]
linear_acceleration: 
  x: -0.922732611735
  y: 1.01376327436
  z: -9.95376948346
linear_acceleration_covariance: [0.0015387262937311438, 0.0, 0.0, 0.0, 0.0015387262937311438, 0.0, 0.0, 0.0, 0.0015387262937311438]
---
header: 
  seq: 66
  stamp: 
    secs: 1559006722
    nsecs: 603783727
  frame_id: "imu_link"
orientation: 
  x: -0.5029352526
  y: 0.3731899081
  z: 0.0899321547
  w: -0.7743430431
orientation_covariance: [0.002741552146694444, 0.0, 0.0, 0.0, 0.002741552146694444, 0.0, 0.0, 0.0, 0.007615422629706791]
angular_velocity: 
  x: 0.000168295526248
  y: 0.000944241774635
  z: -0.000441293009689
angular_velocity_covariance: [1.0966208586777776e-06, 0.0, 0.0, 0.0, 1.0966208586777776e-06, 0.0, 0.0, 0.0, 1.0966208586777776e-06]
linear_acceleration: 
  x: -0.926975656132
  y: 1.01109442047
  z: -9.94466380146
linear_acceleration_covariance: [0.0015387262937311438, 0.0, 0.0, 0.0, 0.0015387262937311438, 0.0, 0.0, 0.0, 0.0015387262937311438]
---
header: 
  seq: 67
  stamp: 
    secs: 1559006722
    nsecs: 654820434
  frame_id: "imu_link"
orientation: 
  x: -0.5034723614
  y: 0.3721156905
  z: 0.0897307389
  w: -0.7745444589
orientation_covariance: [0.002741552146694444, 0.0, 0.0, 0.0, 0.002741552146694444, 0.0, 0.0, 0.0, 0.007615422629706791]
angular_velocity: 
  x: -0.000832423143606
  y: -0.000153902736762
  z: -0.000842369556137
angular_velocity_covariance: [1.0966208586777776e-06, 0.0, 0.0, 0.0, 1.0966208586777776e-06, 0.0, 0.0, 0.0, 1.0966208586777776e-06]
linear_acceleration: 
  x: -0.924713483354
  y: 1.01583591591
  z: -9.93557565512
linear_acceleration_covariance: [0.0015387262937311438, 0.0, 0.0, 0.0, 0.0015387262937311438, 0.0, 0.0, 0.0, 0.0015387262937311438]
---
header: 
  seq: 68
  stamp: 
    secs: 1559006722
    nsecs: 708827225
  frame_id: "imu_link"
orientation: 
  x: -0.5038416237
  y: 0.3710750422
  z: 0.0894957538
  w: -0.7748130133
orientation_covariance: [0.002741552146694444, 0.0, 0.0, 0.0, 0.002741552146694444, 0.0, 0.0, 0.0, 0.007615422629706791]
angular_velocity: 
  x: 0.000212386284202
  y: 0.00143268274848
  z: -0.000176212286235
angular_velocity_covariance: [1.0966208586777776e-06, 0.0, 0.0, 0.0, 1.0966208586777776e-06, 0.0, 0.0, 0.0, 1.0966208586777776e-06]
linear_acceleration: 
  x: -0.931836540167
  y: 1.01190076842
  z: -9.94436101912
linear_acceleration_covariance: [0.0015387262937311438, 0.0, 0.0, 0.0, 0.0015387262937311438, 0.0, 0.0, 0.0, 0.0015387262937311438]
---
header: 
  seq: 69
  stamp: 
    secs: 1559006722
    nsecs: 759777854
  frame_id: "imu_link"
orientation: 
  x: -0.504210886
  y: 0.3700679632
  z: 0.0892607687
  w: -0.7750815677
orientation_covariance: [0.002741552146694444, 0.0, 0.0, 0.0, 0.002741552146694444, 0.0, 0.0, 0.0, 0.007615422629706791]
angular_velocity: 
  x: 0.000711296127386
  y: -3.32821990356e-05
  z: -8.48464365439e-05
angular_velocity_covariance: [1.0966208586777776e-06, 0.0, 0.0, 0.0, 1.0966208586777776e-06, 0.0, 0.0, 0.0, 1.0966208586777776e-06]
linear_acceleration: 
  x: -0.930994171058
  y: 1.0092254848
  z: -9.95272552736
linear_acceleration_covariance: [0.0015387262937311438, 0.0, 0.0, 0.0, 0.0015387262937311438, 0.0, 0.0, 0.0, 0.0015387262937311438]
---
header: 
  seq: 70
  stamp: 
    secs: 1559006722
    nsecs: 811842971
  frame_id: "imu_link"
orientation: 
  x: -0.5038080544
  y: 0.3724178142
  z: 0.0899321547
  w: -0.7741751966
orientation_covariance: [0.002741552146694444, 0.0, 0.0, 0.0, 0.002741552146694444, 0.0, 0.0, 0.0, 0.007615422629706791]
angular_velocity: 
  x: -0.000142123694245
  y: 0.00154656734493
  z: -0.00182896983117
angular_velocity_covariance: [1.0966208586777776e-06, 0.0, 0.0, 0.0, 1.0966208586777776e-06, 0.0, 0.0, 0.0, 1.0966208586777776e-06]
linear_acceleration: 
  x: -0.919697262627
  y: 1.00698238204
  z: -9.96848891369
linear_acceleration_covariance: [0.0015387262937311438, 0.0, 0.0, 0.0, 0.0015387262937311438, 0.0, 0.0, 0.0, 0.0015387262937311438]
---
header: 
  seq: 71
  stamp: 
    secs: 1559006722
    nsecs: 862789606
  frame_id: "imu_link"
orientation: 
  x: -0.5042780246
  y: 0.3712428887
  z: 0.0896636003
  w: -0.7744773203
orientation_covariance: [0.002741552146694444, 0.0, 0.0, 0.0, 0.002741552146694444, 0.0, 0.0, 0.0, 0.007615422629706791]
angular_velocity: 
  x: 0.00120133948417
  y: -0.00264978442724
  z: 0.0020764655316
angular_velocity_covariance: [1.0966208586777776e-06, 0.0, 0.0, 0.0, 1.0966208586777776e-06, 0.0, 0.0, 0.0, 1.0966208586777776e-06]
linear_acceleration: 
  x: -0.917475275728
  y: 1.00620321436
  z: -9.95701007282
linear_acceleration_covariance: [0.0015387262937311438, 0.0, 0.0, 0.0, 0.0015387262937311438, 0.0, 0.0, 0.0, 0.0015387262937311438]
---
header: 
  seq: 72
  stamp: 
    secs: 1559006722
    nsecs: 914439976
  frame_id: "imu_link"
orientation: 
  x: -0.5047479948
  y: 0.3701351018
  z: 0.0893950459
  w: -0.7747123054
orientation_covariance: [0.002741552146694444, 0.0, 0.0, 0.0, 0.002741552146694444, 0.0, 0.0, 0.0, 0.007615422629706791]
angular_velocity: 
  x: 0.0012286899405
  y: 0.000337220009742
  z: 0.000602281877807
angular_velocity_covariance: [1.0966208586777776e-06, 0.0, 0.0, 0.0, 1.0966208586777776e-06, 0.0, 0.0, 0.0, 1.0966208586777776e-06]
linear_acceleration: 
  x: -0.923972236532
  y: 1.00450846621
  z: -9.95151907418
linear_acceleration_covariance: [0.0015387262937311438, 0.0, 0.0, 0.0, 0.0015387262937311438, 0.0, 0.0, 0.0, 0.0015387262937311438]
---
header: 
  seq: 73
  stamp: 
    secs: 1559006722
    nsecs: 968765158
  frame_id: "imu_link"
orientation: 
  x: -0.5043115939
  y: 0.3725185221
  z: 0.0901000012
  w: -0.773772365
orientation_covariance: [0.002741552146694444, 0.0, 0.0, 0.0, 0.002741552146694444, 0.0, 0.0, 0.0, 0.007615422629706791]
angular_velocity: 
  x: -0.00232857234981
  y: 0.000478346318949
  z: -0.000150311029058
angular_velocity_covariance: [1.0966208586777776e-06, 0.0, 0.0, 0.0, 1.0966208586777776e-06, 0.0, 0.0, 0.0, 1.0966208586777776e-06]
linear_acceleration: 
  x: -0.925661723989
  y: 1.00777389775
  z: -9.94644191705
linear_acceleration_covariance: [0.0015387262937311438, 0.0, 0.0, 0.0, 0.0015387262937311438, 0.0, 0.0, 0.0, 0.0015387262937311438]
---
header: 
  seq: 74
  stamp: 
    secs: 1559006723
    nsecs:  19918862
  frame_id: "imu_link"
orientation: 
  x: -0.5046137176
  y: 0.3714778738
  z: 0.0898650161
  w: -0.774108058
orientation_covariance: [0.002741552146694444, 0.0, 0.0, 0.0, 0.002741552146694444, 0.0, 0.0, 0.0, 0.007615422629706791]
angular_velocity: 
  x: -0.00143480040367
  y: 0.000519887600802
  z: -0.00188524081255
angular_velocity_covariance: [1.0966208586777776e-06, 0.0, 0.0, 0.0, 1.0966208586777776e-06, 0.0, 0.0, 0.0, 1.0966208586777776e-06]
linear_acceleration: 
  x: -0.929099808679
  y: 1.01219755941
  z: -9.94498879563
linear_acceleration_covariance: [0.0015387262937311438, 0.0, 0.0, 0.0, 0.0015387262937311438, 0.0, 0.0, 0.0, 0.0015387262937311438]
---
header: 
  seq: 75
  stamp: 
    secs: 1559006723
    nsecs:  73799000
  frame_id: "imu_link"
orientation: 
  x: -0.5047479948
  y: 0.3705379334
  z: 0.0895964617
  w: -0.7744773203
orientation_covariance: [0.002741552146694444, 0.0, 0.0, 0.0, 0.002741552146694444, 0.0, 0.0, 0.0, 0.007615422629706791]
angular_velocity: 
  x: -0.00061080743928
  y: 0.000739665294854
  z: 0.00136332001569
angular_velocity_covariance: [1.0966208586777776e-06, 0.0, 0.0, 0.0, 1.0966208586777776e-06, 0.0, 0.0, 0.0, 1.0966208586777776e-06]
linear_acceleration: 
  x: -0.927817440718
  y: 1.01181235948
  z: -9.94282021942
linear_acceleration_covariance: [0.0015387262937311438, 0.0, 0.0, 0.0, 0.0015387262937311438, 0.0, 0.0, 0.0, 0.0015387262937311438]
---
header: 
  seq: 76
  stamp: 
    secs: 1559006723
    nsecs: 126258887
  frame_id: "imu_link"
orientation: 
  x: -0.5047144255
  y: 0.3695644237
  z: 0.0893279073
  w: -0.7750144291
orientation_covariance: [0.002741552146694444, 0.0, 0.0, 0.0, 0.002741552146694444, 0.0, 0.0, 0.0, 0.007615422629706791]
angular_velocity: 
  x: -0.000484600261229
  y: -0.000953068112065
  z: -0.000657499493144
angular_velocity_covariance: [1.0966208586777776e-06, 0.0, 0.0, 0.0, 1.0966208586777776e-06, 0.0, 0.0, 0.0, 1.0966208586777776e-06]
linear_acceleration: 
  x: -0.929704496574
  y: 1.01263353967
  z: -9.94651205968
linear_acceleration_covariance: [0.0015387262937311438, 0.0, 0.0, 0.0, 0.0015387262937311438, 0.0, 0.0, 0.0, 0.0015387262937311438]
---
header: 
  seq: 77
  stamp: 
    secs: 1559006723
    nsecs: 173769694
  frame_id: "imu_link"
orientation: 
  x: -0.5039759009
  y: 0.3721156905
  z: 0.089965724
  w: -0.7742087659
orientation_covariance: [0.002741552146694444, 0.0, 0.0, 0.0, 0.002741552146694444, 0.0, 0.0, 0.0, 0.007615422629706791]
angular_velocity: 
  x: -0.000189009666027
  y: -0.000322336736333
  z: 0.0012688891088
angular_velocity_covariance: [1.0966208586777776e-06, 0.0, 0.0, 0.0, 1.0966208586777776e-06, 0.0, 0.0, 0.0, 1.0966208586777776e-06]
linear_acceleration: 
  x: -0.925243717773
  y: 1.01514486491
  z: -9.94670962808
linear_acceleration_covariance: [0.0015387262937311438, 0.0, 0.0, 0.0, 0.0015387262937311438, 0.0, 0.0, 0.0, 0.0015387262937311438]
---
header: 
  seq: 78
  stamp: 
    secs: 1559006723
    nsecs: 224774672
  frame_id: "imu_link"
orientation: 
  x: -0.5041437474
  y: 0.3711757501
  z: 0.0897307389
  w: -0.7745444589
orientation_covariance: [0.002741552146694444, 0.0, 0.0, 0.0, 0.002741552146694444, 0.0, 0.0, 0.0, 0.007615422629706791]
angular_velocity: 
  x: -0.00216451278414
  y: -0.000284201712936
  z: 0.000202507100884
angular_velocity_covariance: [1.0966208586777776e-06, 0.0, 0.0, 0.0, 1.0966208586777776e-06, 0.0, 0.0, 0.0, 1.0966208586777776e-06]
linear_acceleration: 
  x: -0.931224326552
  y: 1.01789357909
  z: -9.94825861108
linear_acceleration_covariance: [0.0015387262937311438, 0.0, 0.0, 0.0, 0.0015387262937311438, 0.0, 0.0, 0.0, 0.0015387262937311438]
---
header: 
  seq: 79
  stamp: 
    secs: 1559006723
    nsecs: 278804556
  frame_id: "imu_link"
orientation: 
  x: -0.5043451632
  y: 0.3703029483
  z: 0.0894957538
  w: -0.7748801519
orientation_covariance: [0.002741552146694444, 0.0, 0.0, 0.0, 0.002741552146694444, 0.0, 0.0, 0.0, 0.007615422629706791]
angular_velocity: 
  x: -0.00179552297258
  y: 0.00126867610793
  z: -0.000609580798725
angular_velocity_covariance: [1.0966208586777776e-06, 0.0, 0.0, 0.0, 1.0966208586777776e-06, 0.0, 0.0, 0.0, 1.0966208586777776e-06]
linear_acceleration: 
  x: -0.930873028897
  y: 1.01803116093
  z: -9.94714801949
linear_acceleration_covariance: [0.0015387262937311438, 0.0, 0.0, 0.0, 0.0015387262937311438, 0.0, 0.0, 0.0, 0.0015387262937311438]
---
header: 
  seq: 80
  stamp: 
    secs: 1559006723
    nsecs: 327275204
  frame_id: "imu_link"
orientation: 
  x: -0.5046137176
  y: 0.3693965772
  z: 0.089294338
  w: -0.7751487063
orientation_covariance: [0.002741552146694444, 0.0, 0.0, 0.0, 0.002741552146694444, 0.0, 0.0, 0.0, 0.007615422629706791]
angular_velocity: 
  x: -0.000312841195155
  y: -0.0013868447787
  z: -0.00111074363328
angular_velocity_covariance: [1.0966208586777776e-06, 0.0, 0.0, 0.0, 1.0966208586777776e-06, 0.0, 0.0, 0.0, 1.0966208586777776e-06]
linear_acceleration: 
  x: -0.934262159878
  y: 1.0086582063
  z: -9.95408161815
linear_acceleration_covariance: [0.0015387262937311438, 0.0, 0.0, 0.0, 0.0015387262937311438, 0.0, 0.0, 0.0, 0.0015387262937311438]
---
header: 
  seq: 81
  stamp: 
