
header: 
  seq: 0
  stamp: 
    secs: 1559011311
    nsecs: 316524219
  frame_id: "imu_link"
orientation: 
  x: 0.3623134549
  y: 0.0122527945
  z: 0.9312795206
  w: -0.0352141957
orientation_covariance: [0.002741552146694444, 0.0, 0.0, 0.0, 0.002741552146694444, 0.0, 0.0, 0.0, 0.007615422629706791]
angular_velocity: 
  x: 0.00275907676129
  y: -0.00125810915806
  z: 0.000475825548552
angular_velocity_covariance: [1.0966208586777776e-06, 0.0, 0.0, 0.0, 1.0966208586777776e-06, 0.0, 0.0, 0.0, 1.0966208586777776e-06]
linear_acceleration: 
  x: 0.276370023152
  y: 1.31382707497
  z: -10.0085333393
linear_acceleration_covariance: [0.0015387262937311438, 0.0, 0.0, 0.0, 0.0015387262937311438, 0.0, 0.0, 0.0, 0.0015387262937311438]
---
header: 
  seq: 1
  stamp: 
    secs: 1559011311
    nsecs: 369549932
  frame_id: "imu_link"
orientation: 
  x: 0.3710750422
  y: 0.012420641
  z: 0.9278218827
  w: -0.0356505966
orientation_covariance: [0.002741552146694444, 0.0, 0.0, 0.0, 0.002741552146694444, 0.0, 0.0, 0.0, 0.007615422629706791]
angular_velocity: 
  x: -0.00229352655427
  y: -0.00291127901833
  z: -0.000571484721458
angular_velocity_covariance: [1.0966208586777776e-06, 0.0, 0.0, 0.0, 1.0966208586777776e-06, 0.0, 0.0, 0.0, 1.0966208586777776e-06]
linear_acceleration: 
  x: 0.273365799835
  y: 1.31924866163
  z: -9.99184173222
linear_acceleration_covariance: [0.0015387262937311438, 0.0, 0.0, 0.0, 0.0015387262937311438, 0.0, 0.0, 0.0, 0.0015387262937311438]
---
header: 
  seq: 2
  stamp: 
    secs: 1559011311
    nsecs: 422544803
  frame_id: "imu_link"
orientation: 
  x: 0.3799373374
  y: 0.0125213489
  z: 0.9241963983
  w: -0.0360534282
orientation_covariance: [0.002741552146694444, 0.0, 0.0, 0.0, 0.002741552146694444, 0.0, 0.0, 0.0, 0.007615422629706791]
angular_velocity: 
  x: 0.00162878659191
  y: 0.00118253559031
  z: -0.000891584656048
angular_velocity_covariance: [1.0966208586777776e-06, 0.0, 0.0, 0.0, 1.0966208586777776e-06, 0.0, 0.0, 0.0, 1.0966208586777776e-06]
linear_acceleration: 
  x: 0.275845670485
  y: 1.3143566518
  z: -9.99854970543
linear_acceleration_covariance: [0.0015387262937311438, 0.0, 0.0, 0.0, 0.0015387262937311438, 0.0, 0.0, 0.0, 0.0015387262937311438]
---
header: 
  seq: 3
  stamp: 
    secs: 1559011311
    nsecs: 475543779
  frame_id: "imu_link"
orientation: 
  x: 0.3889003405
  y: 0.0126556261
  z: 0.9204366367
  w: -0.0364562598
orientation_covariance: [0.002741552146694444, 0.0, 0.0, 0.0, 0.002741552146694444, 0.0, 0.0, 0.0, 0.007615422629706791]
angular_velocity: 
  x: -0.00107910507147
  y: 0.00263709982217
  z: 0.000966113050105
angular_velocity_covariance: [1.0966208586777776e-06, 0.0, 0.0, 0.0, 1.0966208586777776e-06, 0.0, 0.0, 0.0, 1.0966208586777776e-06]
linear_acceleration: 
  x: 0.27465730095
  y: 1.31789973124
  z: -10.0027068251
linear_acceleration_covariance: [0.0015387262937311438, 0.0, 0.0, 0.0, 0.0015387262937311438, 0.0, 0.0, 0.0, 0.0015387262937311438]
---
header: 
  seq: 4
  stamp: 
    secs: 1559011311
    nsecs: 526523898
  frame_id: "imu_link"
orientation: 
  x: 0.397460512
  y: 0.0127899033
  z: 0.9167440137
  w: -0.03692623
orientation_covariance: [0.002741552146694444, 0.0, 0.0, 0.0, 0.002741552146694444, 0.0, 0.0, 0.0, 0.007615422629706791]
angular_velocity: 
  x: -0.000375163846001
  y: -0.00139506442775
  z: -0.00184097460195
angular_velocity_covariance: [1.0966208586777776e-06, 0.0, 0.0, 0.0, 1.0966208586777776e-06, 0.0, 0.0, 0.0, 1.0966208586777776e-06]
linear_acceleration: 
  x: 0.266359483003
  y: 1.31496966913
  z: -10.0042546391
linear_acceleration_covariance: [0.0015387262937311438, 0.0, 0.0, 0.0, 0.0015387262937311438, 0.0, 0.0, 0.0, 0.0015387262937311438]
---
header: 
  seq: 5
  stamp: 
    secs: 1559011311
    nsecs: 576548801
  frame_id: "imu_link"
orientation: 
  x: 0.4060542528
  y: 0.0128906112
  z: 0.9129506828
  w: -0.0372954923
orientation_covariance: [0.002741552146694444, 0.0, 0.0, 0.0, 0.002741552146694444, 0.0, 0.0, 0.0, 0.007615422629706791]
angular_velocity: 
  x: 0.00191719367418
  y: 0.000339750240342
  z: 0.00010218008148
angular_velocity_covariance: [1.0966208586777776e-06, 0.0, 0.0, 0.0, 1.0966208586777776e-06, 0.0, 0.0, 0.0, 1.0966208586777776e-06]
linear_acceleration: 
  x: 0.270770175585
  y: 1.31269222572
  z: -9.99801077625
linear_acceleration_covariance: [0.0015387262937311438, 0.0, 0.0, 0.0, 0.0015387262937311438, 0.0, 0.0, 0.0, 0.0015387262937311438]
---
header: 
  seq: 6
  stamp: 
    secs: 1559011311
    nsecs: 626544395
  frame_id: "imu_link"
orientation: 
  x: 0.4147487015
  y: 0.0129913191
  z: 0.9090230747
  w: -0.0377318932
orientation_covariance: [0.002741552146694444, 0.0, 0.0, 0.0, 0.002741552146694444, 0.0, 0.0, 0.0, 0.007615422629706791]
angular_velocity: 
  x: -0.00302951504835
  y: -0.00342803916035
  z: -0.00138450749074
angular_velocity_covariance: [1.0966208586777776e-06, 0.0, 0.0, 0.0, 1.0966208586777776e-06, 0.0, 0.0, 0.0, 1.0966208586777776e-06]
linear_acceleration: 
  x: 0.265163423353
  y: 1.31012851271
  z: -9.99289270258
linear_acceleration_covariance: [0.0015387262937311438, 0.0, 0.0, 0.0, 0.0015387262937311438, 0.0, 0.0, 0.0, 0.0015387262937311438]
---
header: 
  seq: 7
  stamp: 
    secs: 1559011311
    nsecs: 676558109
  frame_id: "imu_link"
orientation: 
  x: 0.4234767195
  y: 0.0130584577
  z: 0.9049947587
  w: -0.0381347248
orientation_covariance: [0.002741552146694444, 0.0, 0.0, 0.0, 0.002741552146694444, 0.0, 0.0, 0.0, 0.007615422629706791]
angular_velocity: 
  x: 0.00060034497427
  y: 0.00128715178799
  z: -0.000929938141879
angular_velocity_covariance: [1.0966208586777776e-06, 0.0, 0.0, 0.0, 1.0966208586777776e-06, 0.0, 0.0, 0.0, 1.0966208586777776e-06]
linear_acceleration: 
  x: 0.269631618275
  y: 1.31320923533
  z: -9.99533951121
linear_acceleration_covariance: [0.0015387262937311438, 0.0, 0.0, 0.0, 0.0015387262937311438, 0.0, 0.0, 0.0, 0.0015387262937311438]
---
header: 
  seq: 8
  stamp: 
    secs: 1559011311
    nsecs: 727546676
  frame_id: "imu_link"
orientation: 
  x: 0.4323054454
  y: 0.0132263042
  z: 0.9007650269
  w: -0.0385711257
orientation_covariance: [0.002741552146694444, 0.0, 0.0, 0.0, 0.002741552146694444, 0.0, 0.0, 0.0, 0.007615422629706791]
angular_velocity: 
  x: 0.00183554789108
  y: 0.00222928585528
  z: 0.00131945770052
angular_velocity_covariance: [1.0966208586777776e-06, 0.0, 0.0, 0.0, 1.0966208586777776e-06, 0.0, 0.0, 0.0, 1.0966208586777776e-06]
linear_acceleration: 
  x: 0.26686973408
  y: 1.31730848734
  z: -9.99716321951
linear_acceleration_covariance: [0.0015387262937311438, 0.0, 0.0, 0.0, 0.0015387262937311438, 0.0, 0.0, 0.0, 0.0015387262937311438]
---
header: 
  seq: 9
  stamp: 
    secs: 1559011311
    nsecs: 777548542
  frame_id: "imu_link"
orientation: 
  x: 0.4412348792
  y: 0.0133605814
  z: 0.8964010179
  w: -0.0390075266
orientation_covariance: [0.002741552146694444, 0.0, 0.0, 0.0, 0.002741552146694444, 0.0, 0.0, 0.0, 0.007615422629706791]
angular_velocity: 
  x: -0.00147609058376
  y: 0.000738471293627
  z: -0.00148886426428
angular_velocity_covariance: [1.0966208586777776e-06, 0.0, 0.0, 0.0, 1.0966208586777776e-06, 0.0, 0.0, 0.0, 1.0966208586777776e-06]
linear_acceleration: 
  x: 0.274167672536
  y: 1.31503878885
  z: -10.003557889
linear_acceleration_covariance: [0.0015387262937311438, 0.0, 0.0, 0.0, 0.0015387262937311438, 0.0, 0.0, 0.0, 0.0015387262937311438]
---
header: 
  seq: 10
  stamp: 
    secs: 1559011311
    nsecs: 828547128
  frame_id: "imu_link"
orientation: 
  x: 0.4501978823
  y: 0.0134612893
  z: 0.891936301
  w: -0.0394103582
orientation_covariance: [0.002741552146694444, 0.0, 0.0, 0.0, 0.002741552146694444, 0.0, 0.0, 0.0, 0.007615422629706791]
angular_velocity: 
  x: 0.0029769340015
  y: 0.00128457211076
  z: 5.65750082587e-05
angular_velocity_covariance: [1.0966208586777776e-06, 0.0, 0.0, 0.0, 1.0966208586777776e-06, 0.0, 0.0, 0.0, 1.0966208586777776e-06]
linear_acceleration: 
  x: 0.274414578236
  y: 1.3139005786
  z: -9.99608653018
linear_acceleration_covariance: [0.0015387262937311438, 0.0, 0.0, 0.0, 0.0015387262937311438, 0.0, 0.0, 0.0, 0.0015387262937311438]
---
header: 
  seq: 11
  stamp: 
    secs: 1559011311
    nsecs: 878567694
  frame_id: "imu_link"
orientation: 
  x: 0.459228024
  y: 0.0135955665
  z: 0.8873037376
  w: -0.0398131898
orientation_covariance: [0.002741552146694444, 0.0, 0.0, 0.0, 0.002741552146694444, 0.0, 0.0, 0.0, 0.007615422629706791]
angular_velocity: 
  x: 0.000890955276181
  y: -0.00110434320414
  z: -0.00087341813934
angular_velocity_covariance: [1.0966208586777776e-06, 0.0, 0.0, 0.0, 1.0966208586777776e-06, 0.0, 0.0, 0.0, 1.0966208586777776e-06]
linear_acceleration: 
  x: 0.268171299932
  y: 1.31656599841
  z: -9.99916111532
linear_acceleration_covariance: [0.0015387262937311438, 0.0, 0.0, 0.0, 0.0015387262937311438, 0.0, 0.0, 0.0, 0.0015387262937311438]
---
header: 
  seq: 12
  stamp: 
    secs: 1559011311
    nsecs: 928552611
  frame_id: "imu_link"
orientation: 
  x: 0.468291735
  y: 0.0137298437
  z: 0.8825033277
  w: -0.0402495907
orientation_covariance: [0.002741552146694444, 0.0, 0.0, 0.0, 0.002741552146694444, 0.0, 0.0, 0.0, 0.007615422629706791]
angular_velocity: 
  x: 0.00110878215272
  y: 0.00238350680923
  z: 0.000227053777193
angular_velocity_covariance: [1.0966208586777776e-06, 0.0, 0.0, 0.0, 1.0966208586777776e-06, 0.0, 0.0, 0.0, 1.0966208586777776e-06]
linear_acceleration: 
  x: 0.273339222355
  y: 1.31570792028
  z: -9.99993502231
linear_acceleration_covariance: [0.0015387262937311438, 0.0, 0.0, 0.0, 0.0015387262937311438, 0.0, 0.0, 0.0, 0.0015387262937311438]
---
header: 
  seq: 13
  stamp: 
    secs: 1559011311
    nsecs: 979547612
  frame_id: "imu_link"
orientation: 
  x: 0.4774225846
  y: 0.0137969823
  z: 0.8776022099
  w: -0.040618853
orientation_covariance: [0.002741552146694444, 0.0, 0.0, 0.0, 0.002741552146694444, 0.0, 0.0, 0.0, 0.007615422629706791]
angular_velocity: 
  x: -0.00152575827802
  y: -0.000461814791995
  z: -1.0165671441e-05
angular_velocity_covariance: [1.0966208586777776e-06, 0.0, 0.0, 0.0, 1.0966208586777776e-06, 0.0, 0.0, 0.0, 1.0966208586777776e-06]
linear_acceleration: 
  x: 0.273170971383
  y: 1.31965168947
  z: -10.0007054222
linear_acceleration_covariance: [0.0015387262937311438, 0.0, 0.0, 0.0, 0.0015387262937311438, 0.0, 0.0, 0.0, 0.0015387262937311438]
---
header: 
  seq: 14
  stamp: 
    secs: 1559011312
    nsecs:  29549220
  frame_id: "imu_link"
orientation: 
  x: 0.4865870035
  y: 0.0139312595
  z: 0.8725332456
  w: -0.0410552539
orientation_covariance: [0.002741552146694444, 0.0, 0.0, 0.0, 0.002741552146694444, 0.0, 0.0, 0.0, 0.007615422629706791]
angular_velocity: 
  x: -0.00209826119046
  y: -0.00225400045833
  z: 0.000391325222171
angular_velocity_covariance: [1.0966208586777776e-06, 0.0, 0.0, 0.0, 1.0966208586777776e-06, 0.0, 0.0, 0.0, 1.0966208586777776e-06]
linear_acceleration: 
  x: 0.276558951587
  y: 1.31841133402
  z: -9.99693057979
linear_acceleration_covariance: [0.0015387262937311438, 0.0, 0.0, 0.0, 0.0015387262937311438, 0.0, 0.0, 0.0, 0.0015387262937311438]
---
header: 
  seq: 15
  stamp: 
    secs: 1559011312
    nsecs:  79572165
  frame_id: "imu_link"
orientation: 
  x: 0.4957849917
  y: 0.0140319674
  z: 0.8673300041
  w: -0.0414245162
orientation_covariance: [0.002741552146694444, 0.0, 0.0, 0.0, 0.002741552146694444, 0.0, 0.0, 0.0, 0.007615422629706791]
angular_velocity: 
  x: 0.00257783876628
  y: 0.00174500444517
  z: -0.00100571411247
angular_velocity_covariance: [1.0966208586777776e-06, 0.0, 0.0, 0.0, 1.0966208586777776e-06, 0.0, 0.0, 0.0, 1.0966208586777776e-06]
linear_acceleration: 
  x: 0.270791857694
  y: 1.32304746939
  z: -9.98992683851
linear_acceleration_covariance: [0.0015387262937311438, 0.0, 0.0, 0.0, 0.0015387262937311438, 0.0, 0.0, 0.0, 0.0015387262937311438]
---
header: 
  seq: 16
  stamp: 
    secs: 1559011312
    nsecs: 130549529
  frame_id: "imu_link"
orientation: 
  x: 0.5050165492
  y: 0.0141662446
  z: 0.8619589161
  w: -0.0418609171
orientation_covariance: [0.002741552146694444, 0.0, 0.0, 0.0, 0.002741552146694444, 0.0, 0.0, 0.0, 0.007615422629706791]
angular_velocity: 
  x: -0.00436893657422
  y: -0.00375590862035
  z: 0.00084036620361
angular_velocity_covariance: [1.0966208586777776e-06, 0.0, 0.0, 0.0, 1.0966208586777776e-06, 0.0, 0.0, 0.0, 1.0966208586777776e-06]
linear_acceleration: 
  x: 0.267128092756
  y: 1.3221684946
  z: -9.9902015638
linear_acceleration_covariance: [0.0015387262937311438, 0.0, 0.0, 0.0, 0.0015387262937311438, 0.0, 0.0, 0.0, 0.0015387262937311438]
---
header: 
  seq: 17
  stamp: 
    secs: 1559011312
    nsecs: 180630987
  frame_id: "imu_link"
orientation: 
  x: 0.5143152453
  y: 0.0142669525
  z: 0.8564199816
  w: -0.0422637487
orientation_covariance: [0.002741552146694444, 0.0, 0.0, 0.0, 0.002741552146694444, 0.0, 0.0, 0.0, 0.007615422629706791]
angular_velocity: 
  x: 0.000869769816706
  y: -0.000770070454176
  z: 0.000746056166266
angular_velocity_covariance: [1.0966208586777776e-06, 0.0, 0.0, 0.0, 1.0966208586777776e-06, 0.0, 0.0, 0.0, 1.0966208586777776e-06]
linear_acceleration: 
  x: 0.26583986131
  y: 1.31983289126
  z: -9.99535470878
linear_acceleration_covariance: [0.0015387262937311438, 0.0, 0.0, 0.0, 0.0015387262937311438, 0.0, 0.0, 0.0, 0.0015387262937311438]
---
header: 
  seq: 18
  stamp: 
    secs: 1559011312
    nsecs: 230758584
  frame_id: "imu_link"
orientation: 
  x: 0.5235803721
  y: 0.0144012297
  z: 0.8507803392
  w: -0.042633011
orientation_covariance: [0.002741552146694444, 0.0, 0.0, 0.0, 0.002741552146694444, 0.0, 0.0, 0.0, 0.007615422629706791]
angular_velocity: 
  x: 0.00163582875445
  y: 0.00209293200746
  z: 0.00113253604121
angular_velocity_covariance: [1.0966208586777776e-06, 0.0, 0.0, 0.0, 1.0966208586777776e-06, 0.0, 0.0, 0.0, 1.0966208586777776e-06]
linear_acceleration: 
  x: 0.26112054117
  y: 1.31889210327
  z: -10.0002249452
linear_acceleration_covariance: [0.0015387262937311438, 0.0, 0.0, 0.0, 0.0015387262937311438, 0.0, 0.0, 0.0, 0.0015387262937311438]
---
header: 
  seq: 19
  stamp: 
    secs: 1559011312
    nsecs: 281549426
  frame_id: "imu_link"
orientation: 
  x: 0.5328790682
  y: 0.0145019376
  z: 0.844939281
  w: -0.0431029812
orientation_covariance: [0.002741552146694444, 0.0, 0.0, 0.0, 0.002741552146694444, 0.0, 0.0, 0.0, 0.007615422629706791]
angular_velocity: 
  x: -0.000524738507116
  y: -0.00294410299891
  z: -0.00137943656155
angular_velocity_covariance: [1.0966208586777776e-06, 0.0, 0.0, 0.0, 1.0966208586777776e-06, 0.0, 0.0, 0.0, 1.0966208586777776e-06]
linear_acceleration: 
  x: 0.265875663275
  y: 1.31527683539
  z: -10.0071071059
linear_acceleration_covariance: [0.0015387262937311438, 0.0, 0.0, 0.0, 0.0015387262937311438, 0.0, 0.0, 0.0, 0.0015387262937311438]
---
header: 
  seq: 20
  stamp: 
    secs: 1559011312
    nsecs: 331563000
  frame_id: "imu_link"
orientation: 
  x: 0.542144195
  y: 0.0146026455
  z: 0.8389975149
  w: -0.0434722435
orientation_covariance: [0.002741552146694444, 0.0, 0.0, 0.0, 0.002741552146694444, 0.0, 0.0, 0.0, 0.007615422629706791]
angular_velocity: 
  x: 0.00165206246379
  y: -0.000126469040388
  z: -0.00026451790636
angular_velocity_covariance: [1.0966208586777776e-06, 0.0, 0.0, 0.0, 1.0966208586777776e-06, 0.0, 0.0, 0.0, 1.0966208586777776e-06]
linear_acceleration: 
  x: 0.266387119929
  y: 1.3157578969
  z: -10.0004716134
linear_acceleration_covariance: [0.0015387262937311438, 0.0, 0.0, 0.0, 0.0015387262937311438, 0.0, 0.0, 0.0, 0.0015387262937311438]
---
header: 
  seq: 21
  stamp: 
    secs: 1559011312
    nsecs: 381587003
  frame_id: "imu_link"
orientation: 
  x: 0.5514428911
  y: 0.0147369227
  z: 0.8328879023
  w: -0.0439086444
orientation_covariance: [0.002741552146694444, 0.0, 0.0, 0.0, 0.002741552146694444, 0.0, 0.0, 0.0, 0.007615422629706791]
angular_velocity: 
  x: 0.000618976243797
  y: -0.000610936111052
  z: -0.0001192328624
angular_velocity_covariance: [1.0966208586777776e-06, 0.0, 0.0, 0.0, 1.0966208586777776e-06, 0.0, 0.0, 0.0, 1.0966208586777776e-06]
linear_acceleration: 
  x: 0.273143973778
  y: 1.31536597497
  z: -9.98366310194
linear_acceleration_covariance: [0.0015387262937311438, 0.0, 0.0, 0.0, 0.0015387262937311438, 0.0, 0.0, 0.0, 0.0015387262937311438]
---
header: 
  seq: 22
  stamp: 
    secs: 1559011312
    nsecs: 431535251
  frame_id: "imu_link"
orientation: 
  x: 0.5607080179
  y: 0.0148376306
  z: 0.8266775818
  w: -0.0442779067
orientation_covariance: [0.002741552146694444, 0.0, 0.0, 0.0, 0.002741552146694444, 0.0, 0.0, 0.0, 0.007615422629706791]
angular_velocity: 
  x: 0.00170032315595
  y: 0.00143616280302
  z: -0.000765462717357
angular_velocity_covariance: [1.0966208586777776e-06, 0.0, 0.0, 0.0, 1.0966208586777776e-06, 0.0, 0.0, 0.0, 1.0966208586777776e-06]
linear_acceleration: 
  x: 0.270988567576
  y: 1.31177408796
  z: -9.98959249199
linear_acceleration_covariance: [0.0015387262937311438, 0.0, 0.0, 0.0, 0.0015387262937311438, 0.0, 0.0, 0.0, 0.0015387262937311438]
---
header: 
  seq: 23
  stamp: 
    secs: 1559011312
    nsecs: 485526056
  frame_id: "imu_link"
orientation: 
  x: 0.5705438228
  y: 0.0149719078
  z: 0.8198630139
  w: -0.0447143076
orientation_covariance: [0.002741552146694444, 0.0, 0.0, 0.0, 0.002741552146694444, 0.0, 0.0, 0.0, 0.007615422629706791]
angular_velocity: 
  x: -0.000571650843933
  y: 0.000973281933861
  z: -0.000727579120813
angular_velocity_covariance: [1.0966208586777776e-06, 0.0, 0.0, 0.0, 1.0966208586777776e-06, 0.0, 0.0, 0.0, 1.0966208586777776e-06]
linear_acceleration: 
  x: 0.26699796357
  y: 1.31587041737
  z: -10.0022368695
linear_acceleration_covariance: [0.0015387262937311438, 0.0, 0.0, 0.0, 0.0015387262937311438, 0.0, 0.0, 0.0, 0.0015387262937311438]
---
header: 
  seq: 24
  stamp: 
    secs: 1559011312
    nsecs: 538530384
  frame_id: "imu_link"
orientation: 
  x: 0.580413197
  y: 0.0150726157
  z: 0.8129141688
  w: -0.0451507085
orientation_covariance: [0.002741552146694444, 0.0, 0.0, 0.0, 0.002741552146694444, 0.0, 0.0, 0.0, 0.007615422629706791]
angular_velocity: 
  x: 0.00170030078956
  y: -0.00167561505476
  z: -0.000467104411186
angular_velocity_covariance: [1.0966208586777776e-06, 0.0, 0.0, 0.0, 1.0966208586777776e-06, 0.0, 0.0, 0.0, 1.0966208586777776e-06]
linear_acceleration: 
  x: 0.263684217646
  y: 1.32158952566
  z: -10.0098099351
linear_acceleration_covariance: [0.0015387262937311438, 0.0, 0.0, 0.0, 0.0015387262937311438, 0.0, 0.0, 0.0, 0.0015387262937311438]
---
header: 
  seq: 25
  stamp: 
    secs: 1559011312
    nsecs: 591533500
  frame_id: "imu_link"
orientation: 
  x: 0.5901818633
  y: 0.0151733236
  z: 0.8057974772
  w: -0.0455535401
orientation_covariance: [0.002741552146694444, 0.0, 0.0, 0.0, 0.002741552146694444, 0.0, 0.0, 0.0, 0.007615422629706791]
angular_velocity: 
  x: 0.00151868880768
  y: -0.000852001018659
  z: 0.000242430427851
angular_velocity_covariance: [1.0966208586777776e-06, 0.0, 0.0, 0.0, 1.0966208586777776e-06, 0.0, 0.0, 0.0, 1.0966208586777776e-06]
linear_acceleration: 
  x: 0.268933169416
  y: 1.31906146849
  z: -10.0041950178
linear_acceleration_covariance: [0.0015387262937311438, 0.0, 0.0, 0.0, 0.0015387262937311438, 0.0, 0.0, 0.0, 0.0015387262937311438]
---
header: 
  seq: 26
  stamp: 
    secs: 1559011312
    nsecs: 641564628
  frame_id: "imu_link"
orientation: 
  x: 0.5993798515
  y: 0.0153076008
  z: 0.79894934
  w: -0.0459563717
orientation_covariance: [0.002741552146694444, 0.0, 0.0, 0.0, 0.002741552146694444, 0.0, 0.0, 0.0, 0.007615422629706791]
angular_velocity: 
  x: -0.000321789962574
  y: -0.00303182424828
  z: 0.000617372755545
angular_velocity_covariance: [1.0966208586777776e-06, 0.0, 0.0, 0.0, 1.0966208586777776e-06, 0.0, 0.0, 0.0, 1.0966208586777776e-06]
linear_acceleration: 
  x: 0.269729233431
  y: 1.32363506002
  z: -10.0072298555
linear_acceleration_covariance: [0.0015387262937311438, 0.0, 0.0, 0.0, 0.0015387262937311438, 0.0, 0.0, 0.0, 0.0015387262937311438]
---
header: 
  seq: 27
  stamp: 
    secs: 1559011312
    nsecs: 694538724
  frame_id: "imu_link"
orientation: 
  x: 0.6090813792
  y: 0.0154083087
  z: 0.791564094
  w: -0.0463592033
orientation_covariance: [0.002741552146694444, 0.0, 0.0, 0.0, 0.002741552146694444, 0.0, 0.0, 0.0, 0.007615422629706791]
angular_velocity: 
  x: 0.00188473275735
  y: 0.00267211024761
  z: 0.00186463473365
angular_velocity_covariance: [1.0966208586777776e-06, 0.0, 0.0, 0.0, 1.0966208586777776e-06, 0.0, 0.0, 0.0, 1.0966208586777776e-06]
linear_acceleration: 
  x: 0.268045846921
  y: 1.319862848
  z: -10.0127290374
linear_acceleration_covariance: [0.0015387262937311438, 0.0, 0.0, 0.0, 0.0015387262937311438, 0.0, 0.0, 0.0, 0.0015387262937311438]
---
header: 
  seq: 28
  stamp: 
    secs: 1559011312
    nsecs: 747533706
  frame_id: "imu_link"
orientation: 
  x: 0.6187157683
  y: 0.0155090166
  z: 0.7840445708
  w: -0.0467284656
orientation_covariance: [0.002741552146694444, 0.0, 0.0, 0.0, 0.002741552146694444, 0.0, 0.0, 0.0, 0.007615422629706791]
angular_velocity: 
  x: 0.000934798020756
  y: -0.00349436929648
  z: -0.000983882888449
angular_velocity_covariance: [1.0966208586777776e-06, 0.0, 0.0, 0.0, 1.0966208586777776e-06, 0.0, 0.0, 0.0, 1.0966208586777776e-06]
linear_acceleration: 
  x: 0.26662881973
  y: 1.32303490217
  z: -10.000593194
linear_acceleration_covariance: [0.0015387262937311438, 0.0, 0.0, 0.0, 0.0015387262937311438, 0.0, 0.0, 0.0, 0.0015387262937311438]
---
header: 
  seq: 29
  stamp: 
    secs: 1559011312
    nsecs: 797534747
  frame_id: "imu_link"
orientation: 
  x: 0.6277794793
  y: 0.0156097245
  z: 0.776793602
  w: -0.0471312972
orientation_covariance: [0.002741552146694444, 0.0, 0.0, 0.0, 0.002741552146694444, 0.0, 0.0, 0.0, 0.007615422629706791]
angular_velocity: 
  x: 0.000555129557406
  y: 0.000788843334174
  z: 0.000396310651929
angular_velocity_covariance: [1.0966208586777776e-06, 0.0, 0.0, 0.0, 1.0966208586777776e-06, 0.0, 0.0, 0.0, 1.0966208586777776e-06]
linear_acceleration: 
  x: 0.270627406114
  y: 1.32425450709
  z: -10.0059754715
linear_acceleration_covariance: [0.0015387262937311438, 0.0, 0.0, 0.0, 0.0015387262937311438, 0.0, 0.0, 0.0, 0.0015387262937311438]
---
header: 
  seq: 30
  stamp: 
    secs: 1559011312
    nsecs: 851528638
  frame_id: "imu_link"
orientation: 
  x: 0.6372795912
  y: 0.0157440017
  z: 0.7689719551
  w: -0.0475341288
orientation_covariance: [0.002741552146694444, 0.0, 0.0, 0.0, 0.002741552146694444, 0.0, 0.0, 0.0, 0.007615422629706791]
angular_velocity: 
  x: -6.62363386919e-05
  y: -0.00125802632439
  z: -0.000300182857599
angular_velocity_covariance: [1.0966208586777776e-06, 0.0, 0.0, 0.0, 1.0966208586777776e-06, 0.0, 0.0, 0.0, 1.0966208586777776e-06]
linear_acceleration: 
  x: 0.276216622689
  y: 1.32730512683
  z: -10.0066114313
linear_acceleration_covariance: [0.0015387262937311438, 0.0, 0.0, 0.0, 0.0015387262937311438, 0.0, 0.0, 0.0, 0.0015387262937311438]
---
header: 
  seq: 31
  stamp: 
    secs: 1559011312
    nsecs: 904562354
  frame_id: "imu_link"
orientation: 
  x: 0.6466789952
  y: 0.0158111403
  z: 0.7610496003
  w: -0.0478698218
orientation_covariance: [0.002741552146694444, 0.0, 0.0, 0.0, 0.002741552146694444, 0.0, 0.0, 0.0, 0.007615422629706791]
angular_velocity: 
  x: -0.00335735407965
  y: -0.00108625633519
  z: -0.000353748448313
angular_velocity_covariance: [1.0966208586777776e-06, 0.0, 0.0, 0.0, 1.0966208586777776e-06, 0.0, 0.0, 0.0, 1.0966208586777776e-06]
linear_acceleration: 
  x: 0.271916550875
  y: 1.31411918978
  z: -9.99944402392
linear_acceleration_covariance: [0.0015387262937311438, 0.0, 0.0, 0.0, 0.0015387262937311438, 0.0, 0.0, 0.0, 0.0015387262937311438]
---
header: 
  seq: 32
  stamp: 
    secs: 1559011312
    nsecs: 957564229
  frame_id: "imu_link"
orientation: 
  x: 0.6560112606
  y: 0.0159454175
  z: 0.7529929683
  w: -0.0482390841
orientation_covariance: [0.002741552146694444, 0.0, 0.0, 0.0, 0.002741552146694444, 0.0, 0.0, 0.0, 0.007615422629706791]
angular_velocity: 
  x: -0.000628237880629
  y: 0.00135225255278
  z: -0.000460041637755
angular_velocity_covariance: [1.0966208586777776e-06, 0.0, 0.0, 0.0, 1.0966208586777776e-06, 0.0, 0.0, 0.0, 1.0966208586777776e-06]
linear_acceleration: 
  x: 0.269172001407
  y: 1.31090373487
  z: -9.99996658649
linear_acceleration_covariance: [0.0015387262937311438, 0.0, 0.0, 0.0, 0.0015387262937311438, 0.0, 0.0, 0.0, 0.0015387262937311438]
---
header: 
  seq: 33
  stamp: 
    secs: 1559011313
    nsecs:   7534926
  frame_id: "imu_link"
orientation: 
  x: 0.6647057093
  y: 0.0160461254
  z: 0.7453391679
  w: -0.0485747771
orientation_covariance: [0.002741552146694444, 0.0, 0.0, 0.0, 0.002741552146694444, 0.0, 0.0, 0.0, 0.007615422629706791]
angular_velocity: 
  x: 0.000406042405613
  y: -0.00165951294303
  z: 0.000990997026559
angular_velocity_covariance: [1.0966208586777776e-06, 0.0, 0.0, 0.0, 1.0966208586777776e-06, 0.0, 0.0, 0.0, 1.0966208586777776e-06]
linear_acceleration: 
  x: 0.274045671858
  y: 1.31406935929
  z: -9.99928152683
linear_acceleration_covariance: [0.0015387262937311438, 0.0, 0.0, 0.0, 0.0015387262937311438, 0.0, 0.0, 0.0, 0.0015387262937311438]
---
header: 
  seq: 34
  stamp: 
    secs: 1559011313
    nsecs:  60538121
  frame_id: "imu_link"
orientation: 
  x: 0.6738365589
  y: 0.0161468333
  z: 0.7370475508
  w: -0.0489440394
orientation_covariance: [0.002741552146694444, 0.0, 0.0, 0.0, 0.002741552146694444, 0.0, 0.0, 0.0, 0.007615422629706791]
angular_velocity: 
  x: 0.00109092792026
  y: -0.00556374611223
  z: -0.000755485225944
angular_velocity_covariance: [1.0966208586777776e-06, 0.0, 0.0, 0.0, 1.0966208586777776e-06, 0.0, 0.0, 0.0, 1.0966208586777776e-06]
linear_acceleration: 
  x: 0.271249684464
  y: 1.31965738856
  z: -9.99958197109
linear_acceleration_covariance: [0.0015387262937311438, 0.0, 0.0, 0.0, 0.0015387262937311438, 0.0, 0.0, 0.0, 0.0015387262937311438]
---
header: 
  seq: 35
  stamp: 
    secs: 1559011313
    nsecs: 114559705
  frame_id: "imu_link"
orientation: 
  x: 0.6828667006
  y: 0.0162139719
  z: 0.7286887951
  w: -0.0492461631
orientation_covariance: [0.002741552146694444, 0.0, 0.0, 0.0, 0.002741552146694444, 0.0, 0.0, 0.0, 0.007615422629706791]
angular_velocity: 
  x: -0.00149317122515
  y: 0.000503498692107
  z: -0.00129525986515
angular_velocity_covariance: [1.0966208586777776e-06, 0.0, 0.0, 0.0, 1.0966208586777776e-06, 0.0, 0.0, 0.0, 1.0966208586777776e-06]
linear_acceleration: 
  x: 0.269503955042
  y: 1.3180481998
  z: -10.0110491215
linear_acceleration_covariance: [0.0015387262937311438, 0.0, 0.0, 0.0, 0.0015387262937311438, 0.0, 0.0, 0.0, 0.0015387262937311438]
---
header: 
  seq: 36
  stamp: 
    secs: 1559011313
    nsecs: 164541865
  frame_id: "imu_link"
orientation: 
  x: 0.6912254563
  y: 0.0162811105
  z: 0.7206993017
  w: -0.0495818561
orientation_covariance: [0.002741552146694444, 0.0, 0.0, 0.0, 0.002741552146694444, 0.0, 0.0, 0.0, 0.007615422629706791]
angular_velocity: 
  x: 2.81250714586e-05
  y: 5.85007285997e-05
  z: 0.00121718633295
angular_velocity_covariance: [1.0966208586777776e-06, 0.0, 0.0, 0.0, 1.0966208586777776e-06, 0.0, 0.0, 0.0, 1.0966208586777776e-06]
linear_acceleration: 
  x: 0.273166861463
  y: 1.32241808544
  z: -10.0078377583
linear_acceleration_covariance: [0.0015387262937311438, 0.0, 0.0, 0.0, 0.0015387262937311438, 0.0, 0.0, 0.0, 0.0015387262937311438]
---
header: 
  seq: 37
  stamp: 
    secs: 1559011313
    nsecs: 214538230
  frame_id: "imu_link"
orientation: 
  x: 0.6995170734
  y: 0.0163818184
  z: 0.7126426697
  w: -0.0499175491
orientation_covariance: [0.002741552146694444, 0.0, 0.0, 0.0, 0.002741552146694444, 0.0, 0.0, 0.0, 0.007615422629706791]
angular_velocity: 
  x: 0.000157923274519
  y: 0.00212881134122
  z: -0.000267388492979
angular_velocity_covariance: [1.0966208586777776e-06, 0.0, 0.0, 0.0, 1.0966208586777776e-06, 0.0, 0.0, 0.0, 1.0966208586777776e-06]
linear_acceleration: 
  x: 0.270335309565
  y: 1.31629960256
  z: -9.99929789345
linear_acceleration_covariance: [0.0015387262937311438, 0.0, 0.0, 0.0, 0.0015387262937311438, 0.0, 0.0, 0.0, 0.0015387262937311438]
---
header: 
  seq: 38
  stamp: 
    secs: 1559011313
    nsecs: 267539387
  frame_id: "imu_link"
orientation: 
  x: 0.7081779528
  y: 0.0164825263
  z: 0.7040153596
  w: -0.0502196728
orientation_covariance: [0.002741552146694444, 0.0, 0.0, 0.0, 0.002741552146694444, 0.0, 0.0, 0.0, 0.007615422629706791]
angular_velocity: 
  x: 0.00130827554483
  y: 0.00516851896245
  z: 0.000181982474015
angular_velocity_covariance: [1.0966208586777776e-06, 0.0, 0.0, 0.0, 1.0966208586777776e-06, 0.0, 0.0, 0.0, 1.0966208586777776e-06]
linear_acceleration: 
  x: 0.264393388828
  y: 1.32172864187
  z: -10.005507854
linear_acceleration_covariance: [0.0015387262937311438, 0.0, 0.0, 0.0, 0.0015387262937311438, 0.0, 0.0, 0.0, 0.0015387262937311438]
---
header: 
  seq: 39
  stamp: 
    secs: 1559011313
    nsecs: 321563470
  frame_id: "imu_link"
orientation: 
  x: 0.7167381243
  y: 0.0165496649
  z: 0.6952873416
  w: -0.0505553658
orientation_covariance: [0.002741552146694444, 0.0, 0.0, 0.0, 0.002741552146694444, 0.0, 0.0, 0.0, 0.007615422629706791]
angular_velocity: 
  x: -0.000908820626821
  y: -0.00423201030282
  z: 0.000730267444094
angular_velocity_covariance: [1.0966208586777776e-06, 0.0, 0.0, 0.0, 1.0966208586777776e-06, 0.0, 0.0, 0.0, 1.0966208586777776e-06]
linear_acceleration: 
  x: 0.264661446914
  y: 1.32299705437
  z: -10.0062127874
linear_acceleration_covariance: [0.0015387262937311438, 0.0, 0.0, 0.0, 0.0015387262937311438, 0.0, 0.0, 0.0, 0.0015387262937311438]
---
header: 
  seq: 40
  stamp: 
    secs: 1559011313
    nsecs: 371560596
  frame_id: "imu_link"
orientation: 
  x: 0.7246604791
  y: 0.0166168035
  z: 0.6869957245
  w: -0.0508239202
orientation_covariance: [0.002741552146694444, 0.0, 0.0, 0.0, 0.002741552146694444, 0.0, 0.0, 0.0, 0.007615422629706791]
angular_velocity: 
  x: 0.00216877124114
  y: -0.00587308423626
  z: 0.000185162207733
angular_velocity_covariance: [1.0966208586777776e-06, 0.0, 0.0, 0.0, 1.0966208586777776e-06, 0.0, 0.0, 0.0, 1.0966208586777776e-06]
linear_acceleration: 
  x: 0.267044560924
  y: 1.32046300585
  z: -9.99606081122
linear_acceleration_covariance: [0.0015387262937311438, 0.0, 0.0, 0.0, 0.0015387262937311438, 0.0, 0.0, 0.0, 0.0015387262937311438]
---
header: 
  seq: 41
  stamp: 
    secs: 1559011313
    nsecs: 421571262
  frame_id: "imu_link"
orientation: 
  x: 0.7324149874
  y: 0.0167175114
  z: 0.6786705381
  w: -0.0511260439
orientation_covariance: [0.002741552146694444, 0.0, 0.0, 0.0, 0.002741552146694444, 0.0, 0.0, 0.0, 0.007615422629706791]
angular_velocity: 
  x: -0.00441853378833
  y: -0.00119921129596
  z: 0.000204094301982
angular_velocity_covariance: [1.0966208586777776e-06, 0.0, 0.0, 0.0, 1.0966208586777776e-06, 0.0, 0.0, 0.0, 1.0966208586777776e-06]
linear_acceleration: 
  x: 0.268446116552
  y: 1.31470809559
  z: -9.99914942489
linear_acceleration_covariance: [0.0015387262937311438, 0.0, 0.0, 0.0, 0.0015387262937311438, 0.0, 0.0, 0.0, 0.0015387262937311438]
---
header: 
  seq: 42
  stamp: 
    secs: 1559011313
    nsecs: 472563858
  frame_id: "imu_link"
orientation: 
  x: 0.7400687878
  y: 0.01678465
  z: 0.6703117824
  w: -0.0513945983
orientation_covariance: [0.002741552146694444, 0.0, 0.0, 0.0, 0.002741552146694444, 0.0, 0.0, 0.0, 0.007615422629706791]
angular_velocity: 
  x: 0.00102928419344
  y: 0.00599415923762
  z: 0.00154268677592
angular_velocity_covariance: [1.0966208586777776e-06, 0.0, 0.0, 0.0, 1.0966208586777776e-06, 0.0, 0.0, 0.0, 1.0966208586777776e-06]
linear_acceleration: 
  x: 0.268589342681
  y: 1.31421855851
  z: -10.0040535635
linear_acceleration_covariance: [0.0015387262937311438, 0.0, 0.0, 0.0, 0.0015387262937311438, 0.0, 0.0, 0.0, 0.0015387262937311438]
---
header: 
  seq: 43
  stamp: 
    secs: 1559011313
    nsecs: 522581627
  frame_id: "imu_link"
orientation: 
  x: 0.747588311
  y: 0.0168517886
  z: 0.6618858881
  w: -0.0516295834
orientation_covariance: [0.002741552146694444, 0.0, 0.0, 0.0, 0.002741552146694444, 0.0, 0.0, 0.0, 0.007615422629706791]
angular_velocity: 
  x: -0.000701681244602
  y: -0.0049011386293
  z: -0.000887860781822
angular_velocity_covariance: [1.0966208586777776e-06, 0.0, 0.0, 0.0, 1.0966208586777776e-06, 0.0, 0.0, 0.0, 1.0966208586777776e-06]
linear_acceleration: 
  x: 0.274085565477
  y: 1.31918670231
  z: -10.010873765
linear_acceleration_covariance: [0.0015387262937311438, 0.0, 0.0, 0.0, 0.0015387262937311438, 0.0, 0.0, 0.0, 0.0015387262937311438]
---
header: 
  seq: 44
  stamp: 
    secs: 1559011313
    nsecs: 572541097
  frame_id: "imu_link"
orientation: 
  x: 0.754973557
  y: 0.0169189272
  z: 0.6534264245
  w: -0.0519317071
orientation_covariance: [0.002741552146694444, 0.0, 0.0, 0.0, 0.002741552146694444, 0.0, 0.0, 0.0, 0.007615422629706791]
angular_velocity: 
  x: -5.49362311717e-06
  y: -0.000896712476499
  z: -0.00136788301972
angular_velocity_covariance: [1.0966208586777776e-06, 0.0, 0.0, 0.0, 1.0966208586777776e-06, 0.0, 0.0, 0.0, 1.0966208586777776e-06]
linear_acceleration: 
  x: 0.273305046091
  y: 1.31218822172
  z: -9.99930256962
linear_acceleration_covariance: [0.0015387262937311438, 0.0, 0.0, 0.0, 0.0015387262937311438, 0.0, 0.0, 0.0, 0.0015387262937311438]
---
header: 
  seq: 45
  stamp: 
    secs: 1559011313
    nsecs: 625570900
  frame_id: "imu_link"
orientation: 
  x: 0.7626609267
  y: 0.0169524965
  z: 0.6444298521
  w: -0.0521331229
orientation_covariance: [0.002741552146694444, 0.0, 0.0, 0.0, 0.002741552146694444, 0.0, 0.0, 0.0, 0.007615422629706791]
angular_velocity: 
  x: 0.00347870345942
  y: -0.00239590429224
  z: 0.000320530455126
angular_velocity_covariance: [1.0966208586777776e-06, 0.0, 0.0, 0.0, 1.0966208586777776e-06, 0.0, 0.0, 0.0, 1.0966208586777776e-06]
linear_acceleration: 
  x: 0.272262478236
  y: 1.32331985659
  z: -10.0008246646
linear_acceleration_covariance: [0.0015387262937311438, 0.0, 0.0, 0.0, 0.0015387262937311438, 0.0, 0.0, 0.0, 0.0015387262937311438]
---
header: 
  seq: 46
  stamp: 
    secs: 1559011313
    nsecs: 676563513
  frame_id: "imu_link"
orientation: 
  x: 0.769744049
  y: 0.0170196351
  z: 0.6359368192
  w: -0.0524016773
orientation_covariance: [0.002741552146694444, 0.0, 0.0, 0.0, 0.002741552146694444, 0.0, 0.0, 0.0, 0.007615422629706791]
angular_velocity: 
  x: -0.00252063021697
  y: -0.00592335608318
  z: 0.00197468297373
angular_velocity_covariance: [1.0966208586777776e-06, 0.0, 0.0, 0.0, 1.0966208586777776e-06, 0.0, 0.0, 0.0, 1.0966208586777776e-06]
linear_acceleration: 
  x: 0.27363455204
  y: 1.32490522608
  z: -10.0032539376
linear_acceleration_covariance: [0.0015387262937311438, 0.0, 0.0, 0.0, 0.0015387262937311438, 0.0, 0.0, 0.0, 0.0015387262937311438]
---
header: 
  seq: 47
  stamp: 
    secs: 1559011313
    nsecs: 729608829
  frame_id: "imu_link"
orientation: 
  x: 0.7771628643
  y: 0.017120343
  z: 0.6268395389
  w: -0.0526702317
orientation_covariance: [0.002741552146694444, 0.0, 0.0, 0.0, 0.002741552146694444, 0.0, 0.0, 0.0, 0.007615422629706791]
angular_velocity: 
  x: 0.00312024639796
  y: -0.00257624581104
  z: 0.000208707939238
angular_velocity_covariance: [1.0966208586777776e-06, 0.0, 0.0, 0.0, 1.0966208586777776e-06, 0.0, 0.0, 0.0, 1.0966208586777776e-06]
linear_acceleration: 
  x: 0.271658594058
  y: 1.31655401572
  z: -9.99935868372
linear_acceleration_covariance: [0.0015387262937311438, 0.0, 0.0, 0.0, 0.0015387262937311438, 0.0, 0.0, 0.0, 0.0015387262937311438]
---
header: 
  seq: 48
  stamp: 
    secs: 1559011313
    nsecs: 779570469
  frame_id: "imu_link"
orientation: 
  x: 0.7839102936
  y: 0.017120343
  z: 0.6183129367
  w: -0.0528380782
orientation_covariance: [0.002741552146694444, 0.0, 0.0, 0.0, 0.002741552146694444, 0.0, 0.0, 0.0, 0.007615422629706791]
angular_velocity: 
  x: 0.00055008671624
  y: 0.00104701586587
  z: -0.000812213808092
angular_velocity_covariance: [1.0966208586777776e-06, 0.0, 0.0, 0.0, 1.0966208586777776e-06, 0.0, 0.0, 0.0, 1.0966208586777776e-06]
linear_acceleration: 
  x: 0.272540016535
  y: 1.31677438047
  z: -10.0008714264
linear_acceleration_covariance: [0.0015387262937311438, 0.0, 0.0, 0.0, 0.0015387262937311438, 0.0, 0.0, 0.0, 0.0015387262937311438]
---
header: 
  seq: 49
  stamp: 
    secs: 1559011313
    nsecs: 830599127
  frame_id: "imu_link"
orientation: 
  x: 0.7905905843
  y: 0.0172546202
  z: 0.6097863345
  w: -0.0531066326
orientation_covariance: [0.002741552146694444, 0.0, 0.0, 0.0, 0.002741552146694444, 0.0, 0.0, 0.0, 0.007615422629706791]
angular_velocity: 
  x: -0.00338142707934
  y: -0.00295574340556
  z: 0.000261820252912
angular_velocity_covariance: [1.0966208586777776e-06, 0.0, 0.0, 0.0, 1.0966208586777776e-06, 0.0, 0.0, 0.0, 1.0966208586777776e-06]
linear_acceleration: 
  x: 0.277732543677
  y: 1.31818658535
  z: -10.0005756583
linear_acceleration_covariance: [0.0015387262937311438, 0.0, 0.0, 0.0, 0.0015387262937311438, 0.0, 0.0, 0.0, 0.0015387262937311438]
---
header: 
  seq: 50
  stamp: 
    secs: 1559011313
    nsecs: 880587245
  frame_id: "imu_link"
orientation: 
  x: 0.7970694592
  y: 0.0172881895
  z: 0.6012597323
  w: -0.0533080484
orientation_covariance: [0.002741552146694444, 0.0, 0.0, 0.0, 0.002741552146694444, 0.0, 0.0, 0.0, 0.007615422629706791]
angular_velocity: 
  x: 0.00382515054862
  y: 0.00943850297757
  z: -0.000754719242038
angular_velocity_covariance: [1.0966208586777776e-06, 0.0, 0.0, 0.0, 1.0966208586777776e-06, 0.0, 0.0, 0.0, 1.0966208586777776e-06]
linear_acceleration: 
  x: 0.274350043366
  y: 1.31672908002
  z: -9.99913890349
linear_acceleration_covariance: [0.0015387262937311438, 0.0, 0.0, 0.0, 0.0015387262937311438, 0.0, 0.0, 0.0, 0.0015387262937311438]
---
header: 
  seq: 51
  stamp: 
    secs: 1559011313
    nsecs: 930576800
  frame_id: "imu_link"
orientation: 
  x: 0.8033804876
  y: 0.0173217588
  z: 0.5927666994
  w: -0.0534758949
orientation_covariance: [0.002741552146694444, 0.0, 0.0, 0.0, 0.002741552146694444, 0.0, 0.0, 0.0, 0.007615422629706791]
angular_velocity: 
  x: -0.00219544628445
  y: 0.000683666741337
  z: 0.00180059039077
angular_velocity_covariance: [1.0966208586777776e-06, 0.0, 0.0, 0.0, 1.0966208586777776e-06, 0.0, 0.0, 0.0, 1.0966208586777776e-06]
linear_acceleration: 
  x: 0.273503966197
  y: 1.31862015446
  z: -10.0049677558
linear_acceleration_covariance: [0.0015387262937311438, 0.0, 0.0, 0.0, 0.0015387262937311438, 0.0, 0.0, 0.0, 0.0015387262937311438]
---
header: 
  seq: 52
  stamp: 
    secs: 1559011313
    nsecs: 981574843
  frame_id: "imu_link"
orientation: 
  x: 0.8095908081
  y: 0.0173888974
  z: 0.5842400972
  w: -0.05371088
orientation_covariance: [0.002741552146694444, 0.0, 0.0, 0.0, 0.002741552146694444, 0.0, 0.0, 0.0, 0.007615422629706791]
angular_velocity: 
  x: -0.00244342325242
  y: 0.00245268033795
  z: 0.000280886903115
angular_velocity_covariance: [1.0966208586777776e-06, 0.0, 0.0, 0.0, 1.0966208586777776e-06, 0.0, 0.0, 0.0, 1.0966208586777776e-06]
linear_acceleration: 
  x: 0.269824017309
  y: 1.32357163939
  z: -10.0023549429
linear_acceleration_covariance: [0.0015387262937311438, 0.0, 0.0, 0.0, 0.0015387262937311438, 0.0, 0.0, 0.0, 0.0015387262937311438]
---
header: 
  seq: 53
  stamp: 
    secs: 1559011314
    nsecs:  31549834
  frame_id: "imu_link"
orientation: 
  x: 0.8155997128
  y: 0.0174224667
  z: 0.5757806336
  w: -0.0538451572
orientation_covariance: [0.002741552146694444, 0.0, 0.0, 0.0, 0.002741552146694444, 0.0, 0.0, 0.0, 0.007615422629706791]
angular_velocity: 
  x: 2.97921641378e-06
  y: 0.0110247982361
  z: 0.00020591266039
angular_velocity_covariance: [1.0966208586777776e-06, 0.0, 0.0, 0.0, 1.0966208586777776e-06, 0.0, 0.0, 0.0, 1.0966208586777776e-06]
linear_acceleration: 
  x: 0.270805593958
  y: 1.32084791352
  z: -10.0106317729
linear_acceleration_covariance: [0.0015387262937311438, 0.0, 0.0, 0.0, 0.0015387262937311438, 0.0, 0.0, 0.0, 0.0015387262937311438]
---
header: 
  seq: 54
  stamp: 
    secs: 1559011314
    nsecs:  81566948
  frame_id: "imu_link"
orientation: 
  x: 0.8215079096
  y: 0.0174896053
  z: 0.56732117
  w: -0.054046573
orientation_covariance: [0.002741552146694444, 0.0, 0.0, 0.0, 0.002741552146694444, 0.0, 0.0, 0.0, 0.007615422629706791]
angular_velocity: 
  x: -0.00343315456226
  y: -0.00840047768606
  z: 0.00141013326419
angular_velocity_covariance: [1.0966208586777776e-06, 0.0, 0.0, 0.0, 1.0966208586777776e-06, 0.0, 0.0, 0.0, 1.0966208586777776e-06]
linear_acceleration: 
  x: 0.276909262862
  y: 1.31553782441
  z: -9.99405823923
linear_acceleration_covariance: [0.0015387262937311438, 0.0, 0.0, 0.0, 0.0015387262937311438, 0.0, 0.0, 0.0, 0.0015387262937311438]
---
header: 
  seq: 55
  stamp: 
    secs: 1559011314
    nsecs: 132569071
  frame_id: "imu_link"
orientation: 
  x: 0.8272482599
  y: 0.0175231746
  z: 0.5588952757
  w: -0.0542144195
orientation_covariance: [0.002741552146694444, 0.0, 0.0, 0.0, 0.002741552146694444, 0.0, 0.0, 0.0, 0.007615422629706791]
angular_velocity: 
  x: 0.00269350370153
  y: -0.000503524374446
  z: -0.00186069538784
angular_velocity_covariance: [1.0966208586777776e-06, 0.0, 0.0, 0.0, 1.0966208586777776e-06, 0.0, 0.0, 0.0, 1.0966208586777776e-06]
linear_acceleration: 
  x: 0.276761945079
  y: 1.32178504824
  z: -10.000140774
linear_acceleration_covariance: [0.0015387262937311438, 0.0, 0.0, 0.0, 0.0015387262937311438, 0.0, 0.0, 0.0, 0.0015387262937311438]
---
header: 
  seq: 56
  stamp: 
    secs: 1559011314
    nsecs: 182576981
  frame_id: "imu_link"
orientation: 
  x: 0.832854333
  y: 0.0175231746
  z: 0.5505029507
  w: -0.054382266
orientation_covariance: [0.002741552146694444, 0.0, 0.0, 0.0, 0.002741552146694444, 0.0, 0.0, 0.0, 0.007615422629706791]
angular_velocity: 
  x: -0.000493515934189
  y: -0.00179746442742
  z: -0.000578556662509
angular_velocity_covariance: [1.0966208586777776e-06, 0.0, 0.0, 0.0, 1.0966208586777776e-06, 0.0, 0.0, 0.0, 1.0966208586777776e-06]
linear_acceleration: 
  x: 0.272097131606
  y: 1.31917588865
  z: -9.99688147995
linear_acceleration_covariance: [0.0015387262937311438, 0.0, 0.0, 0.0, 0.0015387262937311438, 0.0, 0.0, 0.0, 0.0015387262937311438]
---
header: 
  seq: 57
  stamp: 
    secs: 1559011314
    nsecs: 232626441
  frame_id: "imu_link"
orientation: 
  x: 0.8382925596
  y: 0.0175903132
  z: 0.5421777643
  w: -0.0545501125
orientation_covariance: [0.002741552146694444, 0.0, 0.0, 0.0, 0.002741552146694444, 0.0, 0.0, 0.0, 0.007615422629706791]
angular_velocity: 
  x: -6.16139401822e-05
  y: 0.00278763162182
  z: 0.000280250956371
angular_velocity_covariance: [1.0966208586777776e-06, 0.0, 0.0, 0.0, 1.0966208586777776e-06, 0.0, 0.0, 0.0, 1.0966208586777776e-06]
linear_acceleration: 
  x: 0.27503000672
  y: 1.31912255103
  z: -9.99616017994
linear_acceleration_covariance: [0.0015387262937311438, 0.0, 0.0, 0.0, 0.0015387262937311438, 0.0, 0.0, 0.0, 0.0015387262937311438]
---
header: 
  seq: 58
  stamp: 
    secs: 1559011314
    nsecs: 283611009
  frame_id: "imu_link"
orientation: 
  x: 0.8435629397
  y: 0.0176238825
  z: 0.5338861472
  w: -0.0546843897
orientation_covariance: [0.002741552146694444, 0.0, 0.0, 0.0, 0.002741552146694444, 0.0, 0.0, 0.0, 0.007615422629706791]
angular_velocity: 
  x: -0.00116678184813
  y: -0.000149524824373
  z: -0.0008424730007
angular_velocity_covariance: [1.0966208586777776e-06, 0.0, 0.0, 0.0, 1.0966208586777776e-06, 0.0, 0.0, 0.0, 1.0966208586777776e-06]
linear_acceleration: 
  x: 0.277144551189
  y: 1.31616896192
  z: -10.0086806388
linear_acceleration_covariance: [0.0015387262937311438, 0.0, 0.0, 0.0, 0.0015387262937311438, 0.0, 0.0, 0.0, 0.0015387262937311438]
---
header: 
  seq: 59
  stamp: 
    secs: 1559011314
    nsecs: 334587615
  frame_id: "imu_link"
orientation: 
  x: 0.8487326119
  y: 0.0176910211
  z: 0.5256280994
  w: -0.0548522362
orientation_covariance: [0.002741552146694444, 0.0, 0.0, 0.0, 0.002741552146694444, 0.0, 0.0, 0.0, 0.007615422629706791]
angular_velocity: 
  x: -0.000897176319058
  y: -0.000170751375591
  z: -0.000628969209632
angular_velocity_covariance: [1.0966208586777776e-06, 0.0, 0.0, 0.0, 1.0966208586777776e-06, 0.0, 0.0, 0.0, 1.0966208586777776e-06]
linear_acceleration: 
  x: 0.266832507343
  y: 1.31672162737
  z: -9.99864089084
linear_acceleration_covariance: [0.0015387262937311438, 0.0, 0.0, 0.0, 0.0015387262937311438, 0.0, 0.0, 0.0, 0.0015387262937311438]
---
header: 
  seq: 60
  stamp: 
    secs: 1559011314
    nsecs: 384613710
  frame_id: "imu_link"
orientation: 
  x: 0.8537344376
  y: 0.0177245904
  z: 0.5174371902
  w: -0.0549865134
orientation_covariance: [0.002741552146694444, 0.0, 0.0, 0.0, 0.002741552146694444, 0.0, 0.0, 0.0, 0.007615422629706791]
angular_velocity: 
  x: 0.00496379833647
  y: 0.00183617284968
  z: 0.00106517926169
angular_velocity_covariance: [1.0966208586777776e-06, 0.0, 0.0, 0.0, 1.0966208586777776e-06, 0.0, 0.0, 0.0, 1.0966208586777776e-06]
linear_acceleration: 
  x: 0.275473567503
  y: 1.31073626935
  z: -10.0011531659
linear_acceleration_covariance: [0.0015387262937311438, 0.0, 0.0, 0.0, 0.0015387262937311438, 0.0, 0.0, 0.0, 0.0015387262937311438]
---
header: 
  seq: 61
  stamp: 
    secs: 1559011314
    nsecs: 434600956
  frame_id: "imu_link"
orientation: 
  x: 0.8586019861
  y: 0.0177245904
  z: 0.5093469889
  w: -0.0550872213
orientation_covariance: [0.002741552146694444, 0.0, 0.0, 0.0, 0.002741552146694444, 0.0, 0.0, 0.0, 0.007615422629706791]
angular_velocity: 
  x: 7.7574904703e-05
  y: -0.00242194813516
  z: -0.00144511469134
angular_velocity_covariance: [1.0966208586777776e-06, 0.0, 0.0, 0.0, 1.0966208586777776e-06, 0.0, 0.0, 0.0, 1.0966208586777776e-06]
linear_acceleration: 
  x: 0.270139713928
  y: 1.31343325335
  z: -10.0079663531
linear_acceleration_covariance: [0.0015387262937311438, 0.0, 0.0, 0.0, 0.0015387262937311438, 0.0, 0.0, 0.0, 0.0015387262937311438]
---
header: 
  seq: 62
  stamp: 
    secs: 1559011314
    nsecs: 485576573
  frame_id: "imu_link"
orientation: 
  x: 0.8633016881
  y: 0.0177581597
  z: 0.5012567876
  w: -0.0552214985
orientation_covariance: [0.002741552146694444, 0.0, 0.0, 0.0, 0.002741552146694444, 0.0, 0.0, 0.0, 0.007615422629706791]
angular_velocity: 
  x: 0.000586230675623
  y: 0.00347738540274
  z: 0.000942046162163
angular_velocity_covariance: [1.0966208586777776e-06, 0.0, 0.0, 0.0, 1.0966208586777776e-06, 0.0, 0.0, 0.0, 1.0966208586777776e-06]
linear_acceleration: 
  x: 0.281806241123
  y: 1.31259914061
  z: -10.0014512721
linear_acceleration_covariance: [0.0015387262937311438, 0.0, 0.0, 0.0, 0.0015387262937311438, 0.0, 0.0, 0.0, 0.0015387262937311438]
---
header: 
  seq: 63
  stamp: 
    secs: 1559011314
    nsecs: 536570724
  frame_id: "imu_link"
orientation: 
  x: 0.8678671129
  y: 0.0177581597
  z: 0.4933008635
  w: -0.0553222064
orientation_covariance: [0.002741552146694444, 0.0, 0.0, 0.0, 0.002741552146694444, 0.0, 0.0, 0.0, 0.007615422629706791]
angular_velocity: 
  x: 0.000191960794414
  y: 0.0021765339396
  z: -0.000522270759372
angular_velocity_covariance: [1.0966208586777776e-06, 0.0, 0.0, 0.0, 1.0966208586777776e-06, 0.0, 0.0, 0.0, 1.0966208586777776e-06]
linear_acceleration: 
  x: 0.273551221138
  y: 1.30831401064
  z: -10.0100285463
linear_acceleration_covariance: [0.0015387262937311438, 0.0, 0.0, 0.0, 0.0015387262937311438, 0.0, 0.0, 0.0, 0.0015387262937311438]
---
header: 
  seq: 64
  stamp: 
    secs: 1559011314
    nsecs: 586587630
  frame_id: "imu_link"
orientation: 
  x: 0.8723318298
  y: 0.017791729
  z: 0.4853785087
  w: -0.0554564836
orientation_covariance: [0.002741552146694444, 0.0, 0.0, 0.0, 0.002741552146694444, 0.0, 0.0, 0.0, 0.007615422629706791]
angular_velocity: 
  x: -0.00026791984108
  y: -0.00248039489834
  z: 0.00160597573292
angular_velocity_covariance: [1.0966208586777776e-06, 0.0, 0.0, 0.0, 1.0966208586777776e-06, 0.0, 0.0, 0.0, 1.0966208586777776e-06]
linear_acceleration: 
  x: 0.276292153877
  y: 1.30843106114
  z: -10.0016570238
linear_acceleration_covariance: [0.0015387262937311438, 0.0, 0.0, 0.0, 0.0015387262937311438, 0.0, 0.0, 0.0, 0.0015387262937311438]
---
header: 
  seq: 65
  stamp: 
    secs: 1559011314
    nsecs: 636587318
  frame_id: "imu_link"
orientation: 
  x: 0.8766622695
  y: 0.017791729
  z: 0.4775232925
  w: -0.0555236222
orientation_covariance: [0.002741552146694444, 0.0, 0.0, 0.0, 0.002741552146694444, 0.0, 0.0, 0.0, 0.007615422629706791]
angular_velocity: 
  x: 0.00207281096718
  y: 0.00350511816834
  z: 6.89757096866e-05
angular_velocity_covariance: [1.0966208586777776e-06, 0.0, 0.0, 0.0, 1.0966208586777776e-06, 0.0, 0.0, 0.0, 1.0966208586777776e-06]
linear_acceleration: 
  x: 0.277189011385
  y: 1.30941101209
  z: -10.0029160839
linear_acceleration_covariance: [0.0015387262937311438, 0.0, 0.0, 0.0, 0.0015387262937311438, 0.0, 0.0, 0.0, 0.0015387262937311438]
---
header: 
  seq: 66
  stamp: 
    secs: 1559011314
    nsecs: 687578844
  frame_id: "imu_link"
orientation: 
  x: 0.8808248627
  y: 0.0178252983
  z: 0.4697687842
  w: -0.0556243301
orientation_covariance: [0.002741552146694444, 0.0, 0.0, 0.0, 0.002741552146694444, 0.0, 0.0, 0.0, 0.007615422629706791]
angular_velocity: 
  x: -0.000861030539156
  y: -0.00126746780261
  z: 0.00107072489155
angular_velocity_covariance: [1.0966208586777776e-06, 0.0, 0.0, 0.0, 1.0966208586777776e-06, 0.0, 0.0, 0.0, 1.0966208586777776e-06]
linear_acceleration: 
  x: 0.270490481861
  y: 1.3152351882
  z: -10.0051793527
linear_acceleration_covariance: [0.0015387262937311438, 0.0, 0.0, 0.0, 0.0015387262937311438, 0.0, 0.0, 0.0, 0.0015387262937311438]
---
header: 
  seq: 67
  stamp: 
    secs: 1559011314
    nsecs: 737585359
  frame_id: "imu_link"
orientation: 
  x: 0.884886748
  y: 0.0178252983
  z: 0.4620814145
  w: -0.055725038
orientation_covariance: [0.002741552146694444, 0.0, 0.0, 0.0, 0.002741552146694444, 0.0, 0.0, 0.0, 0.007615422629706791]
angular_velocity: 
  x: 0.000396150966294
  y: 0.00114097519299
  z: -0.00140362893535
angular_velocity_covariance: [1.0966208586777776e-06, 0.0, 0.0, 0.0, 1.0966208586777776e-06, 0.0, 0.0, 0.0, 1.0966208586777776e-06]
linear_acceleration: 
  x: 0.273849363835
  y: 1.31565750527
  z: -10.0076378518
linear_acceleration_covariance: [0.0015387262937311438, 0.0, 0.0, 0.0, 0.0015387262937311438, 0.0, 0.0, 0.0, 0.0015387262937311438]
---
header: 
  seq: 68
  stamp: 
    secs: 1559011314
    nsecs: 788595544
  frame_id: "imu_link"
orientation: 
  x: 0.8887807868
  y: 0.0178252983
  z: 0.4544947527
  w: -0.0557921766
orientation_covariance: [0.002741552146694444, 0.0, 0.0, 0.0, 0.002741552146694444, 0.0, 0.0, 0.0, 0.007615422629706791]
angular_velocity: 
  x: 0.00131657373633
  y: -0.000845828674699
  z: 0.000493493762853
angular_velocity_covariance: [1.0966208586777776e-06, 0.0, 0.0, 0.0, 1.0966208586777776e-06, 0.0, 0.0, 0.0, 1.0966208586777776e-06]
linear_acceleration: 
  x: 0.268696072725
  y: 1.31128615832
  z: -9.99801077625
linear_acceleration_covariance: [0.0015387262937311438, 0.0, 0.0, 0.0, 0.0015387262937311438, 0.0, 0.0, 0.0, 0.0015387262937311438]
---
header: 
  seq: 69
  stamp: 
    secs: 1559011314
    nsecs: 839918999
  frame_id: "imu_link"
orientation: 
  x: 0.892607687
  y: 0.0178924369
  z: 0.4469752295
  w: -0.0558593152
orientation_covariance: [0.002741552146694444, 0.0, 0.0, 0.0, 0.002741552146694444, 0.0, 0.0, 0.0, 0.007615422629706791]
angular_velocity: 
  x: -0.00201447278504
  y: 0.000200920826302
  z: 0.00163997941065
angular_velocity_covariance: [1.0966208586777776e-06, 0.0, 0.0, 0.0, 1.0966208586777776e-06, 0.0, 0.0, 0.0, 1.0966208586777776e-06]
linear_acceleration: 
  x: 0.259906671868
  y: 1.3169260639
  z: -10.0106902251
linear_acceleration_covariance: [0.0015387262937311438, 0.0, 0.0, 0.0, 0.0015387262937311438, 0.0, 0.0, 0.0, 0.0015387262937311438]
---
header: 
  seq: 70
  stamp: 
    secs: 1559011314
    nsecs: 888605589
  frame_id: "imu_link"
orientation: 
  x: 0.8962667407
  y: 0.0178924369
  z: 0.4395564142
  w: -0.0559264538
orientation_covariance: [0.002741552146694444, 0.0, 0.0, 0.0, 0.002741552146694444, 0.0, 0.0, 0.0, 0.007615422629706791]
angular_velocity: 
  x: 0.00256087645872
  y: 0.0066451455594
  z: 0.00104410569919
angular_velocity_covariance: [1.0966208586777776e-06, 0.0, 0.0, 0.0, 1.0966208586777776e-06, 0.0, 0.0, 0.0, 1.0966208586777776e-06]
linear_acceleration: 
  x: 0.277632042445
  y: 1.31377300669
  z: -10.0071678962
linear_acceleration_covariance: [0.0015387262937311438, 0.0, 0.0, 0.0, 0.0015387262937311438, 0.0, 0.0, 0.0, 0.0015387262937311438]
---
header: 
  seq: 71
  stamp: 
    secs: 1559011314
    nsecs: 939576084
  frame_id: "imu_link"
orientation: 
  x: 0.8998250865
  y: 0.0178924369
  z: 0.4322383068
  w: -0.0559935924
orientation_covariance: [0.002741552146694444, 0.0, 0.0, 0.0, 0.002741552146694444, 0.0, 0.0, 0.0, 0.007615422629706791]
angular_velocity: 
  x: -0.000340079982077
  y: -0.00757153342666
  z: 0.00103813471778
angular_velocity_covariance: [1.0966208586777776e-06, 0.0, 0.0, 0.0, 1.0966208586777776e-06, 0.0, 0.0, 0.0, 1.0966208586777776e-06]
linear_acceleration: 
  x: 0.270269185527
  y: 1.31543860182
  z: -10.0072988291
linear_acceleration_covariance: [0.0015387262937311438, 0.0, 0.0, 0.0, 0.0015387262937311438, 0.0, 0.0, 0.0, 0.0015387262937311438]
---
header: 
  seq: 72
  stamp: 
    secs: 1559011314
    nsecs: 990589793
  frame_id: "imu_link"
orientation: 
  x: 0.9032491551
  y: 0.0178924369
  z: 0.4250209073
  w: -0.0560271617
orientation_covariance: [0.002741552146694444, 0.0, 0.0, 0.0, 0.002741552146694444, 0.0, 0.0, 0.0, 0.007615422629706791]
angular_velocity: 
  x: -0.000113672879694
  y: 0.0037804307684
  z: 0.00270044664571
angular_velocity_covariance: [1.0966208586777776e-06, 0.0, 0.0, 0.0, 1.0966208586777776e-06, 0.0, 0.0, 0.0, 1.0966208586777776e-06]
linear_acceleration: 
  x: 0.268266887527
  y: 1.32033046551
  z: -10.0057241271
linear_acceleration_covariance: [0.0015387262937311438, 0.0, 0.0, 0.0, 0.0015387262937311438, 0.0, 0.0, 0.0, 0.0015387262937311438]
---
header: 
  seq: 73
  stamp: 
    secs: 1559011315
    nsecs:  40569610
  frame_id: "imu_link"
orientation: 
  x: 0.9065725158
  y: 0.0178924369
  z: 0.4179042157
  w: -0.0560943003
orientation_covariance: [0.002741552146694444, 0.0, 0.0, 0.0, 0.002741552146694444, 0.0, 0.0, 0.0, 0.007615422629706791]
angular_velocity: 
  x: 0.000220681176003
  y: 0.000333123449008
  z: -0.000402931071442
angular_velocity_covariance: [1.0966208586777776e-06, 0.0, 0.0, 0.0, 1.0966208586777776e-06, 0.0, 0.0, 0.0, 1.0966208586777776e-06]
linear_acceleration: 
  x: 0.274596821201
  y: 1.32452280264
  z: -9.99921021516
linear_acceleration_covariance: [0.0015387262937311438, 0.0, 0.0, 0.0, 0.0015387262937311438, 0.0, 0.0, 0.0, 0.0015387262937311438]
---
header: 
  seq: 74
  stamp: 
    secs: 1559011315
    nsecs:  90580392
  frame_id: "imu_link"
orientation: 
  x: 0.9097615993
  y: 0.0179260062
  z: 0.4108546627
  w: -0.0561278696
orientation_covariance: [0.002741552146694444, 0.0, 0.0, 0.0, 0.002741552146694444, 0.0, 0.0, 0.0, 0.007615422629706791]
angular_velocity: 
  x: -0.000120005478202
  y: 0.000271420815354
  z: -0.000124408682819
angular_velocity_covariance: [1.0966208586777776e-06, 0.0, 0.0, 0.0, 1.0966208586777776e-06, 0.0, 0.0, 0.0, 1.0966208586777776e-06]
linear_acceleration: 
  x: 0.276654813177
  y: 1.32509344213
  z: -9.98946155909
linear_acceleration_covariance: [0.0015387262937311438, 0.0, 0.0, 0.0, 0.0015387262937311438, 0.0, 0.0, 0.0, 0.0015387262937311438]
---
header: 
  seq: 75
  stamp: 
    secs: 1559011315
    nsecs: 141553102
  frame_id: "imu_link"
orientation: 
  x: 0.9128499749
  y: 0.0179260062
  z: 0.4039393869
  w: -0.0561614389
orientation_covariance: [0.002741552146694444, 0.0, 0.0, 0.0, 0.002741552146694444, 0.0, 0.0, 0.0, 0.007615422629706791]
angular_velocity: 
  x: 0.00246227135891
  y: 0.00258111882367
  z: -0.000596963943024
angular_velocity_covariance: [1.0966208586777776e-06, 0.0, 0.0, 0.0, 1.0966208586777776e-06, 0.0, 0.0, 0.0, 1.0966208586777776e-06]
linear_acceleration: 
  x: 0.276573966493
  y: 1.31637485976
  z: -10.0064395819
linear_acceleration_covariance: [0.0015387262937311438, 0.0, 0.0, 0.0, 0.0015387262937311438, 0.0, 0.0, 0.0, 0.0015387262937311438]
---
header: 
  seq: 76
  stamp: 
    secs: 1559011315
    nsecs: 197731130
  frame_id: "imu_link"
orientation: 
  x: 0.9158376426
  y: 0.0179260062
  z: 0.3970912497
  w: -0.0562285775
orientation_covariance: [0.002741552146694444, 0.0, 0.0, 0.0, 0.002741552146694444, 0.0, 0.0, 0.0, 0.007615422629706791]
angular_velocity: 
  x: -0.00110635565927
  y: 0.00205841273239
  z: 0.000949156529195
angular_velocity_covariance: [1.0966208586777776e-06, 0.0, 0.0, 0.0, 1.0966208586777776e-06, 0.0, 0.0, 0.0, 1.0966208586777776e-06]
linear_acceleration: 
  x: 0.267666857541
  y: 1.31577703999
  z: -10.00657636
linear_acceleration_covariance: [0.0015387262937311438, 0.0, 0.0, 0.0, 0.0015387262937311438, 0.0, 0.0, 0.0, 0.0015387262937311438]
---
header: 
  seq: 77
  stamp: 
    secs: 1559011315
    nsecs: 241594412
  frame_id: "imu_link"
orientation: 
  x: 0.9187246024
  y: 0.0178924369
  z: 0.3903773897
  w: -0.0562621468
orientation_covariance: [0.002741552146694444, 0.0, 0.0, 0.0, 0.002741552146694444, 0.0, 0.0, 0.0, 0.007615422629706791]
angular_velocity: 
  x: 0.00052286203835
  y: 0.00171271478729
  z: 0.00119079555087
angular_velocity_covariance: [1.0966208586777776e-06, 0.0, 0.0, 0.0, 1.0966208586777776e-06, 0.0, 0.0, 0.0, 1.0966208586777776e-06]
linear_acceleration: 
  x: 0.271539004533
  y: 1.3138766132
  z: -10.0049408678
linear_acceleration_covariance: [0.0015387262937311438, 0.0, 0.0, 0.0, 0.0015387262937311438, 0.0, 0.0, 0.0, 0.0015387262937311438]
---
header: 
  seq: 78
  stamp: 
    secs: 1559011315
    nsecs: 292592407
  frame_id: "imu_link"
orientation: 
  x: 0.9215444236
  y: 0.0179260062
  z: 0.3837306683
  w: -0.0563292854
orientation_covariance: [0.002741552146694444, 0.0, 0.0, 0.0, 0.002741552146694444, 0.0, 0.0, 0.0, 0.007615422629706791]
angular_velocity: 
  x: 0.000717248448467
  y: -0.00273609867451
  z: -0.00263227622366
angular_velocity_covariance: [1.0966208586777776e-06, 0.0, 0.0, 0.0, 1.0966208586777776e-06, 0.0, 0.0, 0.0, 1.0966208586777776e-06]
linear_acceleration: 
  x: 0.274245669676
  y: 1.31219085207
  z: -9.99695629876
linear_acceleration_covariance: [0.0015387262937311438, 0.0, 0.0, 0.0, 0.0015387262937311438, 0.0, 0.0, 0.0, 0.0015387262937311438]
---
header: 
  seq: 79
  stamp: 
    secs: 1559011315
    nsecs: 342578958
  frame_id: "imu_link"
orientation: 
  x: 0.9242299676
  y: 0.0178924369
  z: 0.3771510855
  w: -0.0563628547
orientation_covariance: [0.002741552146694444, 0.0, 0.0, 0.0, 0.002741552146694444, 0.0, 0.0, 0.0, 0.007615422629706791]
angular_velocity: 
  x: 0.00307277061012
  y: 0.00122771024052
  z: 0.000203314192789
angular_velocity_covariance: [1.0966208586777776e-06, 0.0, 0.0, 0.0, 1.0966208586777776e-06, 0.0, 0.0, 0.0, 1.0966208586777776e-06]
linear_acceleration: 
  x: 0.266931529004
  y: 1.31025827657
  z: -9.991301634
linear_acceleration_covariance: [0.0015387262937311438, 0.0, 0.0, 0.0, 0.0015387262937311438, 0.0, 0.0, 0.0, 0.0015387262937311438]
---
header: 
  seq: 80
  stamp: 
    secs: 1559011315
    nsecs: 393588976
  frame_id: "imu_link"
orientation: 
  x: 0.9268148037
  y: 0.0178924369
  z: 0.3707393492
  w: -0.056396424
orientation_covariance: [0.002741552146694444, 0.0, 0.0, 0.0, 0.002741552146694444, 0.0, 0.0, 0.0, 0.007615422629706791]
angular_velocity: 
  x: -0.000626827497564
  y: -0.00248708166932
  z: 0.000822140975122
angular_velocity_covariance: [1.0966208586777776e-06, 0.0, 0.0, 0.0, 1.0966208586777776e-06, 0.0, 0.0, 0.0, 1.0966208586777776e-06]
linear_acceleration: 
  x: 0.26888989653
  y: 1.31719801271
  z: -10.0022929836
linear_acceleration_covariance: [0.0015387262937311438, 0.0, 0.0, 0.0, 0.0015387262937311438, 0.0, 0.0, 0.0, 0.0015387262937311438]
---
header: 
  seq: 81
  stamp: 
    secs: 1559011315
    nsecs: 444584176
  frame_id: "imu_link"
orientation: 
  x: 0.9293325012
  y: 0.0178924369
  z: 0.3643947515
  w: -0.056396424
