
header: 
  seq: 0
  stamp: 
    secs: 1559001919
    nsecs: 714596379
  frame_id: "imu_link"
orientation: 
  x: -0.5236139414
  y: 0.3507320464
  z: 0.0627074524
  w: -0.7738395036
orientation_covariance: [0.002741552146694444, 0.0, 0.0, 0.0, 0.002741552146694444, 0.0, 0.0, 0.0, 0.007615422629706791]
angular_velocity: 
  x: 0.00247146160534
  y: -0.00281937941485
  z: -0.000346702612222
angular_velocity_covariance: [1.0966208586777776e-06, 0.0, 0.0, 0.0, 1.0966208586777776e-06, 0.0, 0.0, 0.0, 1.0966208586777776e-06]
linear_acceleration: 
  x: -0.415562220743
  y: 1.21850339133
  z: -9.92337200711
linear_acceleration_covariance: [0.0015387262937311438, 0.0, 0.0, 0.0, 0.0015387262937311438, 0.0, 0.0, 0.0, 0.0015387262937311438]
---
header: 
  seq: 1
  stamp: 
    secs: 1559001919
    nsecs: 764620449
  frame_id: "imu_link"
orientation: 
  x: -0.5235803721
  y: 0.3532497439
  z: 0.0635466849
  w: -0.7726310088
orientation_covariance: [0.002741552146694444, 0.0, 0.0, 0.0, 0.002741552146694444, 0.0, 0.0, 0.0, 0.007615422629706791]
angular_velocity: 
  x: -0.002456302133
  y: 0.00211933163207
  z: -0.000180169999788
angular_velocity_covariance: [1.0966208586777776e-06, 0.0, 0.0, 0.0, 1.0966208586777776e-06, 0.0, 0.0, 0.0, 1.0966208586777776e-06]
linear_acceleration: 
  x: -0.408010599788
  y: 1.21705611513
  z: -9.92184640498
linear_acceleration_covariance: [0.0015387262937311438, 0.0, 0.0, 0.0, 0.0015387262937311438, 0.0, 0.0, 0.0, 0.0015387262937311438]
---
header: 
  seq: 2
  stamp: 
    secs: 1559001919
    nsecs: 818579663
  frame_id: "imu_link"
orientation: 
  x: -0.5238153572
  y: 0.352141957
  z: 0.0632445612
  w: -0.7730338404
orientation_covariance: [0.002741552146694444, 0.0, 0.0, 0.0, 0.002741552146694444, 0.0, 0.0, 0.0, 0.007615422629706791]
angular_velocity: 
  x: 0.000882946027262
  y: 7.30826408838e-05
  z: 0.000609256160949
angular_velocity_covariance: [1.0966208586777776e-06, 0.0, 0.0, 0.0, 1.0966208586777776e-06, 0.0, 0.0, 0.0, 1.0966208586777776e-06]
linear_acceleration: 
  x: -0.406984946534
  y: 1.21876452648
  z: -9.91885131481
linear_acceleration_covariance: [0.0015387262937311438, 0.0, 0.0, 0.0, 0.0015387262937311438, 0.0, 0.0, 0.0, 0.0015387262937311438]
---
header: 
  seq: 3
  stamp: 
    secs: 1559001919
    nsecs: 873546259
  frame_id: "imu_link"
orientation: 
  x: -0.5241174809
  y: 0.3508998929
  z: 0.0629088682
  w: -0.7734031027
orientation_covariance: [0.002741552146694444, 0.0, 0.0, 0.0, 0.002741552146694444, 0.0, 0.0, 0.0, 0.007615422629706791]
angular_velocity: 
  x: 0.000172961097095
  y: -0.00218455671238
  z: -0.000584019198617
angular_velocity_covariance: [1.0966208586777776e-06, 0.0, 0.0, 0.0, 1.0966208586777776e-06, 0.0, 0.0, 0.0, 1.0966208586777776e-06]
linear_acceleration: 
  x: -0.408183399071
  y: 1.2130699681
  z: -9.91645360602
linear_acceleration_covariance: [0.0015387262937311438, 0.0, 0.0, 0.0, 0.0015387262937311438, 0.0, 0.0, 0.0, 0.0015387262937311438]
---
header: 
  seq: 4
  stamp: 
    secs: 1559001919
    nsecs: 926578713
  frame_id: "imu_link"
orientation: 
  x: -0.5240503423
  y: 0.3527797737
  z: 0.0635466849
  w: -0.7725303009
orientation_covariance: [0.002741552146694444, 0.0, 0.0, 0.0, 0.002741552146694444, 0.0, 0.0, 0.0, 0.007615422629706791]
angular_velocity: 
  x: 0.000536858490819
  y: -0.00299656545187
  z: -0.00163415959743
angular_velocity_covariance: [1.0966208586777776e-06, 0.0, 0.0, 0.0, 1.0966208586777776e-06, 0.0, 0.0, 0.0, 1.0966208586777776e-06]
linear_acceleration: 
  x: -0.407903157358
  y: 1.21561629159
  z: -9.91658687701
linear_acceleration_covariance: [0.0015387262937311438, 0.0, 0.0, 0.0, 0.0015387262937311438, 0.0, 0.0, 0.0, 0.0015387262937311438]
---
header: 
  seq: 5
  stamp: 
    secs: 1559001919
    nsecs: 979550774
  frame_id: "imu_link"
orientation: 
  x: -0.5243860353
  y: 0.3516719868
  z: 0.0632445612
  w: -0.7728324246
orientation_covariance: [0.002741552146694444, 0.0, 0.0, 0.0, 0.002741552146694444, 0.0, 0.0, 0.0, 0.007615422629706791]
angular_velocity: 
  x: 0.00136129416673
  y: -0.00385788688416
  z: -0.000113879468108
angular_velocity_covariance: [1.0966208586777776e-06, 0.0, 0.0, 0.0, 1.0966208586777776e-06, 0.0, 0.0, 0.0, 1.0966208586777776e-06]
linear_acceleration: 
  x: -0.411924996752
  y: 1.21044846049
  z: -9.90829835662
linear_acceleration_covariance: [0.0015387262937311438, 0.0, 0.0, 0.0, 0.0015387262937311438, 0.0, 0.0, 0.0, 0.0015387262937311438]
---
header: 
  seq: 6
  stamp: 
    secs: 1559001920
    nsecs:  34610769
  frame_id: "imu_link"
orientation: 
  x: -0.5247552976
  y: 0.3506313385
  z: 0.0630431454
  w: -0.773100979
orientation_covariance: [0.002741552146694444, 0.0, 0.0, 0.0, 0.002741552146694444, 0.0, 0.0, 0.0, 0.007615422629706791]
angular_velocity: 
  x: -0.000445748538009
  y: 0.00184322359468
  z: 0.00229595070705
angular_velocity_covariance: [1.0966208586777776e-06, 0.0, 0.0, 0.0, 1.0966208586777776e-06, 0.0, 0.0, 0.0, 1.0966208586777776e-06]
linear_acceleration: 
  x: -0.415275366626
  y: 1.21023350257
  z: -9.92006127512
linear_acceleration_covariance: [0.0015387262937311438, 0.0, 0.0, 0.0, 0.0015387262937311438, 0.0, 0.0, 0.0, 0.0015387262937311438]
---
header: 
  seq: 7
  stamp: 
    secs: 1559001920
    nsecs:  87617896
  frame_id: "imu_link"
orientation: 
  x: -0.5244196046
  y: 0.3530818974
  z: 0.0638152393
  w: -0.7721274693
orientation_covariance: [0.002741552146694444, 0.0, 0.0, 0.0, 0.002741552146694444, 0.0, 0.0, 0.0, 0.007615422629706791]
angular_velocity: 
  x: -0.00292446816758
  y: 0.00251885468955
  z: -0.00331817804375
angular_velocity_covariance: [1.0966208586777776e-06, 0.0, 0.0, 0.0, 1.0966208586777776e-06, 0.0, 0.0, 0.0, 1.0966208586777776e-06]
linear_acceleration: 
  x: -0.416254111998
  y: 1.21154480436
  z: -9.91977252131
linear_acceleration_covariance: [0.0015387262937311438, 0.0, 0.0, 0.0, 0.0015387262937311438, 0.0, 0.0, 0.0, 0.0015387262937311438]
---
header: 
  seq: 8
  stamp: 
    secs: 1559001920
    nsecs: 140610426
  frame_id: "imu_link"
orientation: 
  x: -0.5245538818
  y: 0.3520748184
  z: 0.0635131156
  w: -0.7725303009
orientation_covariance: [0.002741552146694444, 0.0, 0.0, 0.0, 0.002741552146694444, 0.0, 0.0, 0.0, 0.007615422629706791]
angular_velocity: 
  x: -0.00179642308982
  y: 0.00495670246859
  z: -0.000701468503804
angular_velocity_covariance: [1.0966208586777776e-06, 0.0, 0.0, 0.0, 1.0966208586777776e-06, 0.0, 0.0, 0.0, 1.0966208586777776e-06]
linear_acceleration: 
  x: -0.411612058346
  y: 1.2129033063
  z: -9.92474797164
linear_acceleration_covariance: [0.0015387262937311438, 0.0, 0.0, 0.0, 0.0015387262937311438, 0.0, 0.0, 0.0, 0.0015387262937311438]
---
header: 
  seq: 9
  stamp: 
    secs: 1559001920
    nsecs: 195586078
  frame_id: "imu_link"
orientation: 
  x: -0.524688159
  y: 0.3510006008
  z: 0.0632445612
  w: -0.7729331325
orientation_covariance: [0.002741552146694444, 0.0, 0.0, 0.0, 0.002741552146694444, 0.0, 0.0, 0.0, 0.007615422629706791]
angular_velocity: 
  x: 0.00125282730859
  y: 0.00102078054323
  z: -0.00103112220371
angular_velocity_covariance: [1.0966208586777776e-06, 0.0, 0.0, 0.0, 1.0966208586777776e-06, 0.0, 0.0, 0.0, 1.0966208586777776e-06]
linear_acceleration: 
  x: -0.409837596019
  y: 1.21350434093
  z: -9.917387672
linear_acceleration_covariance: [0.0015387262937311438, 0.0, 0.0, 0.0, 0.0015387262937311438, 0.0, 0.0, 0.0, 0.0015387262937311438]
---
header: 
  seq: 10
  stamp: 
    secs: 1559001920
    nsecs: 245614263
  frame_id: "imu_link"
orientation: 
  x: -0.5249231441
  y: 0.3497249674
  z: 0.0629088682
  w: -0.7734031027
orientation_covariance: [0.002741552146694444, 0.0, 0.0, 0.0, 0.002741552146694444, 0.0, 0.0, 0.0, 0.007615422629706791]
angular_velocity: 
  x: 0.00112250419427
  y: -0.00302756527113
  z: -0.00174077277582
angular_velocity_covariance: [1.0966208586777776e-06, 0.0, 0.0, 0.0, 1.0966208586777776e-06, 0.0, 0.0, 0.0, 1.0966208586777776e-06]
linear_acceleration: 
  x: -0.416621484005
  y: 1.20742268293
  z: -9.91922891595
linear_acceleration_covariance: [0.0015387262937311438, 0.0, 0.0, 0.0, 0.0015387262937311438, 0.0, 0.0, 0.0, 0.0015387262937311438]
---
header: 
  seq: 11
  stamp: 
    secs: 1559001920
    nsecs: 298601294
  frame_id: "imu_link"
orientation: 
  x: -0.5243188967
  y: 0.3520412491
  z: 0.0635466849
  w: -0.7726981474
orientation_covariance: [0.002741552146694444, 0.0, 0.0, 0.0, 0.002741552146694444, 0.0, 0.0, 0.0, 0.007615422629706791]
angular_velocity: 
  x: 0.00246377979
  y: -0.00155337895158
  z: 0.000840935181215
angular_velocity_covariance: [1.0966208586777776e-06, 0.0, 0.0, 0.0, 1.0966208586777776e-06, 0.0, 0.0, 0.0, 1.0966208586777776e-06]
linear_acceleration: 
  x: -0.416380551389
  y: 1.2117404
  z: -9.90506595057
linear_acceleration_covariance: [0.0015387262937311438, 0.0, 0.0, 0.0, 0.0015387262937311438, 0.0, 0.0, 0.0, 0.0015387262937311438]
---
header: 
  seq: 12
  stamp: 
    secs: 1559001920
    nsecs: 352611877
  frame_id: "imu_link"
orientation: 
  x: -0.5244531739
  y: 0.3508998929
  z: 0.0632109919
  w: -0.7731345483
orientation_covariance: [0.002741552146694444, 0.0, 0.0, 0.0, 0.002741552146694444, 0.0, 0.0, 0.0, 0.007615422629706791]
angular_velocity: 
  x: -0.000533090273921
  y: 0.00366061348648
  z: 0.000687833587157
angular_velocity_covariance: [1.0966208586777776e-06, 0.0, 0.0, 0.0, 1.0966208586777776e-06, 0.0, 0.0, 0.0, 1.0966208586777776e-06]
linear_acceleration: 
  x: -0.417595918528
  y: 1.21245841208
  z: -9.91978070462
linear_acceleration_covariance: [0.0015387262937311438, 0.0, 0.0, 0.0, 0.0015387262937311438, 0.0, 0.0, 0.0, 0.0015387262937311438]
---
header: 
  seq: 13
  stamp: 
    secs: 1559001920
    nsecs: 406613684
  frame_id: "imu_link"
orientation: 
  x: -0.5246545897
  y: 0.3497585367
  z: 0.0629088682
  w: -0.7735373799
orientation_covariance: [0.002741552146694444, 0.0, 0.0, 0.0, 0.002741552146694444, 0.0, 0.0, 0.0, 0.007615422629706791]
angular_velocity: 
  x: 0.00257032703955
  y: -0.000588010104156
  z: -1.96248834869e-05
angular_velocity_covariance: [1.0966208586777776e-06, 0.0, 0.0, 0.0, 1.0966208586777776e-06, 0.0, 0.0, 0.0, 1.0966208586777776e-06]
linear_acceleration: 
  x: -0.414425873657
  y: 1.22040440265
  z: -9.91524481475
linear_acceleration_covariance: [0.0015387262937311438, 0.0, 0.0, 0.0, 0.0015387262937311438, 0.0, 0.0, 0.0, 0.0015387262937311438]
---
header: 
  seq: 14
  stamp: 
    secs: 1559001920
    nsecs: 456618721
  frame_id: "imu_link"
orientation: 
  x: -0.5241510502
  y: 0.3522762342
  z: 0.0636473928
  w: -0.7726981474
orientation_covariance: [0.002741552146694444, 0.0, 0.0, 0.0, 0.002741552146694444, 0.0, 0.0, 0.0, 0.007615422629706791]
angular_velocity: 
  x: 0.00258087773477
  y: -0.000934984624085
  z: -0.000639410153491
angular_velocity_covariance: [1.0966208586777776e-06, 0.0, 0.0, 0.0, 1.0966208586777776e-06, 0.0, 0.0, 0.0, 1.0966208586777776e-06]
linear_acceleration: 
  x: -0.413456663299
  y: 1.22076680622
  z: -9.91358360354
linear_acceleration_covariance: [0.0015387262937311438, 0.0, 0.0, 0.0, 0.0015387262937311438, 0.0, 0.0, 0.0, 0.0015387262937311438]
---
header: 
  seq: 15
  stamp: 
    secs: 1559001920
    nsecs: 510586834
  frame_id: "imu_link"
orientation: 
  x: -0.524352466
  y: 0.3512020166
  z: 0.0633452691
  w: -0.7730674097
orientation_covariance: [0.002741552146694444, 0.0, 0.0, 0.0, 0.002741552146694444, 0.0, 0.0, 0.0, 0.007615422629706791]
angular_velocity: 
  x: 0.00260633667054
  y: -0.00161651758562
  z: 6.99023870166e-05
angular_velocity_covariance: [1.0966208586777776e-06, 0.0, 0.0, 0.0, 1.0966208586777776e-06, 0.0, 0.0, 0.0, 1.0966208586777776e-06]
linear_acceleration: 
  x: -0.411288087088
  y: 1.21494489513
  z: -9.92190135003
linear_acceleration_covariance: [0.0015387262937311438, 0.0, 0.0, 0.0, 0.0015387262937311438, 0.0, 0.0, 0.0, 0.0015387262937311438]
---
header: 
  seq: 16
  stamp: 
    secs: 1559001920
    nsecs: 561581445
  frame_id: "imu_link"
orientation: 
  x: -0.5244867432
  y: 0.3502620762
  z: 0.0630431454
  w: -0.773436672
orientation_covariance: [0.002741552146694444, 0.0, 0.0, 0.0, 0.002741552146694444, 0.0, 0.0, 0.0, 0.007615422629706791]
angular_velocity: 
  x: -0.00165400534904
  y: 0.00209805469145
  z: 0.00190222054509
angular_velocity_covariance: [1.0966208586777776e-06, 0.0, 0.0, 0.0, 1.0966208586777776e-06, 0.0, 0.0, 0.0, 1.0966208586777776e-06]
linear_acceleration: 
  x: -0.411135161549
  y: 1.21422856355
  z: -9.91492215867
linear_acceleration_covariance: [0.0015387262937311438, 0.0, 0.0, 0.0, 0.0015387262937311438, 0.0, 0.0, 0.0, 0.0015387262937311438]
---
header: 
  seq: 17
  stamp: 
    secs: 1559001920
    nsecs: 615587040
  frame_id: "imu_link"
orientation: 
  x: -0.5239160651
  y: 0.3529476202
  z: 0.0638152393
  w: -0.7725638702
orientation_covariance: [0.002741552146694444, 0.0, 0.0, 0.0, 0.002741552146694444, 0.0, 0.0, 0.0, 0.007615422629706791]
angular_velocity: 
  x: 0.00144324280638
  y: -0.000242234916977
  z: 0.000292987771355
angular_velocity_covariance: [1.0966208586777776e-06, 0.0, 0.0, 0.0, 1.0966208586777776e-06, 0.0, 0.0, 0.0, 1.0966208586777776e-06]
linear_acceleration: 
  x: -0.414820097139
  y: 1.21009182908
  z: -9.92380221522
linear_acceleration_covariance: [0.0015387262937311438, 0.0, 0.0, 0.0, 0.0015387262937311438, 0.0, 0.0, 0.0, 0.0015387262937311438]
---
header: 
  seq: 18
  stamp: 
    secs: 1559001920
    nsecs: 668587108
  frame_id: "imu_link"
orientation: 
  x: -0.5242181888
  y: 0.3518734026
  z: 0.0635466849
  w: -0.7728659939
orientation_covariance: [0.002741552146694444, 0.0, 0.0, 0.0, 0.002741552146694444, 0.0, 0.0, 0.0, 0.007615422629706791]
angular_velocity: 
  x: 0.00347700621438
  y: -0.000496208808771
  z: 0.000381444738482
angular_velocity_covariance: [1.0966208586777776e-06, 0.0, 0.0, 0.0, 1.0966208586777776e-06, 0.0, 0.0, 0.0, 1.0966208586777776e-06]
linear_acceleration: 
  x: -0.404926662298
  y: 1.21102552973
  z: -9.92983798825
linear_acceleration_covariance: [0.0015387262937311438, 0.0, 0.0, 0.0, 0.0015387262937311438, 0.0, 0.0, 0.0, 0.0015387262937311438]
---
header: 
  seq: 19
  stamp: 
    secs: 1559001920
    nsecs: 723587175
  frame_id: "imu_link"
orientation: 
  x: -0.5245203125
  y: 0.3508663236
  z: 0.0633116998
  w: -0.773100979
orientation_covariance: [0.002741552146694444, 0.0, 0.0, 0.0, 0.002741552146694444, 0.0, 0.0, 0.0, 0.007615422629706791]
angular_velocity: 
  x: 0.00171051793946
  y: -0.00440903847472
  z: 0.00108033918916
angular_velocity_covariance: [1.0966208586777776e-06, 0.0, 0.0, 0.0, 1.0966208586777776e-06, 0.0, 0.0, 0.0, 1.0966208586777776e-06]
linear_acceleration: 
  x: -0.409371257149
  y: 1.216214842
  z: -9.92071126347
linear_acceleration_covariance: [0.0015387262937311438, 0.0, 0.0, 0.0, 0.0015387262937311438, 0.0, 0.0, 0.0, 0.0015387262937311438]
---
header: 
  seq: 20
  stamp: 
    secs: 1559001920
    nsecs: 773601473
  frame_id: "imu_link"
orientation: 
  x: -0.5248224362
  y: 0.3498592446
  z: 0.0630431454
  w: -0.7733695334
orientation_covariance: [0.002741552146694444, 0.0, 0.0, 0.0, 0.002741552146694444, 0.0, 0.0, 0.0, 0.007615422629706791]
angular_velocity: 
  x: -0.000221686314506
  y: -0.00205169566276
  z: 0.000452084696285
angular_velocity_covariance: [1.0966208586777776e-06, 0.0, 0.0, 0.0, 1.0966208586777776e-06, 0.0, 0.0, 0.0, 1.0966208586777776e-06]
linear_acceleration: 
  x: -0.409130835989
  y: 1.22005588147
  z: -9.9199537231
linear_acceleration_covariance: [0.0015387262937311438, 0.0, 0.0, 0.0, 0.0015387262937311438, 0.0, 0.0, 0.0, 0.0015387262937311438]
---
header: 
  seq: 21
  stamp: 
    secs: 1559001920
    nsecs: 826582828
  frame_id: "imu_link"
orientation: 
  x: -0.5243860353
  y: 0.35247765
  z: 0.0638152393
  w: -0.772429593
orientation_covariance: [0.002741552146694444, 0.0, 0.0, 0.0, 0.002741552146694444, 0.0, 0.0, 0.0, 0.007615422629706791]
angular_velocity: 
  x: 0.000967039174778
  y: 0.00286285057823
  z: 0.00202129713533
angular_velocity_covariance: [1.0966208586777776e-06, 0.0, 0.0, 0.0, 1.0966208586777776e-06, 0.0, 0.0, 0.0, 1.0966208586777776e-06]
linear_acceleration: 
  x: -0.406338794118
  y: 1.21148737509
  z: -9.91818145273
linear_acceleration_covariance: [0.0015387262937311438, 0.0, 0.0, 0.0, 0.0015387262937311438, 0.0, 0.0, 0.0, 0.0015387262937311438]
---
header: 
  seq: 22
  stamp: 
    secs: 1559001920
    nsecs: 879588090
  frame_id: "imu_link"
orientation: 
  x: -0.5244531739
  y: 0.3516384175
  z: 0.0635466849
  w: -0.7727988553
orientation_covariance: [0.002741552146694444, 0.0, 0.0, 0.0, 0.002741552146694444, 0.0, 0.0, 0.0, 0.007615422629706791]
angular_velocity: 
  x: 0.000351220493362
  y: -2.16102908855e-05
  z: 0.00157178649217
angular_velocity_covariance: [1.0966208586777776e-06, 0.0, 0.0, 0.0, 1.0966208586777776e-06, 0.0, 0.0, 0.0, 1.0966208586777776e-06]
linear_acceleration: 
  x: -0.413047790237
  y: 1.20624326389
  z: -9.92487072123
linear_acceleration_covariance: [0.0015387262937311438, 0.0, 0.0, 0.0, 0.0015387262937311438, 0.0, 0.0, 0.0, 0.0015387262937311438]
---
header: 
  seq: 23
  stamp: 
    secs: 1559001920
    nsecs: 934591638
  frame_id: "imu_link"
orientation: 
  x: -0.5245203125
  y: 0.3506649078
  z: 0.0632781305
  w: -0.7732016869
orientation_covariance: [0.002741552146694444, 0.0, 0.0, 0.0, 0.002741552146694444, 0.0, 0.0, 0.0, 0.007615422629706791]
angular_velocity: 
  x: 0.00304201109953
  y: -0.00379306647949
  z: -0.000348515590343
angular_velocity_covariance: [1.0966208586777776e-06, 0.0, 0.0, 0.0, 1.0966208586777776e-06, 0.0, 0.0, 0.0, 1.0966208586777776e-06]
linear_acceleration: 
  x: -0.412928438174
  y: 1.21094274682
  z: -9.91179029039
linear_acceleration_covariance: [0.0015387262937311438, 0.0, 0.0, 0.0, 0.0015387262937311438, 0.0, 0.0, 0.0, 0.0015387262937311438]
---
header: 
  seq: 24
  stamp: 
    secs: 1559001920
    nsecs: 984587259
  frame_id: "imu_link"
orientation: 
  x: -0.524016773
  y: 0.3532833132
  z: 0.0640166551
  w: -0.7722953158
orientation_covariance: [0.002741552146694444, 0.0, 0.0, 0.0, 0.002741552146694444, 0.0, 0.0, 0.0, 0.007615422629706791]
angular_velocity: 
  x: -0.00167230183789
  y: -0.00207872804819
  z: -0.000147189519479
angular_velocity_covariance: [1.0966208586777776e-06, 0.0, 0.0, 0.0, 1.0966208586777776e-06, 0.0, 0.0, 0.0, 1.0966208586777776e-06]
linear_acceleration: 
  x: -0.40942499663
  y: 1.22101712772
  z: -9.90435634099
linear_acceleration_covariance: [0.0015387262937311438, 0.0, 0.0, 0.0, 0.0015387262937311438, 0.0, 0.0, 0.0, 0.0015387262937311438]
---
header: 
  seq: 25
  stamp: 
    secs: 1559001921
    nsecs:  37585439
  frame_id: "imu_link"
orientation: 
  x: -0.5242181888
  y: 0.3522090956
  z: 0.0637145314
  w: -0.7726645781
orientation_covariance: [0.002741552146694444, 0.0, 0.0, 0.0, 0.002741552146694444, 0.0, 0.0, 0.0, 0.007615422629706791]
angular_velocity: 
  x: -0.00223544883656
  y: 0.00311290944117
  z: 0.000948840408853
angular_velocity_covariance: [1.0966208586777776e-06, 0.0, 0.0, 0.0, 1.0966208586777776e-06, 0.0, 0.0, 0.0, 1.0966208586777776e-06]
linear_acceleration: 
  x: -0.413887894323
  y: 1.21620629337
  z: -9.92035821224
linear_acceleration_covariance: [0.0015387262937311438, 0.0, 0.0, 0.0, 0.0015387262937311438, 0.0, 0.0, 0.0, 0.0015387262937311438]
---
header: 
  seq: 26
  stamp: 
    secs: 1559001921
    nsecs:  92592975
  frame_id: "imu_link"
orientation: 
  x: -0.5244531739
  y: 0.3511013087
  z: 0.0634124077
  w: -0.7730338404
orientation_covariance: [0.002741552146694444, 0.0, 0.0, 0.0, 0.002741552146694444, 0.0, 0.0, 0.0, 0.007615422629706791]
angular_velocity: 
  x: -0.000178234802989
  y: 0.00162730156752
  z: 0.000734098208867
angular_velocity_covariance: [1.0966208586777776e-06, 0.0, 0.0, 0.0, 1.0966208586777776e-06, 0.0, 0.0, 0.0, 1.0966208586777776e-06]
linear_acceleration: 
  x: -0.413570900796
  y: 1.21492399847
  z: -9.93267408846
linear_acceleration_covariance: [0.0015387262937311438, 0.0, 0.0, 0.0, 0.0015387262937311438, 0.0, 0.0, 0.0, 0.0015387262937311438]
---
header: 
  seq: 27
  stamp: 
    secs: 1559001921
    nsecs: 139563529
  frame_id: "imu_link"
orientation: 
  x: -0.524688159
  y: 0.3501949376
  z: 0.0631774226
  w: -0.7733359641
orientation_covariance: [0.002741552146694444, 0.0, 0.0, 0.0, 0.002741552146694444, 0.0, 0.0, 0.0, 0.007615422629706791]
angular_velocity: 
  x: 0.00197264178038
  y: 0.000693751773483
  z: -0.000138919562303
angular_velocity_covariance: [1.0966208586777776e-06, 0.0, 0.0, 0.0, 1.0966208586777776e-06, 0.0, 0.0, 0.0, 1.0966208586777776e-06]
linear_acceleration: 
  x: -0.414783856782
  y: 1.21798404363
  z: -9.91846202323
linear_acceleration_covariance: [0.0015387262937311438, 0.0, 0.0, 0.0, 0.0015387262937311438, 0.0, 0.0, 0.0, 0.0015387262937311438]
---
header: 
  seq: 28
  stamp: 
    secs: 1559001921
    nsecs: 192618595
  frame_id: "imu_link"
orientation: 
  x: -0.5242181888
  y: 0.3526119272
  z: 0.0638488086
  w: -0.7724631623
orientation_covariance: [0.002741552146694444, 0.0, 0.0, 0.0, 0.002741552146694444, 0.0, 0.0, 0.0, 0.007615422629706791]
angular_velocity: 
  x: -0.00372619590892
  y: 0.00309676948863
  z: -0.00194332724275
angular_velocity_covariance: [1.0966208586777776e-06, 0.0, 0.0, 0.0, 1.0966208586777776e-06, 0.0, 0.0, 0.0, 1.0966208586777776e-06]
linear_acceleration: 
  x: -0.411217067679
  y: 1.21730979763
  z: -9.90316976156
linear_acceleration_covariance: [0.0015387262937311438, 0.0, 0.0, 0.0, 0.0015387262937311438, 0.0, 0.0, 0.0, 0.0015387262937311438]
---
header: 
  seq: 29
  stamp: 
    secs: 1559001921
    nsecs: 245595224
  frame_id: "imu_link"
orientation: 
  x: -0.5245203125
  y: 0.351470571
  z: 0.0635802542
  w: -0.7728324246
orientation_covariance: [0.002741552146694444, 0.0, 0.0, 0.0, 0.002741552146694444, 0.0, 0.0, 0.0, 0.007615422629706791]
angular_velocity: 
  x: 0.000733629294859
  y: 0.00124780371292
  z: -8.3146054351e-05
angular_velocity_covariance: [1.0966208586777776e-06, 0.0, 0.0, 0.0, 1.0966208586777776e-06, 0.0, 0.0, 0.0, 1.0966208586777776e-06]
linear_acceleration: 
  x: -0.414597796158
  y: 1.21651521319
  z: -9.90967432114
linear_acceleration_covariance: [0.0015387262937311438, 0.0, 0.0, 0.0, 0.0015387262937311438, 0.0, 0.0, 0.0, 0.0015387262937311438]
---
header: 
  seq: 30
  stamp: 
    secs: 1559001921
    nsecs: 300628500
  frame_id: "imu_link"
orientation: 
  x: -0.5247888669
  y: 0.3503292148
  z: 0.0632781305
  w: -0.7731681176
orientation_covariance: [0.002741552146694444, 0.0, 0.0, 0.0, 0.002741552146694444, 0.0, 0.0, 0.0, 0.007615422629706791]
angular_velocity: 
  x: 0.00313561835103
  y: -0.000780636493786
  z: 0.0014955693705
angular_velocity_covariance: [1.0966208586777776e-06, 0.0, 0.0, 0.0, 1.0966208586777776e-06, 0.0, 0.0, 0.0, 1.0966208586777776e-06]
linear_acceleration: 
  x: -0.410496607917
  y: 1.20790513269
  z: -9.91233857192
linear_acceleration_covariance: [0.0015387262937311438, 0.0, 0.0, 0.0, 0.0015387262937311438, 0.0, 0.0, 0.0, 0.0015387262937311438]
---
header: 
  seq: 31
  stamp: 
    secs: 1559001921
    nsecs: 350562415
  frame_id: "imu_link"
orientation: 
  x: -0.5243860353
  y: 0.3529140509
  z: 0.0640166551
  w: -0.7722281772
orientation_covariance: [0.002741552146694444, 0.0, 0.0, 0.0, 0.002741552146694444, 0.0, 0.0, 0.0, 0.007615422629706791]
angular_velocity: 
  x: 0.00109851922974
  y: 0.000247147135813
  z: -0.00120597088775
angular_velocity_covariance: [1.0966208586777776e-06, 0.0, 0.0, 0.0, 1.0966208586777776e-06, 0.0, 0.0, 0.0, 1.0966208586777776e-06]
linear_acceleration: 
  x: -0.414398401129
  y: 1.21565567375
  z: -9.90348774146
linear_acceleration_covariance: [0.0015387262937311438, 0.0, 0.0, 0.0, 0.0015387262937311438, 0.0, 0.0, 0.0, 0.0015387262937311438]
---
header: 
  seq: 32
  stamp: 
    secs: 1559001921
    nsecs: 403566115
  frame_id: "imu_link"
orientation: 
  x: -0.5245538818
  y: 0.351806264
  z: 0.0637145314
  w: -0.7726310088
orientation_covariance: [0.002741552146694444, 0.0, 0.0, 0.0, 0.002741552146694444, 0.0, 0.0, 0.0, 0.007615422629706791]
angular_velocity: 
  x: -0.00230333889849
  y: 0.0035754329032
  z: -0.00139733929787
angular_velocity_covariance: [1.0966208586777776e-06, 0.0, 0.0, 0.0, 1.0966208586777776e-06, 0.0, 0.0, 0.0, 1.0966208586777776e-06]
linear_acceleration: 
  x: -0.411319468607
  y: 1.21735721697
  z: -9.90698318236
linear_acceleration_covariance: [0.0015387262937311438, 0.0, 0.0, 0.0, 0.0015387262937311438, 0.0, 0.0, 0.0, 0.0015387262937311438]
---
header: 
  seq: 33
  stamp: 
    secs: 1559001921
    nsecs: 458568127
  frame_id: "imu_link"
orientation: 
  x: -0.5244867432
  y: 0.3507656157
  z: 0.0633452691
  w: -0.7732016869
orientation_covariance: [0.002741552146694444, 0.0, 0.0, 0.0, 0.002741552146694444, 0.0, 0.0, 0.0, 0.007615422629706791]
angular_velocity: 
  x: -0.00187334670339
  y: 0.00264439204618
  z: 0.000834663683918
angular_velocity_covariance: [1.0966208586777776e-06, 0.0, 0.0, 0.0, 1.0966208586777776e-06, 0.0, 0.0, 0.0, 1.0966208586777776e-06]
linear_acceleration: 
  x: -0.408637389916
  y: 1.2154523332
  z: -9.91177392377
linear_acceleration_covariance: [0.0015387262937311438, 0.0, 0.0, 0.0, 0.0015387262937311438, 0.0, 0.0, 0.0, 0.0015387262937311438]
---
header: 
  seq: 34
  stamp: 
    secs: 1559001921
    nsecs: 505593718
  frame_id: "imu_link"
orientation: 
  x: -0.5244196046
  y: 0.3499599525
  z: 0.0630431454
  w: -0.7736045185
orientation_covariance: [0.002741552146694444, 0.0, 0.0, 0.0, 0.002741552146694444, 0.0, 0.0, 0.0, 0.007615422629706791]
angular_velocity: 
  x: -0.000686996472923
  y: -0.00183858998046
  z: -0.00103720742277
angular_velocity_covariance: [1.0966208586777776e-06, 0.0, 0.0, 0.0, 1.0966208586777776e-06, 0.0, 0.0, 0.0, 1.0966208586777776e-06]
linear_acceleration: 
  x: -0.408194066596
  y: 1.21853524777
  z: -9.91338018993
linear_acceleration_covariance: [0.0015387262937311438, 0.0, 0.0, 0.0, 0.0015387262937311438, 0.0, 0.0, 0.0, 0.0015387262937311438]
---
header: 
  seq: 35
  stamp: 
    secs: 1559001921
    nsecs: 558593043
  frame_id: "imu_link"
orientation: 
  x: -0.5237482186
  y: 0.3526119272
  z: 0.0637481007
  w: -0.7727988553
orientation_covariance: [0.002741552146694444, 0.0, 0.0, 0.0, 0.002741552146694444, 0.0, 0.0, 0.0, 0.007615422629706791]
angular_velocity: 
  x: -0.00398781871666
  y: 0.00216429835286
  z: 0.00175478428009
angular_velocity_covariance: [1.0966208586777776e-06, 0.0, 0.0, 0.0, 1.0966208586777776e-06, 0.0, 0.0, 0.0, 1.0966208586777776e-06]
linear_acceleration: 
  x: -0.412234281897
  y: 1.21680097133
  z: -9.90748704023
linear_acceleration_covariance: [0.0015387262937311438, 0.0, 0.0, 0.0, 0.0015387262937311438, 0.0, 0.0, 0.0, 0.0015387262937311438]
---
header: 
  seq: 36
  stamp: 
    secs: 1559001921
    nsecs: 612595496
  frame_id: "imu_link"
orientation: 
  x: -0.5239832037
  y: 0.3515041403
  z: 0.063445977
  w: -0.7731681176
orientation_covariance: [0.002741552146694444, 0.0, 0.0, 0.0, 0.002741552146694444, 0.0, 0.0, 0.0, 0.007615422629706791]
angular_velocity: 
  x: -0.00262293747479
  y: 0.00557838153481
  z: 0.00217034287029
angular_velocity_covariance: [1.0966208586777776e-06, 0.0, 0.0, 0.0, 1.0966208586777776e-06, 0.0, 0.0, 0.0, 1.0966208586777776e-06]
linear_acceleration: 
  x: -0.407064551109
  y: 1.21595078424
  z: -9.90974446377
linear_acceleration_covariance: [0.0015387262937311438, 0.0, 0.0, 0.0, 0.0015387262937311438, 0.0, 0.0, 0.0, 0.0015387262937311438]
---
header: 
  seq: 37
  stamp: 
    secs: 1559001921
    nsecs: 666601711
  frame_id: "imu_link"
orientation: 
  x: -0.5242517581
  y: 0.3504970613
  z: 0.0631774226
  w: -0.7734702413
orientation_covariance: [0.002741552146694444, 0.0, 0.0, 0.0, 0.002741552146694444, 0.0, 0.0, 0.0, 0.007615422629706791]
angular_velocity: 
  x: -0.000167270378276
  y: -0.00283275269673
  z: -0.00105193283107
angular_velocity_covariance: [1.0966208586777776e-06, 0.0, 0.0, 0.0, 1.0966208586777776e-06, 0.0, 0.0, 0.0, 1.0966208586777776e-06]
linear_acceleration: 
  x: -0.410956553579
  y: 1.21424946021
  z: -9.922434434
linear_acceleration_covariance: [0.0015387262937311438, 0.0, 0.0, 0.0, 0.0015387262937311438, 0.0, 0.0, 0.0, 0.0015387262937311438]
---
header: 
  seq: 38
  stamp: 
    secs: 1559001921
    nsecs: 717620646
  frame_id: "imu_link"
orientation: 
  x: -0.5241174809
  y: 0.353149036
  z: 0.0639830858
  w: -0.7722953158
orientation_covariance: [0.002741552146694444, 0.0, 0.0, 0.0, 0.002741552146694444, 0.0, 0.0, 0.0, 0.007615422629706791]
angular_velocity: 
  x: 0.00063629290263
  y: -0.000229805444827
  z: 0.00145188676669
angular_velocity_covariance: [1.0966208586777776e-06, 0.0, 0.0, 0.0, 1.0966208586777776e-06, 0.0, 0.0, 0.0, 1.0966208586777776e-06]
linear_acceleration: 
  x: -0.411755996861
  y: 1.21743824632
  z: -9.92329017404
linear_acceleration_covariance: [0.0015387262937311438, 0.0, 0.0, 0.0, 0.0015387262937311438, 0.0, 0.0, 0.0, 0.0015387262937311438]
---
header: 
  seq: 39
  stamp: 
    secs: 1559001921
    nsecs: 770621139
  frame_id: "imu_link"
orientation: 
  x: -0.5244867432
  y: 0.3519741105
  z: 0.0636809621
  w: -0.7725974395
orientation_covariance: [0.002741552146694444, 0.0, 0.0, 0.0, 0.002741552146694444, 0.0, 0.0, 0.0, 0.007615422629706791]
angular_velocity: 
  x: -0.00138717494306
  y: 0.00284363446657
  z: -0.00143645291593
angular_velocity_covariance: [1.0966208586777776e-06, 0.0, 0.0, 0.0, 1.0966208586777776e-06, 0.0, 0.0, 0.0, 1.0966208586777776e-06]
linear_acceleration: 
  x: -0.40999793768
  y: 1.21343828996
  z: -9.91818846699
linear_acceleration_covariance: [0.0015387262937311438, 0.0, 0.0, 0.0, 0.0015387262937311438, 0.0, 0.0, 0.0, 0.0015387262937311438]
---
header: 
  seq: 40
  stamp: 
    secs: 1559001921
    nsecs: 825559819
  frame_id: "imu_link"
orientation: 
  x: -0.5247217283
  y: 0.3508663236
  z: 0.0633788384
  w: -0.7729667018
orientation_covariance: [0.002741552146694444, 0.0, 0.0, 0.0, 0.002741552146694444, 0.0, 0.0, 0.0, 0.007615422629706791]
angular_velocity: 
  x: -0.00248946369006
  y: 0.00330459150093
  z: -0.00107621993694
angular_velocity_covariance: [1.0966208586777776e-06, 0.0, 0.0, 0.0, 1.0966208586777776e-06, 0.0, 0.0, 0.0, 1.0966208586777776e-06]
linear_acceleration: 
  x: -0.416862416622
  y: 1.21592272719
  z: -9.91242040498
linear_acceleration_covariance: [0.0015387262937311438, 0.0, 0.0, 0.0, 0.0015387262937311438, 0.0, 0.0, 0.0, 0.0015387262937311438]
---
header: 
  seq: 41
  stamp: 
    secs: 1559001921
    nsecs: 871592305
  frame_id: "imu_link"
orientation: 
  x: -0.5249231441
  y: 0.3500270911
  z: 0.0631774226
  w: -0.7732352562
orientation_covariance: [0.002741552146694444, 0.0, 0.0, 0.0, 0.002741552146694444, 0.0, 0.0, 0.0, 0.007615422629706791]
angular_velocity: 
  x: 0.00256295237198
  y: -0.001960963793
  z: 9.77744224114e-05
angular_velocity_covariance: [1.0966208586777776e-06, 0.0, 0.0, 0.0, 1.0966208586777776e-06, 0.0, 0.0, 0.0, 1.0966208586777776e-06]
linear_acceleration: 
  x: -0.418689449386
  y: 1.21358171702
  z: -9.92092169135
linear_acceleration_covariance: [0.0015387262937311438, 0.0, 0.0, 0.0, 0.0015387262937311438, 0.0, 0.0, 0.0, 0.0015387262937311438]
---
header: 
  seq: 42
  stamp: 
    secs: 1559001921
    nsecs: 925623355
  frame_id: "imu_link"
orientation: 
  x: -0.5245538818
  y: 0.3525783579
  z: 0.0639159472
  w: -0.7722617465
orientation_covariance: [0.002741552146694444, 0.0, 0.0, 0.0, 0.002741552146694444, 0.0, 0.0, 0.0, 0.007615422629706791]
angular_velocity: 
  x: 0.000819704923937
  y: 0.000622018593254
  z: 0.000129741506858
angular_velocity_covariance: [1.0966208586777776e-06, 0.0, 0.0, 0.0, 1.0966208586777776e-06, 0.0, 0.0, 0.0, 1.0966208586777776e-06]
linear_acceleration: 
  x: -0.413198231559
  y: 1.2160733877
  z: -9.93129929298
linear_acceleration_covariance: [0.0015387262937311438, 0.0, 0.0, 0.0, 0.0015387262937311438, 0.0, 0.0, 0.0, 0.0015387262937311438]
---
header: 
  seq: 43
  stamp: 
    secs: 1559001921
    nsecs: 978624913
  frame_id: "imu_link"
orientation: 
  x: -0.5247552976
  y: 0.3515712789
  z: 0.0636138235
  w: -0.7725974395
orientation_covariance: [0.002741552146694444, 0.0, 0.0, 0.0, 0.002741552146694444, 0.0, 0.0, 0.0, 0.007615422629706791]
angular_velocity: 
  x: -0.00195505932559
  y: 0.00495697866752
  z: 0.00181709457741
angular_velocity_covariance: [1.0966208586777776e-06, 0.0, 0.0, 0.0, 1.0966208586777776e-06, 0.0, 0.0, 0.0, 1.0966208586777776e-06]
linear_acceleration: 
  x: -0.411069548967
  y: 1.20990076348
  z: -9.93173300822
linear_acceleration_covariance: [0.0015387262937311438, 0.0, 0.0, 0.0, 0.0015387262937311438, 0.0, 0.0, 0.0, 0.0015387262937311438]
---
header: 
  seq: 44
  stamp: 
    secs: 1559001922
    nsecs:  33595858
  frame_id: "imu_link"
orientation: 
  x: -0.5250574213
  y: 0.350463492
  z: 0.0633116998
  w: -0.7729331325
orientation_covariance: [0.002741552146694444, 0.0, 0.0, 0.0, 0.002741552146694444, 0.0, 0.0, 0.0, 0.007615422629706791]
angular_velocity: 
  x: 0.000770441775294
  y: 0.00305550869693
  z: 0.00130491954574
angular_velocity_covariance: [1.0966208586777776e-06, 0.0, 0.0, 0.0, 1.0966208586777776e-06, 0.0, 0.0, 0.0, 1.0966208586777776e-06]
linear_acceleration: 
  x: -0.410435963771
  y: 1.21738505482
  z: -9.92314871975
linear_acceleration_covariance: [0.0015387262937311438, 0.0, 0.0, 0.0, 0.0015387262937311438, 0.0, 0.0, 0.0, 0.0015387262937311438]
---
header: 
  seq: 45
  stamp: 
    secs: 1559001922
    nsecs:  83620238
  frame_id: "imu_link"
orientation: 
  x: -0.5250574213
  y: 0.3529811895
  z: 0.0641509323
  w: -0.7717246377
orientation_covariance: [0.002741552146694444, 0.0, 0.0, 0.0, 0.002741552146694444, 0.0, 0.0, 0.0, 0.007615422629706791]
angular_velocity: 
  x: -0.000394355380643
  y: -0.000296462494377
  z: -0.00131569338474
angular_velocity_covariance: [1.0966208586777776e-06, 0.0, 0.0, 0.0, 1.0966208586777776e-06, 0.0, 0.0, 0.0, 1.0966208586777776e-06]
linear_acceleration: 
  x: -0.412025936376
  y: 1.21362438712
  z: -9.91701708512
linear_acceleration_covariance: [0.0015387262937311438, 0.0, 0.0, 0.0, 0.0015387262937311438, 0.0, 0.0, 0.0, 0.0015387262937311438]
---
header: 
  seq: 46
  stamp: 
    secs: 1559001922
    nsecs: 136579590
  frame_id: "imu_link"
orientation: 
  x: -0.5252924064
  y: 0.3518398333
  z: 0.0638152393
  w: -0.7720939
orientation_covariance: [0.002741552146694444, 0.0, 0.0, 0.0, 0.002741552146694444, 0.0, 0.0, 0.0, 0.007615422629706791]
angular_velocity: 
  x: -0.00136071979258
  y: -0.00198684769021
  z: -0.000247517562925
angular_velocity_covariance: [1.0966208586777776e-06, 0.0, 0.0, 0.0, 1.0966208586777776e-06, 0.0, 0.0, 0.0, 1.0966208586777776e-06]
linear_acceleration: 
  x: -0.409183223763
  y: 1.21771019513
  z: -9.91224037224
linear_acceleration_covariance: [0.0015387262937311438, 0.0, 0.0, 0.0, 0.0015387262937311438, 0.0, 0.0, 0.0, 0.0015387262937311438]
---
header: 
  seq: 47
  stamp: 
    secs: 1559001922
    nsecs: 191625495
  frame_id: "imu_link"
orientation: 
  x: -0.5254938222
  y: 0.3507320464
  z: 0.0635131156
  w: -0.7724967316
orientation_covariance: [0.002741552146694444, 0.0, 0.0, 0.0, 0.002741552146694444, 0.0, 0.0, 0.0, 0.007615422629706791]
angular_velocity: 
  x: -0.00655383918545
  y: 9.80738654876e-06
  z: -0.00287659628654
angular_velocity_covariance: [1.0966208586777776e-06, 0.0, 0.0, 0.0, 1.0966208586777776e-06, 0.0, 0.0, 0.0, 1.0966208586777776e-06]
linear_acceleration: 
  x: -0.411222584104
  y: 1.21135666138
  z: -9.92727193716
linear_acceleration_covariance: [0.0015387262937311438, 0.0, 0.0, 0.0, 0.0015387262937311438, 0.0, 0.0, 0.0, 0.0015387262937311438]
---
header: 
  seq: 48
  stamp: 
    secs: 1559001922
    nsecs: 238624542
  frame_id: "imu_link"
orientation: 
  x: -0.5255273915
  y: 0.3498256753
  z: 0.0632445612
  w: -0.7728995632
orientation_covariance: [0.002741552146694444, 0.0, 0.0, 0.0, 0.002741552146694444, 0.0, 0.0, 0.0, 0.007615422629706791]
angular_velocity: 
  x: 0.00446390271407
  y: -0.00258255235335
  z: 0.00170001353747
angular_velocity_covariance: [1.0966208586777776e-06, 0.0, 0.0, 0.0, 1.0966208586777776e-06, 0.0, 0.0, 0.0, 1.0966208586777776e-06]
linear_acceleration: 
  x: -0.418541711478
  y: 1.21402566139
  z: -9.9184211067
linear_acceleration_covariance: [0.0015387262937311438, 0.0, 0.0, 0.0, 0.0015387262937311438, 0.0, 0.0, 0.0, 0.0015387262937311438]
---
header: 
  seq: 49
  stamp: 
    secs: 1559001922
    nsecs: 291628339
  frame_id: "imu_link"
orientation: 
  x: -0.5249567134
  y: 0.3519741105
  z: 0.0638152393
  w: -0.7722617465
orientation_covariance: [0.002741552146694444, 0.0, 0.0, 0.0, 0.002741552146694444, 0.0, 0.0, 0.0, 0.007615422629706791]
angular_velocity: 
  x: -0.00646010319716
  y: 0.000522499852343
  z: -0.0021355537681
angular_velocity_covariance: [1.0966208586777776e-06, 0.0, 0.0, 0.0, 1.0966208586777776e-06, 0.0, 0.0, 0.0, 1.0966208586777776e-06]
linear_acceleration: 
  x: -0.408738731399
  y: 1.20698472991
  z: -9.92236896755
linear_acceleration_covariance: [0.0015387262937311438, 0.0, 0.0, 0.0, 0.0015387262937311438, 0.0, 0.0, 0.0, 0.0015387262937311438]
---
header: 
  seq: 50
  stamp: 
    secs: 1559001922
    nsecs: 344596492
  frame_id: "imu_link"
orientation: 
  x: -0.5253259757
  y: 0.3508327543
  z: 0.0635466849
  w: -0.7725638702
orientation_covariance: [0.002741552146694444, 0.0, 0.0, 0.0, 0.002741552146694444, 0.0, 0.0, 0.0, 0.007615422629706791]
angular_velocity: 
  x: -0.00147710500367
  y: 0.00163835511645
  z: -0.00154887823534
angular_velocity_covariance: [1.0966208586777776e-06, 0.0, 0.0, 0.0, 1.0966208586777776e-06, 0.0, 0.0, 0.0, 1.0966208586777776e-06]
linear_acceleration: 
  x: -0.416580969332
  y: 1.21438200055
  z: -9.92838486683
linear_acceleration_covariance: [0.0015387262937311438, 0.0, 0.0, 0.0, 0.0015387262937311438, 0.0, 0.0, 0.0, 0.0015387262937311438]
---
header: 
  seq: 51
  stamp: 
    secs: 1559001922
    nsecs: 399591725
  frame_id: "imu_link"
orientation: 
  x: -0.5256280994
  y: 0.3496913981
  z: 0.0632445612
  w: -0.7728995632
orientation_covariance: [0.002741552146694444, 0.0, 0.0, 0.0, 0.002741552146694444, 0.0, 0.0, 0.0, 0.007615422629706791]
angular_velocity: 
  x: -0.00636575187302
  y: 0.00123627682872
  z: 0.000624277013675
angular_velocity_covariance: [1.0966208586777776e-06, 0.0, 0.0, 0.0, 1.0966208586777776e-06, 0.0, 0.0, 0.0, 1.0966208586777776e-06]
linear_acceleration: 
  x: -0.402941333699
  y: 1.21321288371
  z: -9.92347955914
linear_acceleration_covariance: [0.0015387262937311438, 0.0, 0.0, 0.0, 0.0015387262937311438, 0.0, 0.0, 0.0, 0.0015387262937311438]
---
header: 
  seq: 52
  stamp: 
    secs: 1559001922
    nsecs: 449618070
  frame_id: "imu_link"
orientation: 
  x: -0.525359545
  y: 0.3521755263
  z: 0.0640166551
  w: -0.7718924842
orientation_covariance: [0.002741552146694444, 0.0, 0.0, 0.0, 0.002741552146694444, 0.0, 0.0, 0.0, 0.007615422629706791]
angular_velocity: 
  x: 0.00430038488321
  y: -0.000551545863242
  z: 0.0010590799336
angular_velocity_covariance: [1.0966208586777776e-06, 0.0, 0.0, 0.0, 1.0966208586777776e-06, 0.0, 0.0, 0.0, 1.0966208586777776e-06]
linear_acceleration: 
  x: -0.402460089521
  y: 1.21366062747
  z: -9.9173128532
linear_acceleration_covariance: [0.0015387262937311438, 0.0, 0.0, 0.0, 0.0015387262937311438, 0.0, 0.0, 0.0, 0.0015387262937311438]
---
header: 
  seq: 53
  stamp: 
    secs: 1559001922
    nsecs: 502635448
  frame_id: "imu_link"
orientation: 
  x: -0.5258295152
  y: 0.3510341701
  z: 0.0637145314
  w: -0.7721274693
orientation_covariance: [0.002741552146694444, 0.0, 0.0, 0.0, 0.002741552146694444, 0.0, 0.0, 0.0, 0.007615422629706791]
angular_velocity: 
  x: 0.00573726094007
  y: 3.16722414347e-05
  z: 0.00175029539724
angular_velocity_covariance: [1.0966208586777776e-06, 0.0, 0.0, 0.0, 1.0966208586777776e-06, 0.0, 0.0, 0.0, 1.0966208586777776e-06]
linear_acceleration: 
  x: -0.414360735999
  y: 1.21162232658
  z: -9.92639632336
linear_acceleration_covariance: [0.0015387262937311438, 0.0, 0.0, 0.0, 0.0015387262937311438, 0.0, 0.0, 0.0, 0.0015387262937311438]
---
header: 
  seq: 54
  stamp: 
    secs: 1559001922
    nsecs: 557605668
  frame_id: "imu_link"
orientation: 
  x: -0.5260980696
  y: 0.3499935218
  z: 0.063445977
  w: -0.772429593
orientation_covariance: [0.002741552146694444, 0.0, 0.0, 0.0, 0.002741552146694444, 0.0, 0.0, 0.0, 0.007615422629706791]
angular_velocity: 
  x: 0.000819969939674
  y: 0.00206361421889
  z: 0.000742467985819
angular_velocity_covariance: [1.0966208586777776e-06, 0.0, 0.0, 0.0, 1.0966208586777776e-06, 0.0, 0.0, 0.0, 1.0966208586777776e-06]
linear_acceleration: 
  x: -0.413668625549
  y: 1.21117494814
  z: -9.9282212007
linear_acceleration_covariance: [0.0015387262937311438, 0.0, 0.0, 0.0, 0.0015387262937311438, 0.0, 0.0, 0.0, 0.0015387262937311438]
---
header: 
  seq: 55
  stamp: 
    secs: 1559001922
    nsecs: 604568017
  frame_id: "imu_link"
orientation: 
  x: -0.5262323468
  y: 0.3492549972
  z: 0.0632781305
  w: -0.7726645781
orientation_covariance: [0.002741552146694444, 0.0, 0.0, 0.0, 0.002741552146694444, 0.0, 0.0, 0.0, 0.007615422629706791]
angular_velocity: 
  x: 0.00427577144908
  y: 0.000209600790651
  z: 0.00128540629916
angular_velocity_covariance: [1.0966208586777776e-06, 0.0, 0.0, 0.0, 1.0966208586777776e-06, 0.0, 0.0, 0.0, 1.0966208586777776e-06]
linear_acceleration: 
  x: -0.410559809346
  y: 1.21959659339
  z: -9.91893314788
linear_acceleration_covariance: [0.0015387262937311438, 0.0, 0.0, 0.0, 0.0015387262937311438, 0.0, 0.0, 0.0, 0.0015387262937311438]
---
header: 
  seq: 56
  stamp: 
    secs: 1559001922
    nsecs: 657631828
  frame_id: "imu_link"
orientation: 
  x: -0.5257288073
  y: 0.3519741105
  z: 0.0640837937
  w: -0.7717246377
orientation_covariance: [0.002741552146694444, 0.0, 0.0, 0.0, 0.002741552146694444, 0.0, 0.0, 0.0, 0.007615422629706791]
angular_velocity: 
  x: -0.00178740111148
  y: -0.000227500406083
  z: -0.000392050536955
angular_velocity_covariance: [1.0966208586777776e-06, 0.0, 0.0, 0.0, 1.0966208586777776e-06, 0.0, 0.0, 0.0, 1.0966208586777776e-06]
linear_acceleration: 
  x: -0.42262616778
  y: 1.21959177109
  z: -9.90703578933
linear_acceleration_covariance: [0.0015387262937311438, 0.0, 0.0, 0.0, 0.0015387262937311438, 0.0, 0.0, 0.0, 0.0015387262937311438]
---
header: 
  seq: 57
  stamp: 
    secs: 1559001922
    nsecs: 710641884
  frame_id: "imu_link"
orientation: 
  x: -0.5258966538
  y: 0.3508663236
  z: 0.06378167
  w: -0.7721274693
orientation_covariance: [0.002741552146694444, 0.0, 0.0, 0.0, 0.002741552146694444, 0.0, 0.0, 0.0, 0.007615422629706791]
angular_velocity: 
  x: -0.00285446006035
  y: 0.00333869530727
  z: -0.00234233522303
angular_velocity_covariance: [1.0966208586777776e-06, 0.0, 0.0, 0.0, 1.0966208586777776e-06, 0.0, 0.0, 0.0, 1.0966208586777776e-06]
linear_acceleration: 
  x: -0.411863658486
  y: 1.21311804503
  z: -9.91404069966
linear_acceleration_covariance: [0.0015387262937311438, 0.0, 0.0, 0.0, 0.0015387262937311438, 0.0, 0.0, 0.0, 0.0015387262937311438]
---
header: 
  seq: 58
  stamp: 
    secs: 1559001922
    nsecs: 765597787
  frame_id: "imu_link"
orientation: 
  x: -0.5261316389
  y: 0.349792106
  z: 0.0634795463
  w: -0.7724967316
orientation_covariance: [0.002741552146694444, 0.0, 0.0, 0.0, 0.002741552146694444, 0.0, 0.0, 0.0, 0.007615422629706791]
angular_velocity: 
  x: 0.00328554625809
  y: 0.00271036640062
  z: 0.00398216184001
angular_velocity_covariance: [1.0966208586777776e-06, 0.0, 0.0, 0.0, 1.0966208586777776e-06, 0.0, 0.0, 0.0, 1.0966208586777776e-06]
linear_acceleration: 
  x: -0.405093177971
  y: 1.21087158128
  z: -9.91798505337
linear_acceleration_covariance: [0.0015387262937311438, 0.0, 0.0, 0.0, 0.0015387262937311438, 0.0, 0.0, 0.0, 0.0015387262937311438]
---
header: 
  seq: 59
  stamp: 
    secs: 1559001922
    nsecs: 815627315
  frame_id: "imu_link"
orientation: 
  x: -0.5257623766
  y: 0.3525447886
  z: 0.0643187788
  w: -0.771422514
orientation_covariance: [0.002741552146694444, 0.0, 0.0, 0.0, 0.002741552146694444, 0.0, 0.0, 0.0, 0.007615422629706791]
angular_velocity: 
  x: -0.00232308374125
  y: 0.00091597605173
  z: -0.00250067185318
angular_velocity_covariance: [1.0966208586777776e-06, 0.0, 0.0, 0.0, 1.0966208586777776e-06, 0.0, 0.0, 0.0, 1.0966208586777776e-06]
linear_acceleration: 
  x: -0.413675128355
  y: 1.21818088138
  z: -9.91711060863
linear_acceleration_covariance: [0.0015387262937311438, 0.0, 0.0, 0.0, 0.0015387262937311438, 0.0, 0.0, 0.0, 0.0015387262937311438]
---
header: 
  seq: 60
  stamp: 
    secs: 1559001922
    nsecs: 868603438
  frame_id: "imu_link"
orientation: 
  x: -0.5258630845
  y: 0.3516719868
  z: 0.0640502244
  w: -0.771758207
orientation_covariance: [0.002741552146694444, 0.0, 0.0, 0.0, 0.002741552146694444, 0.0, 0.0, 0.0, 0.007615422629706791]
angular_velocity: 
  x: 0.00133680920931
  y: -0.00244636859415
  z: -0.00102795826951
angular_velocity_covariance: [1.0966208586777776e-06, 0.0, 0.0, 0.0, 1.0966208586777776e-06, 0.0, 0.0, 0.0, 1.0966208586777776e-06]
linear_acceleration: 
  x: -0.410618772992
  y: 1.21240690109
  z: -9.92269396172
linear_acceleration_covariance: [0.0015387262937311438, 0.0, 0.0, 0.0, 0.0015387262937311438, 0.0, 0.0, 0.0, 0.0015387262937311438]
---
header: 
  seq: 61
  stamp: 
    secs: 1559001922
    nsecs: 923604057
  frame_id: "imu_link"
orientation: 
  x: -0.5258966538
  y: 0.3506984771
  z: 0.0637481007
  w: -0.7722281772
orientation_covariance: [0.002741552146694444, 0.0, 0.0, 0.0, 0.002741552146694444, 0.0, 0.0, 0.0, 0.007615422629706791]
angular_velocity: 
  x: 0.00146935361844
  y: -0.000479319289509
  z: 0.00171292427716
angular_velocity_covariance: [1.0966208586777776e-06, 0.0, 0.0, 0.0, 1.0966208586777776e-06, 0.0, 0.0, 0.0, 1.0966208586777776e-06]
linear_acceleration: 
  x: -0.410523970848
  y: 1.22119445704
  z: -9.91936920121
linear_acceleration_covariance: [0.0015387262937311438, 0.0, 0.0, 0.0, 0.0015387262937311438, 0.0, 0.0, 0.0, 0.0015387262937311438]
---
header: 
  seq: 62
  stamp: 
    secs: 1559001922
    nsecs: 970574155
  frame_id: "imu_link"
orientation: 
  x: -0.5259302231
  y: 0.3498256753
  z: 0.0634795463
  w: -0.7725974395
orientation_covariance: [0.002741552146694444, 0.0, 0.0, 0.0, 0.002741552146694444, 0.0, 0.0, 0.0, 0.007615422629706791]
angular_velocity: 
  x: 0.000572585486039
  y: -0.00123438660852
  z: 0.00140496870824
angular_velocity_covariance: [1.0966208586777776e-06, 0.0, 0.0, 0.0, 1.0966208586777776e-06, 0.0, 0.0, 0.0, 1.0966208586777776e-06]
linear_acceleration: 
  x: -0.408742713454
  y: 1.21846145188
  z: -9.92200773302
linear_acceleration_covariance: [0.0015387262937311438, 0.0, 0.0, 0.0, 0.0015387262937311438, 0.0, 0.0, 0.0, 0.0015387262937311438]
---
header: 
  seq: 63
  stamp: 
    secs: 1559001923
    nsecs:  23576634
  frame_id: "imu_link"
orientation: 
  x: -0.5254938222
  y: 0.3522762342
  z: 0.0641509323
  w: -0.7717246377
orientation_covariance: [0.002741552146694444, 0.0, 0.0, 0.0, 0.002741552146694444, 0.0, 0.0, 0.0, 0.007615422629706791]
angular_velocity: 
  x: 0.00464871465045
  y: -0.000641787492898
  z: 0.00430575645833
angular_velocity_covariance: [1.0966208586777776e-06, 0.0, 0.0, 0.0, 1.0966208586777776e-06, 0.0, 0.0, 0.0, 1.0966208586777776e-06]
linear_acceleration: 
  x: -0.417807332789
  y: 1.21792113446
  z: -9.91628292563
linear_acceleration_covariance: [0.0015387262937311438, 0.0, 0.0, 0.0, 0.0015387262937311438, 0.0, 0.0, 0.0, 0.0015387262937311438]
---
header: 
  seq: 64
  stamp: 
    secs: 1559001923
    nsecs:  77629373
  frame_id: "imu_link"
orientation: 
  x: -0.525695238
  y: 0.3512691552
  z: 0.0638823779
  w: -0.7720939
orientation_covariance: [0.002741552146694444, 0.0, 0.0, 0.0, 0.002741552146694444, 0.0, 0.0, 0.0, 0.007615422629706791]
angular_velocity: 
  x: -0.00312874510676
  y: -0.000116759067928
  z: 0.00065093274647
angular_velocity_covariance: [1.0966208586777776e-06, 0.0, 0.0, 0.0, 1.0966208586777776e-06, 0.0, 0.0, 0.0, 1.0966208586777776e-06]
linear_acceleration: 
  x: -0.4200508374
  y: 1.2157261817
  z: -9.92128643301
linear_acceleration_covariance: [0.0015387262937311438, 0.0, 0.0, 0.0, 0.0015387262937311438, 0.0, 0.0, 0.0, 0.0015387262937311438]
---
header: 
  seq: 65
  stamp: 
    secs: 1559001923
    nsecs: 131601776
  frame_id: "imu_link"
orientation: 
  x: -0.5257623766
  y: 0.3503292148
  z: 0.0635802542
  w: -0.7724967316
orientation_covariance: [0.002741552146694444, 0.0, 0.0, 0.0, 0.002741552146694444, 0.0, 0.0, 0.0, 0.007615422629706791]
angular_velocity: 
  x: -0.00600828335407
  y: 0.00139592917488
  z: -0.00280477364075
angular_velocity_covariance: [1.0966208586777776e-06, 0.0, 0.0, 0.0, 1.0966208586777776e-06, 0.0, 0.0, 0.0, 1.0966208586777776e-06]
linear_acceleration: 
  x: -0.412578528758
  y: 1.21325759963
  z: -9.92124317839
linear_acceleration_covariance: [0.0015387262937311438, 0.0, 0.0, 0.0, 0.0015387262937311438, 0.0, 0.0, 0.0, 0.0015387262937311438]
---
header: 
  seq: 66
  stamp: 
    secs: 1559001923
    nsecs: 181604192
  frame_id: "imu_link"
orientation: 
  x: -0.5251916985
  y: 0.3530818974
  z: 0.0643523481
  w: -0.7715567912
orientation_covariance: [0.002741552146694444, 0.0, 0.0, 0.0, 0.002741552146694444, 0.0, 0.0, 0.0, 0.007615422629706791]
angular_velocity: 
  x: 0.00176315932355
  y: 0.00106944383044
  z: 0.000817892270909
angular_velocity_covariance: [1.0966208586777776e-06, 0.0, 0.0, 0.0, 1.0966208586777776e-06, 0.0, 0.0, 0.0, 1.0966208586777776e-06]
linear_acceleration: 
  x: -0.41444224027
  y: 1.21490894703
  z: -9.91690836405
linear_acceleration_covariance: [0.0015387262937311438, 0.0, 0.0, 0.0, 0.0015387262937311438, 0.0, 0.0, 0.0, 0.0015387262937311438]
---
header: 
  seq: 67
  stamp: 
    secs: 1559001923
    nsecs: 235596143
  frame_id: "imu_link"
orientation: 
  x: -0.5254266836
  y: 0.3519405412
  z: 0.0640502244
  w: -0.7719596228
orientation_covariance: [0.002741552146694444, 0.0, 0.0, 0.0, 0.002741552146694444, 0.0, 0.0, 0.0, 0.007615422629706791]
angular_velocity: 
  x: 0.00489366669394
  y: -0.00384575207622
  z: -0.00121560026968
angular_velocity_covariance: [1.0966208586777776e-06, 0.0, 0.0, 0.0, 1.0966208586777776e-06, 0.0, 0.0, 0.0, 1.0966208586777776e-06]
linear_acceleration: 
  x: -0.407446170838
  y: 1.21393791005
  z: -9.91549732821
linear_acceleration_covariance: [0.0015387262937311438, 0.0, 0.0, 0.0, 0.0015387262937311438, 0.0, 0.0, 0.0, 0.0015387262937311438]
---
header: 
  seq: 68
  stamp: 
    secs: 1559001923
    nsecs: 289624411
  frame_id: "imu_link"
orientation: 
  x: -0.5257288073
  y: 0.3508327543
  z: 0.0637481007
  w: -0.7722617465
orientation_covariance: [0.002741552146694444, 0.0, 0.0, 0.0, 0.002741552146694444, 0.0, 0.0, 0.0, 0.007615422629706791]
angular_velocity: 
  x: 0.00302481056388
  y: -0.000207232033697
  z: 0.00258043820916
angular_velocity_covariance: [1.0966208586777776e-06, 0.0, 0.0, 0.0, 1.0966208586777776e-06, 0.0, 0.0, 0.0, 1.0966208586777776e-06]
linear_acceleration: 
  x: -0.41139541992
  y: 1.21471028266
  z: -9.91751159064
linear_acceleration_covariance: [0.0015387262937311438, 0.0, 0.0, 0.0, 0.0015387262937311438, 0.0, 0.0, 0.0, 0.0015387262937311438]
---
header: 
  seq: 69
  stamp: 
    secs: 1559001923
    nsecs: 336616479
  frame_id: "imu_link"
orientation: 
  x: -0.5259302231
  y: 0.3501613683
  z: 0.0635466849
  w: -0.7724631623
orientation_covariance: [0.002741552146694444, 0.0, 0.0, 0.0, 0.002741552146694444, 0.0, 0.0, 0.0, 0.007615422629706791]
angular_velocity: 
  x: -0.000495254466035
  y: 0.0041592246018
  z: 0.00215044835474
angular_velocity_covariance: [1.0966208586777776e-06, 0.0, 0.0, 0.0, 1.0966208586777776e-06, 0.0, 0.0, 0.0, 1.0966208586777776e-06]
linear_acceleration: 
  x: -0.404592352309
  y: 1.21541404701
  z: -9.92203345198
linear_acceleration_covariance: [0.0015387262937311438, 0.0, 0.0, 0.0, 0.0015387262937311438, 0.0, 0.0, 0.0, 0.0015387262937311438]
---
header: 
  seq: 70
  stamp: 
    secs: 1559001923
    nsecs: 389607996
  frame_id: "imu_link"
orientation: 
  x: -0.5254266836
  y: 0.3527797737
  z: 0.0642516402
  w: -0.7715567912
orientation_covariance: [0.002741552146694444, 0.0, 0.0, 0.0, 0.002741552146694444, 0.0, 0.0, 0.0, 0.007615422629706791]
angular_velocity: 
  x: 0.00402691621011
  y: -0.00247845110283
  z: 0.00090715107969
angular_velocity_covariance: [1.0966208586777776e-06, 0.0, 0.0, 0.0, 1.0966208586777776e-06, 0.0, 0.0, 0.0, 1.0966208586777776e-06]
linear_acceleration: 
  x: -0.406507794009
  y: 1.21270661468
  z: -9.90433763629
linear_acceleration_covariance: [0.0015387262937311438, 0.0, 0.0, 0.0, 0.0015387262937311438, 0.0, 0.0, 0.0, 0.0015387262937311438]
---
header: 
  seq: 71
  stamp: 
    secs: 1559001923
    nsecs: 443604779
  frame_id: "imu_link"
orientation: 
  x: -0.5255945301
  y: 0.3516048482
  z: 0.0639159472
  w: -0.7719931921
orientation_covariance: [0.002741552146694444, 0.0, 0.0, 0.0, 0.002741552146694444, 0.0, 0.0, 0.0, 0.007615422629706791]
angular_velocity: 
  x: -0.00581589753319
  y: -0.000195421733496
  z: -0.00101349436595
angular_velocity_covariance: [1.0966208586777776e-06, 0.0, 0.0, 0.0, 1.0966208586777776e-06, 0.0, 0.0, 0.0, 1.0966208586777776e-06]
linear_acceleration: 
  x: -0.410466431974
  y: 1.21212757269
  z: -9.89971523719
linear_acceleration_covariance: [0.0015387262937311438, 0.0, 0.0, 0.0, 0.0015387262937311438, 0.0, 0.0, 0.0, 0.0015387262937311438]
---
header: 
  seq: 72
  stamp: 
    secs: 1559001923
    nsecs: 498601030
  frame_id: "imu_link"
orientation: 
  x: -0.5257288073
  y: 0.3505641999
  z: 0.0636138235
  w: -0.7723960237
orientation_covariance: [0.002741552146694444, 0.0, 0.0, 0.0, 0.002741552146694444, 0.0, 0.0, 0.0, 0.007615422629706791]
angular_velocity: 
  x: 0.00146765325251
  y: 0.00189962591358
  z: 0.00230088223641
angular_velocity_covariance: [1.0966208586777776e-06, 0.0, 0.0, 0.0, 1.0966208586777776e-06, 0.0, 0.0, 0.0, 1.0966208586777776e-06]
linear_acceleration: 
  x: -0.402922884727
  y: 1.2148411425
  z: -9.91240053124
linear_acceleration_covariance: [0.0015387262937311438, 0.0, 0.0, 0.0, 0.0015387262937311438, 0.0, 0.0, 0.0, 0.0015387262937311438]
---
header: 
  seq: 73
  stamp: 
    secs: 1559001923
    nsecs: 548597742
  frame_id: "imu_link"
orientation: 
  x: -0.5254266836
  y: 0.3533504518
  z: 0.064453056
  w: -0.7712882368
orientation_covariance: [0.002741552146694444, 0.0, 0.0, 0.0, 0.002741552146694444, 0.0, 0.0, 0.0, 0.007615422629706791]
angular_velocity: 
  x: -0.00127177437336
  y: 0.000968279859346
  z: 0.00146218518982
angular_velocity_covariance: [1.0966208586777776e-06, 0.0, 0.0, 0.0, 1.0966208586777776e-06, 0.0, 0.0, 0.0, 1.0966208586777776e-06]
linear_acceleration: 
  x: -0.410008568672
  y: 1.21239126513
  z: -9.91108535699
linear_acceleration_covariance: [0.0015387262937311438, 0.0, 0.0, 0.0, 0.0015387262937311438, 0.0, 0.0, 0.0, 0.0015387262937311438]
---
header: 
  seq: 74
  stamp: 
    secs: 1559001923
    nsecs: 601592212
  frame_id: "imu_link"
orientation: 
  x: -0.5255945301
  y: 0.3522762342
  z: 0.064117363
  w: -0.7716910684
orientation_covariance: [0.002741552146694444, 0.0, 0.0, 0.0, 0.002741552146694444, 0.0, 0.0, 0.0, 0.007615422629706791]
angular_velocity: 
  x: 0.00192880664298
  y: -0.00332175016461
  z: 0.00111480820487
angular_velocity_covariance: [1.0966208586777776e-06, 0.0, 0.0, 0.0, 1.0966208586777776e-06, 0.0, 0.0, 0.0, 1.0966208586777776e-06]
linear_acceleration: 
  x: -0.410917865536
  y: 1.21036575065
  z: -9.91577556063
linear_acceleration_covariance: [0.0015387262937311438, 0.0, 0.0, 0.0, 0.0015387262937311438, 0.0, 0.0, 0.0, 0.0015387262937311438]
---
header: 
  seq: 75
  stamp: 
    secs: 1559001923
    nsecs: 656598610
  frame_id: "imu_link"
orientation: 
  x: -0.5255945301
  y: 0.3513027245
  z: 0.0638152393
  w: -0.7721274693
orientation_covariance: [0.002741552146694444, 0.0, 0.0, 0.0, 0.002741552146694444, 0.0, 0.0, 0.0, 0.007615422629706791]
angular_velocity: 
  x: 0.00387813210993
  y: -0.00216648596804
  z: 0.00069356809599
angular_velocity_covariance: [1.0966208586777776e-06, 0.0, 0.0, 0.0, 1.0966208586777776e-06, 0.0, 0.0, 0.0, 1.0966208586777776e-06]
linear_acceleration: 
  x: -0.417843938472
  y: 1.21244898666
  z: -9.91763550928
linear_acceleration_covariance: [0.0015387262937311438, 0.0, 0.0, 0.0, 0.0015387262937311438, 0.0, 0.0, 0.0, 0.0015387262937311438]
---
header: 
  seq: 76
  stamp: 
    secs: 1559001923
    nsecs: 702619653
  frame_id: "imu_link"
orientation: 
  x: -0.5255609608
  y: 0.3506649078
  z: 0.0636138235
  w: -0.7724631623
orientation_covariance: [0.002741552146694444, 0.0, 0.0, 0.0, 0.002741552146694444, 0.0, 0.0, 0.0, 0.007615422629706791]
angular_velocity: 
  x: -0.00335856992712
  y: 0.00164409105569
  z: 0.000244657541826
angular_velocity_covariance: [1.0966208586777776e-06, 0.0, 0.0, 0.0, 1.0966208586777776e-06, 0.0, 0.0, 0.0, 1.0966208586777776e-06]
linear_acceleration: 
  x: -0.417416068449
  y: 1.22019507074
  z: -9.91915994237
linear_acceleration_covariance: [0.0015387262937311438, 0.0, 0.0, 0.0, 0.0015387262937311438, 0.0, 0.0, 0.0, 0.0015387262937311438]
---
header: 
  seq: 77
  stamp: 
    secs: 1559001923
    nsecs: 756647551
  frame_id: "imu_link"
orientation: 
  x: -0.5253259757
  y: 0.3532161746
  z: 0.0644194867
  w: -0.7713889447
orientation_covariance: [0.002741552146694444, 0.0, 0.0, 0.0, 0.002741552146694444, 0.0, 0.0, 0.0, 0.007615422629706791]
angular_velocity: 
  x: 0.000450243240025
  y: -0.00420134675965
  z: -0.00116645129366
angular_velocity_covariance: [1.0966208586777776e-06, 0.0, 0.0, 0.0, 1.0966208586777776e-06, 0.0, 0.0, 0.0, 1.0966208586777776e-06]
linear_acceleration: 
  x: -0.413059626805
  y: 1.21326899781
  z: -9.91456326223
linear_acceleration_covariance: [0.0015387262937311438, 0.0, 0.0, 0.0, 0.0015387262937311438, 0.0, 0.0, 0.0, 0.0015387262937311438]
---
header: 
  seq: 78
  stamp: 
    secs: 1559001923
    nsecs: 809644739
  frame_id: "imu_link"
orientation: 
  x: -0.5255609608
  y: 0.3520748184
  z: 0.0640837937
  w: -0.7717917763
orientation_covariance: [0.002741552146694444, 0.0, 0.0, 0.0, 0.002741552146694444, 0.0, 0.0, 0.0, 0.007615422629706791]
angular_velocity: 
  x: -0.00245429695995
  y: -0.00309817128924
  z: -0.00251279105666
angular_velocity_covariance: [1.0966208586777776e-06, 0.0, 0.0, 0.0, 1.0966208586777776e-06, 0.0, 0.0, 0.0, 1.0966208586777776e-06]
linear_acceleration: 
  x: -0.408389808363
  y: 1.21225032228
  z: -9.92302947728
linear_acceleration_covariance: [0.0015387262937311438, 0.0, 0.0, 0.0, 0.0015387262937311438, 0.0, 0.0, 0.0, 0.0015387262937311438]
---
header: 
  seq: 79
  stamp: 
    secs: 1559001923
    nsecs: 864631926
  frame_id: "imu_link"
orientation: 
  x: -0.5255273915
  y: 0.3510341701
  z: 0.0637481007
  w: -0.7723288851
orientation_covariance: [0.002741552146694444, 0.0, 0.0, 0.0, 0.002741552146694444, 0.0, 0.0, 0.0, 0.007615422629706791]
angular_velocity: 
  x: -0.000495595683549
  y: 0.000592272462271
  z: 0.000282753651602
angular_velocity_covariance: [1.0966208586777776e-06, 0.0, 0.0, 0.0, 1.0966208586777776e-06, 0.0, 0.0, 0.0, 1.0966208586777776e-06]
linear_acceleration: 
  x: -0.410411925308
  y: 1.21374180295
  z: -9.92167455554
linear_acceleration_covariance: [0.0015387262937311438, 0.0, 0.0, 0.0, 0.0015387262937311438, 0.0, 0.0, 0.0, 0.0015387262937311438]
---
header: 
  seq: 80
  stamp: 
    secs: 1559001923
    nsecs: 914599372
  frame_id: "imu_link"
orientation: 
  x: -0.5246545897
  y: 0.3536525755
  z: 0.0644194867
  w: -0.7716574991
orientation_covariance: [0.002741552146694444, 0.0, 0.0, 0.0, 0.002741552146694444, 0.0, 0.0, 0.0, 0.007615422629706791]
angular_velocity: 
  x: 0.000105934384402
  y: 0.00206883248019
  z: 0.00239905925388
angular_velocity_covariance: [1.0966208586777776e-06, 0.0, 0.0, 0.0, 1.0966208586777776e-06, 0.0, 0.0, 0.0, 1.0966208586777776e-06]
linear_acceleration: 
  x: -0.413125750844
  y: 1.21748551952
  z: -9.91750925255
linear_acceleration_covariance: [0.0015387262937311438, 0.0, 0.0, 0.0, 0.0015387262937311438, 0.0, 0.0, 0.0, 0.0015387262937311438]
---
header: 
  seq: 81
  stamp: 
    secs: 1559001923
    nsecs: 967612266
  frame_id: "imu_link"
orientation: 
