
header: 
  seq: 0
  stamp: 
    secs: 1559008967
    nsecs: 962419305
  frame_id: "imu_link"
orientation: 
  x: -0.5092798503
  y: 0.3704372255
  z: 0.0922148671
  w: -0.7712546675
orientation_covariance: [0.002741552146694444, 0.0, 0.0, 0.0, 0.002741552146694444, 0.0, 0.0, 0.0, 0.007615422629706791]
angular_velocity: 
  x: -0.0025216296826
  y: 0.00306721412216
  z: 0.000453978980142
angular_velocity_covariance: [1.0966208586777776e-06, 0.0, 0.0, 0.0, 1.0966208586777776e-06, 0.0, 0.0, 0.0, 1.0966208586777776e-06]
linear_acceleration: 
  x: -0.955960781467
  y: 1.01636994972
  z: -9.94339772705
linear_acceleration_covariance: [0.0015387262937311438, 0.0, 0.0, 0.0, 0.0015387262937311438, 0.0, 0.0, 0.0, 0.0015387262937311438]
---
header: 
  seq: 1
  stamp: 
    secs: 1559008968
    nsecs:  12427461
  frame_id: "imu_link"
orientation: 
  x: -0.5093805582
  y: 0.3695308544
  z: 0.0919463127
  w: -0.7716574991
orientation_covariance: [0.002741552146694444, 0.0, 0.0, 0.0, 0.002741552146694444, 0.0, 0.0, 0.0, 0.007615422629706791]
angular_velocity: 
  x: 0.000879366624324
  y: 0.00189448255369
  z: -0.000705368708422
angular_velocity_covariance: [1.0966208586777776e-06, 0.0, 0.0, 0.0, 1.0966208586777776e-06, 0.0, 0.0, 0.0, 1.0966208586777776e-06]
linear_acceleration: 
  x: -0.965579527554
  y: 1.01804957337
  z: -9.96062475618
linear_acceleration_covariance: [0.0015387262937311438, 0.0, 0.0, 0.0, 0.0015387262937311438, 0.0, 0.0, 0.0, 0.0015387262937311438]
---
header: 
  seq: 2
  stamp: 
    secs: 1559008968
    nsecs:  72630535
  frame_id: "imu_link"
orientation: 
  x: -0.5083063406
  y: 0.3722499677
  z: 0.0925841294
  w: -0.7709861131
orientation_covariance: [0.002741552146694444, 0.0, 0.0, 0.0, 0.002741552146694444, 0.0, 0.0, 0.0, 0.007615422629706791]
angular_velocity: 
  x: 0.000793143598122
  y: -0.00332664762423
  z: 0.00111498063415
angular_velocity_covariance: [1.0966208586777776e-06, 0.0, 0.0, 0.0, 1.0966208586777776e-06, 0.0, 0.0, 0.0, 1.0966208586777776e-06]
linear_acceleration: 
  x: -0.965416592077
  y: 1.02470581639
  z: -9.94898926345
linear_acceleration_covariance: [0.0015387262937311438, 0.0, 0.0, 0.0, 0.0015387262937311438, 0.0, 0.0, 0.0, 0.0015387262937311438]
---
header: 
  seq: 3
  stamp: 
    secs: 1559008968
    nsecs: 118372634
  frame_id: "imu_link"
orientation: 
  x: -0.5082727713
  y: 0.3714107352
  z: 0.092315575
  w: -0.7714560833
orientation_covariance: [0.002741552146694444, 0.0, 0.0, 0.0, 0.002741552146694444, 0.0, 0.0, 0.0, 0.007615422629706791]
angular_velocity: 
  x: 0.0001245697501
  y: 0.00049961948849
  z: 0.000918799678679
angular_velocity_covariance: [1.0966208586777776e-06, 0.0, 0.0, 0.0, 1.0966208586777776e-06, 0.0, 0.0, 0.0, 1.0966208586777776e-06]
linear_acceleration: 
  x: -0.963980714055
  y: 1.02769878766
  z: -9.9463390412
linear_acceleration_covariance: [0.0015387262937311438, 0.0, 0.0, 0.0, 0.0015387262937311438, 0.0, 0.0, 0.0, 0.0015387262937311438]
---
header: 
  seq: 4
  stamp: 
    secs: 1559008968
    nsecs: 172368708
  frame_id: "imu_link"
orientation: 
  x: -0.5083063406
  y: 0.3705043641
  z: 0.0920134513
  w: -0.7718924842
orientation_covariance: [0.002741552146694444, 0.0, 0.0, 0.0, 0.002741552146694444, 0.0, 0.0, 0.0, 0.007615422629706791]
angular_velocity: 
  x: -0.000975067539159
  y: 0.00504859400976
  z: -0.000115814721799
angular_velocity_covariance: [1.0966208586777776e-06, 0.0, 0.0, 0.0, 1.0966208586777776e-06, 0.0, 0.0, 0.0, 1.0966208586777776e-06]
linear_acceleration: 
  x: -0.966309814589
  y: 1.022938003
  z: -9.95356723889
linear_acceleration_covariance: [0.0015387262937311438, 0.0, 0.0, 0.0, 0.0015387262937311438, 0.0, 0.0, 0.0, 0.0015387262937311438]
---
header: 
  seq: 5
  stamp: 
    secs: 1559008968
    nsecs: 220429683
  frame_id: "imu_link"
orientation: 
  x: -0.5085413257
  y: 0.3694972851
  z: 0.0917448969
  w: -0.7722617465
orientation_covariance: [0.002741552146694444, 0.0, 0.0, 0.0, 0.002741552146694444, 0.0, 0.0, 0.0, 0.007615422629706791]
angular_velocity: 
  x: 0.00193785566905
  y: -0.00281372123783
  z: 0.000434234755049
angular_velocity_covariance: [1.0966208586777776e-06, 0.0, 0.0, 0.0, 1.0966208586777776e-06, 0.0, 0.0, 0.0, 1.0966208586777776e-06]
linear_acceleration: 
  x: -0.960628042626
  y: 1.02105270071
  z: -9.95637177491
linear_acceleration_covariance: [0.0015387262937311438, 0.0, 0.0, 0.0, 0.0015387262937311438, 0.0, 0.0, 0.0, 0.0015387262937311438]
---
header: 
  seq: 6
  stamp: 
    secs: 1559008968
    nsecs: 275426665
  frame_id: "imu_link"
orientation: 
  x: -0.5076349546
  y: 0.3720821212
  z: 0.0923491443
  w: -0.7715232219
orientation_covariance: [0.002741552146694444, 0.0, 0.0, 0.0, 0.002741552146694444, 0.0, 0.0, 0.0, 0.007615422629706791]
angular_velocity: 
  x: 0.00281547543915
  y: -0.00272608555291
  z: -0.000177511682582
angular_velocity_covariance: [1.0966208586777776e-06, 0.0, 0.0, 0.0, 1.0966208586777776e-06, 0.0, 0.0, 0.0, 1.0966208586777776e-06]
linear_acceleration: 
  x: -0.957251990322
  y: 1.02842746726
  z: -9.9525127614
linear_acceleration_covariance: [0.0015387262937311438, 0.0, 0.0, 0.0, 0.0015387262937311438, 0.0, 0.0, 0.0, 0.0015387262937311438]
---
header: 
  seq: 7
  stamp: 
    secs: 1559008968
    nsecs: 326431154
  frame_id: "imu_link"
orientation: 
  x: -0.5075342467
  y: 0.3713771659
  z: 0.0921141592
  w: -0.7719596228
orientation_covariance: [0.002741552146694444, 0.0, 0.0, 0.0, 0.002741552146694444, 0.0, 0.0, 0.0, 0.007615422629706791]
angular_velocity: 
  x: 0.000641257396405
  y: 0.00234847635807
  z: 0.00127907166882
angular_velocity_covariance: [1.0966208586777776e-06, 0.0, 0.0, 0.0, 1.0966208586777776e-06, 0.0, 0.0, 0.0, 1.0966208586777776e-06]
linear_acceleration: 
  x: -0.962512322003
  y: 1.02571769685
  z: -9.95046225861
linear_acceleration_covariance: [0.0015387262937311438, 0.0, 0.0, 0.0, 0.0015387262937311438, 0.0, 0.0, 0.0, 0.0015387262937311438]
---
header: 
  seq: 8
  stamp: 
    secs: 1559008968
    nsecs: 376437821
  frame_id: "imu_link"
orientation: 
  x: -0.5075342467
  y: 0.370605072
  z: 0.0919127434
  w: -0.7723624544
orientation_covariance: [0.002741552146694444, 0.0, 0.0, 0.0, 0.002741552146694444, 0.0, 0.0, 0.0, 0.007615422629706791]
angular_velocity: 
  x: 0.0006096195498
  y: -0.00205887800536
  z: -0.000218338263935
angular_velocity_covariance: [1.0966208586777776e-06, 0.0, 0.0, 0.0, 1.0966208586777776e-06, 0.0, 0.0, 0.0, 1.0966208586777776e-06]
linear_acceleration: 
  x: -0.969411141606
  y: 1.0202273558
  z: -9.95254198749
linear_acceleration_covariance: [0.0015387262937311438, 0.0, 0.0, 0.0, 0.0015387262937311438, 0.0, 0.0, 0.0, 0.0015387262937311438]
---
header: 
  seq: 9
  stamp: 
    secs: 1559008968
    nsecs: 431430021
  frame_id: "imu_link"
orientation: 
  x: -0.5069971379
  y: 0.3729884923
  z: 0.0925505601
  w: -0.7714896526
orientation_covariance: [0.002741552146694444, 0.0, 0.0, 0.0, 0.002741552146694444, 0.0, 0.0, 0.0, 0.007615422629706791]
angular_velocity: 
  x: 0.00272563328366
  y: -0.00411871074356
  z: -0.00171840807434
angular_velocity_covariance: [1.0966208586777776e-06, 0.0, 0.0, 0.0, 1.0966208586777776e-06, 0.0, 0.0, 0.0, 1.0966208586777776e-06]
linear_acceleration: 
  x: -0.963057680926
  y: 1.01262184924
  z: -9.95035119945
linear_acceleration_covariance: [0.0015387262937311438, 0.0, 0.0, 0.0, 0.0015387262937311438, 0.0, 0.0, 0.0, 0.0015387262937311438]
---
header: 
  seq: 10
  stamp: 
    secs: 1559008968
    nsecs: 483401299
  frame_id: "imu_link"
orientation: 
  x: -0.5073328309
  y: 0.3720485519
  z: 0.0922820057
  w: -0.771758207
orientation_covariance: [0.002741552146694444, 0.0, 0.0, 0.0, 0.002741552146694444, 0.0, 0.0, 0.0, 0.007615422629706791]
angular_velocity: 
  x: -0.00156342484254
  y: 0.00130795929445
  z: 0.000815530796036
angular_velocity_covariance: [1.0966208586777776e-06, 0.0, 0.0, 0.0, 1.0966208586777776e-06, 0.0, 0.0, 0.0, 1.0966208586777776e-06]
linear_acceleration: 
  x: -0.961629036362
  y: 1.01272187554
  z: -9.94866193119
linear_acceleration_covariance: [0.0015387262937311438, 0.0, 0.0, 0.0, 0.0015387262937311438, 0.0, 0.0, 0.0, 0.0015387262937311438]
---
header: 
  seq: 11
  stamp: 
    secs: 1559008968
    nsecs: 537433643
  frame_id: "imu_link"
orientation: 
  x: -0.507567816
  y: 0.3711421808
  z: 0.0920470206
  w: -0.7720603307
orientation_covariance: [0.002741552146694444, 0.0, 0.0, 0.0, 0.002741552146694444, 0.0, 0.0, 0.0, 0.007615422629706791]
angular_velocity: 
  x: -0.00210104788686
  y: 0.00302537804606
  z: 0.00208982919073
angular_velocity_covariance: [1.0966208586777776e-06, 0.0, 0.0, 0.0, 1.0966208586777776e-06, 0.0, 0.0, 0.0, 1.0966208586777776e-06]
linear_acceleration: 
  x: -0.961559405192
  y: 1.01639574175
  z: -9.95231753109
linear_acceleration_covariance: [0.0015387262937311438, 0.0, 0.0, 0.0, 0.0015387262937311438, 0.0, 0.0, 0.0, 0.0015387262937311438]
---
header: 
  seq: 12
  stamp: 
    secs: 1559008968
    nsecs: 588442523
  frame_id: "imu_link"
orientation: 
  x: -0.5078363704
  y: 0.3702022404
  z: 0.0918120355
  w: -0.7723624544
orientation_covariance: [0.002741552146694444, 0.0, 0.0, 0.0, 0.002741552146694444, 0.0, 0.0, 0.0, 0.007615422629706791]
angular_velocity: 
  x: 0.00373329957904
  y: -0.00395340334128
  z: 0.000508439226535
angular_velocity_covariance: [1.0966208586777776e-06, 0.0, 0.0, 0.0, 1.0966208586777776e-06, 0.0, 0.0, 0.0, 1.0966208586777776e-06]
linear_acceleration: 
  x: -0.964381549941
  y: 1.01840116329
  z: -9.95470238039
linear_acceleration_covariance: [0.0015387262937311438, 0.0, 0.0, 0.0, 0.0015387262937311438, 0.0, 0.0, 0.0, 0.0015387262937311438]
---
header: 
  seq: 13
  stamp: 
    secs: 1559008968
    nsecs: 640404982
  frame_id: "imu_link"
orientation: 
  x: -0.5072656923
  y: 0.3726863686
  z: 0.0924498522
  w: -0.7714896526
orientation_covariance: [0.002741552146694444, 0.0, 0.0, 0.0, 0.002741552146694444, 0.0, 0.0, 0.0, 0.007615422629706791]
angular_velocity: 
  x: 0.00103851429626
  y: -0.00118567650793
  z: 0.000140192707399
angular_velocity_covariance: [1.0966208586777776e-06, 0.0, 0.0, 0.0, 1.0966208586777776e-06, 0.0, 0.0, 0.0, 1.0966208586777776e-06]
linear_acceleration: 
  x: -0.962584072065
  y: 1.0193286534
  z: -9.95573113892
linear_acceleration_covariance: [0.0015387262937311438, 0.0, 0.0, 0.0, 0.0015387262937311438, 0.0, 0.0, 0.0, 0.0015387262937311438]
---
header: 
  seq: 14
  stamp: 
    secs: 1559008968
    nsecs: 691433852
  frame_id: "imu_link"
orientation: 
  x: -0.5076013853
  y: 0.3717128589
  z: 0.0921812978
  w: -0.771758207
orientation_covariance: [0.002741552146694444, 0.0, 0.0, 0.0, 0.002741552146694444, 0.0, 0.0, 0.0, 0.007615422629706791]
angular_velocity: 
  x: -0.00213034747022
  y: 0.00305857289263
  z: 0.000475880424235
angular_velocity_covariance: [1.0966208586777776e-06, 0.0, 0.0, 0.0, 1.0966208586777776e-06, 0.0, 0.0, 0.0, 1.0966208586777776e-06]
linear_acceleration: 
  x: -0.960401394263
  y: 1.0279607996
  z: -9.94624785578
linear_acceleration_covariance: [0.0015387262937311438, 0.0, 0.0, 0.0, 0.0015387262937311438, 0.0, 0.0, 0.0, 0.0015387262937311438]
---
header: 
  seq: 15
  stamp: 
    secs: 1559008968
    nsecs: 745404566
  frame_id: "imu_link"
orientation: 
  x: -0.507903509
  y: 0.3705715027
  z: 0.0918791741
  w: -0.7721274693
orientation_covariance: [0.002741552146694444, 0.0, 0.0, 0.0, 0.002741552146694444, 0.0, 0.0, 0.0, 0.007615422629706791]
angular_velocity: 
  x: 0.000365456474285
  y: -0.000616438308495
  z: -0.00154059005671
angular_velocity_covariance: [1.0966208586777776e-06, 0.0, 0.0, 0.0, 1.0966208586777776e-06, 0.0, 0.0, 0.0, 1.0966208586777776e-06]
linear_acceleration: 
  x: -0.96127262414
  y: 1.02311058309
  z: -9.94376831393
linear_acceleration_covariance: [0.0015387262937311438, 0.0, 0.0, 0.0, 0.0015387262937311438, 0.0, 0.0, 0.0, 0.0015387262937311438]
---
header: 
  seq: 16
  stamp: 
    secs: 1559008968
    nsecs: 797430310
  frame_id: "imu_link"
orientation: 
  x: -0.5074335388
  y: 0.3728877844
  z: 0.0924834215
  w: -0.7712882368
orientation_covariance: [0.002741552146694444, 0.0, 0.0, 0.0, 0.002741552146694444, 0.0, 0.0, 0.0, 0.007615422629706791]
angular_velocity: 
  x: 0.000778873059824
  y: -0.00218493356008
  z: -0.00221708004705
angular_velocity_covariance: [1.0966208586777776e-06, 0.0, 0.0, 0.0, 1.0966208586777776e-06, 0.0, 0.0, 0.0, 1.0966208586777776e-06]
linear_acceleration: 
  x: -0.964025649175
  y: 1.02540198196
  z: -9.94198318408
linear_acceleration_covariance: [0.0015387262937311438, 0.0, 0.0, 0.0, 0.0015387262937311438, 0.0, 0.0, 0.0, 0.0015387262937311438]
---
header: 
  seq: 17
  stamp: 
    secs: 1559008968
    nsecs: 848415962
  frame_id: "imu_link"
orientation: 
  x: -0.5077020932
  y: 0.371947844
  z: 0.0922484364
  w: -0.7715567912
orientation_covariance: [0.002741552146694444, 0.0, 0.0, 0.0, 0.002741552146694444, 0.0, 0.0, 0.0, 0.007615422629706791]
angular_velocity: 
  x: -0.00242174865816
  y: -2.63345735121e-05
  z: -0.00154261733608
angular_velocity_covariance: [1.0966208586777776e-06, 0.0, 0.0, 0.0, 1.0966208586777776e-06, 0.0, 0.0, 0.0, 1.0966208586777776e-06]
linear_acceleration: 
  x: -0.965543871718
  y: 1.02358579939
  z: -9.94654713099
linear_acceleration_covariance: [0.0015387262937311438, 0.0, 0.0, 0.0, 0.0015387262937311438, 0.0, 0.0, 0.0, 0.0015387262937311438]
---
header: 
  seq: 18
  stamp: 
    secs: 1559008968
    nsecs: 902405087
  frame_id: "imu_link"
orientation: 
  x: -0.5081049248
  y: 0.3709743343
  z: 0.091979882
  w: -0.7717917763
orientation_covariance: [0.002741552146694444, 0.0, 0.0, 0.0, 0.002741552146694444, 0.0, 0.0, 0.0, 0.007615422629706791]
angular_velocity: 
  x: -0.0012772348939
  y: 0.00323993260242
  z: -0.000492458309437
angular_velocity_covariance: [1.0966208586777776e-06, 0.0, 0.0, 0.0, 1.0966208586777776e-06, 0.0, 0.0, 0.0, 1.0966208586777776e-06]
linear_acceleration: 
  x: -0.964280427654
  y: 1.02646690778
  z: -9.9572766148
linear_acceleration_covariance: [0.0015387262937311438, 0.0, 0.0, 0.0, 0.0015387262937311438, 0.0, 0.0, 0.0, 0.0015387262937311438]
---
header: 
  seq: 19
  stamp: 
    secs: 1559008968
    nsecs: 953444330
  frame_id: "imu_link"
orientation: 
  x: -0.5084406178
  y: 0.369933686
  z: 0.0917448969
  w: -0.7721274693
orientation_covariance: [0.002741552146694444, 0.0, 0.0, 0.0, 0.002741552146694444, 0.0, 0.0, 0.0, 0.007615422629706791]
angular_velocity: 
  x: 0.00165531222253
  y: -0.00359202122388
  z: -0.000441155495389
angular_velocity_covariance: [1.0966208586777776e-06, 0.0, 0.0, 0.0, 1.0966208586777776e-06, 0.0, 0.0, 0.0, 1.0966208586777776e-06]
linear_acceleration: 
  x: -0.960342795944
  y: 1.02636096319
  z: -9.96495021816
linear_acceleration_covariance: [0.0015387262937311438, 0.0, 0.0, 0.0, 0.0015387262937311438, 0.0, 0.0, 0.0, 0.0015387262937311438]
---
header: 
  seq: 20
  stamp: 
    secs: 1559008969
    nsecs:   2399872
  frame_id: "imu_link"
orientation: 
  x: -0.5077692318
  y: 0.3724849528
  z: 0.0923827136
  w: -0.7712546675
orientation_covariance: [0.002741552146694444, 0.0, 0.0, 0.0, 0.002741552146694444, 0.0, 0.0, 0.0, 0.007615422629706791]
angular_velocity: 
  x: -0.00166743597731
  y: 0.0045209510576
  z: -0.000752281890481
angular_velocity_covariance: [1.0966208586777776e-06, 0.0, 0.0, 0.0, 1.0966208586777776e-06, 0.0, 0.0, 0.0, 1.0966208586777776e-06]
linear_acceleration: 
  x: -0.966784081038
  y: 1.02393753543
  z: -9.96910499976
linear_acceleration_covariance: [0.0015387262937311438, 0.0, 0.0, 0.0, 0.0015387262937311438, 0.0, 0.0, 0.0, 0.0015387262937311438]
---
header: 
  seq: 21
  stamp: 
    secs: 1559008969
    nsecs:  53417573
  frame_id: "imu_link"
orientation: 
  x: -0.5078699397
  y: 0.3714443045
  z: 0.0921141592
  w: -0.7717246377
orientation_covariance: [0.002741552146694444, 0.0, 0.0, 0.0, 0.002741552146694444, 0.0, 0.0, 0.0, 0.007615422629706791]
angular_velocity: 
  x: 0.00108050264588
  y: -0.00232724128942
  z: -0.000671981341831
angular_velocity_covariance: [1.0966208586777776e-06, 0.0, 0.0, 0.0, 1.0966208586777776e-06, 0.0, 0.0, 0.0, 1.0966208586777776e-06]
linear_acceleration: 
  x: -0.967216992562
  y: 1.01783607675
  z: -9.97337434764
linear_acceleration_covariance: [0.0015387262937311438, 0.0, 0.0, 0.0, 0.0015387262937311438, 0.0, 0.0, 0.0, 0.0015387262937311438]
---
header: 
  seq: 22
  stamp: 
    secs: 1559008969
    nsecs: 107412264
  frame_id: "imu_link"
orientation: 
  x: -0.5081384941
  y: 0.3703700869
  z: 0.0918456048
  w: -0.7720939
orientation_covariance: [0.002741552146694444, 0.0, 0.0, 0.0, 0.002741552146694444, 0.0, 0.0, 0.0, 0.007615422629706791]
angular_velocity: 
  x: -0.000386241971957
  y: -0.000813431216009
  z: 0.000700881971182
angular_velocity_covariance: [1.0966208586777776e-06, 0.0, 0.0, 0.0, 1.0966208586777776e-06, 0.0, 0.0, 0.0, 1.0966208586777776e-06]
linear_acceleration: 
  x: -0.963904580079
  y: 1.0173605682
  z: -9.96100352637
linear_acceleration_covariance: [0.0015387262937311438, 0.0, 0.0, 0.0, 0.0015387262937311438, 0.0, 0.0, 0.0, 0.0015387262937311438]
---
header: 
  seq: 23
  stamp: 
    secs: 1559008969
    nsecs: 158411155
  frame_id: "imu_link"
orientation: 
  x: -0.5082727713
  y: 0.3694637158
  z: 0.0915770504
  w: -0.7724967316
orientation_covariance: [0.002741552146694444, 0.0, 0.0, 0.0, 0.002741552146694444, 0.0, 0.0, 0.0, 0.007615422629706791]
angular_velocity: 
  x: -0.000934538401561
  y: 0.00232335994019
  z: 0.0016618075788
angular_velocity_covariance: [1.0966208586777776e-06, 0.0, 0.0, 0.0, 1.0966208586777776e-06, 0.0, 0.0, 0.0, 1.0966208586777776e-06]
linear_acceleration: 
  x: -0.959290802673
  y: 1.01941194777
  z: -9.95705800361
linear_acceleration_covariance: [0.0015387262937311438, 0.0, 0.0, 0.0, 0.0015387262937311438, 0.0, 0.0, 0.0, 0.0015387262937311438]
---
header: 
  seq: 24
  stamp: 
    secs: 1559008969
    nsecs: 207404603
  frame_id: "imu_link"
orientation: 
  x: -0.5074671081
  y: 0.3721156905
  z: 0.0922484364
  w: -0.7716574991
orientation_covariance: [0.002741552146694444, 0.0, 0.0, 0.0, 0.002741552146694444, 0.0, 0.0, 0.0, 0.007615422629706791]
angular_velocity: 
  x: 0.00119334297889
  y: -0.00162145574687
  z: -0.00133323682838
angular_velocity_covariance: [1.0966208586777776e-06, 0.0, 0.0, 0.0, 1.0966208586777776e-06, 0.0, 0.0, 0.0, 1.0966208586777776e-06]
linear_acceleration: 
  x: -0.963207172399
  y: 1.01631149753
  z: -9.97004608
linear_acceleration_covariance: [0.0015387262937311438, 0.0, 0.0, 0.0, 0.0015387262937311438, 0.0, 0.0, 0.0, 0.0015387262937311438]
---
header: 
  seq: 25
  stamp: 
    secs: 1559008969
    nsecs: 258412315
  frame_id: "imu_link"
orientation: 
  x: -0.507567816
  y: 0.3712093194
  z: 0.0920134513
  w: -0.7720267614
orientation_covariance: [0.002741552146694444, 0.0, 0.0, 0.0, 0.002741552146694444, 0.0, 0.0, 0.0, 0.007615422629706791]
angular_velocity: 
  x: -0.00100299484035
  y: 1.81377134768e-05
  z: 9.33417806313e-05
angular_velocity_covariance: [1.0966208586777776e-06, 0.0, 0.0, 0.0, 1.0966208586777776e-06, 0.0, 0.0, 0.0, 1.0966208586777776e-06]
linear_acceleration: 
  x: -0.96192692333
  y: 1.02015297539
  z: -9.96348423727
linear_acceleration_covariance: [0.0015387262937311438, 0.0, 0.0, 0.0, 0.0015387262937311438, 0.0, 0.0, 0.0, 0.0015387262937311438]
---
header: 
  seq: 26
  stamp: 
    secs: 1559008969
    nsecs: 312413956
  frame_id: "imu_link"
orientation: 
  x: -0.5078363704
  y: 0.3703029483
  z: 0.0917784662
  w: -0.7723288851
orientation_covariance: [0.002741552146694444, 0.0, 0.0, 0.0, 0.002741552146694444, 0.0, 0.0, 0.0, 0.007615422629706791]
angular_velocity: 
  x: -0.00226225859837
  y: 0.0032985718206
  z: 0.00102722427474
angular_velocity_covariance: [1.0966208586777776e-06, 0.0, 0.0, 0.0, 1.0966208586777776e-06, 0.0, 0.0, 0.0, 1.0966208586777776e-06]
linear_acceleration: 
  x: -0.969032298356
  y: 1.02069256216
  z: -9.96114614971
linear_acceleration_covariance: [0.0015387262937311438, 0.0, 0.0, 0.0, 0.0015387262937311438, 0.0, 0.0, 0.0, 0.0015387262937311438]
---
header: 
  seq: 27
  stamp: 
    secs: 1559008969
    nsecs: 360400934
  frame_id: "imu_link"
orientation: 
  x: -0.5080377862
  y: 0.3693630079
  z: 0.0915099118
  w: -0.7726645781
orientation_covariance: [0.002741552146694444, 0.0, 0.0, 0.0, 0.002741552146694444, 0.0, 0.0, 0.0, 0.007615422629706791]
angular_velocity: 
  x: 0.00294748110432
  y: -0.000607527837021
  z: 0.000271826888903
angular_velocity_covariance: [1.0966208586777776e-06, 0.0, 0.0, 0.0, 1.0966208586777776e-06, 0.0, 0.0, 0.0, 1.0966208586777776e-06]
linear_acceleration: 
  x: -0.96802991638
  y: 1.02020689754
  z: -9.95231986917
linear_acceleration_covariance: [0.0015387262937311438, 0.0, 0.0, 0.0, 0.0015387262937311438, 0.0, 0.0, 0.0, 0.0015387262937311438]
---
header: 
  seq: 28
  stamp: 
    secs: 1559008969
    nsecs: 415417577
  frame_id: "imu_link"
orientation: 
  x: -0.5072656923
  y: 0.3720485519
  z: 0.0921477285
  w: -0.7718253456
orientation_covariance: [0.002741552146694444, 0.0, 0.0, 0.0, 0.002741552146694444, 0.0, 0.0, 0.0, 0.007615422629706791]
angular_velocity: 
  x: 0.00132582510022
  y: -0.00248251554439
  z: 0.000221132908851
angular_velocity_covariance: [1.0966208586777776e-06, 0.0, 0.0, 0.0, 1.0966208586777776e-06, 0.0, 0.0, 0.0, 1.0966208586777776e-06]
linear_acceleration: 
  x: -0.958251449688
  y: 1.02576343569
  z: -9.95144542443
linear_acceleration_covariance: [0.0015387262937311438, 0.0, 0.0, 0.0, 0.0015387262937311438, 0.0, 0.0, 0.0, 0.0015387262937311438]
---
header: 
  seq: 29
  stamp: 
    secs: 1559008969
    nsecs: 467424009
  frame_id: "imu_link"
orientation: 
  x: -0.5073328309
  y: 0.3713435966
  z: 0.0919127434
  w: -0.7721610386
orientation_covariance: [0.002741552146694444, 0.0, 0.0, 0.0, 0.002741552146694444, 0.0, 0.0, 0.0, 0.007615422629706791]
angular_velocity: 
  x: -0.00363211038074
  y: 0.00416866087854
  z: 0.00146433002278
angular_velocity_covariance: [1.0966208586777776e-06, 0.0, 0.0, 0.0, 1.0966208586777776e-06, 0.0, 0.0, 0.0, 1.0966208586777776e-06]
linear_acceleration: 
  x: -0.967320672132
  y: 1.01994715062
  z: -9.9536210149
linear_acceleration_covariance: [0.0015387262937311438, 0.0, 0.0, 0.0, 0.0015387262937311438, 0.0, 0.0, 0.0, 0.0015387262937311438]
---
header: 
  seq: 30
  stamp: 
    secs: 1559008969
    nsecs: 517387296
  frame_id: "imu_link"
orientation: 
  x: -0.5075342467
  y: 0.370605072
  z: 0.0917448969
  w: -0.7723624544
orientation_covariance: [0.002741552146694444, 0.0, 0.0, 0.0, 0.002741552146694444, 0.0, 0.0, 0.0, 0.007615422629706791]
angular_velocity: 
  x: -2.19871385827e-05
  y: 0.000177794042026
  z: -0.000428177363941
angular_velocity_covariance: [1.0966208586777776e-06, 0.0, 0.0, 0.0, 1.0966208586777776e-06, 0.0, 0.0, 0.0, 1.0966208586777776e-06]
linear_acceleration: 
  x: -0.967629445821
  y: 1.02701423946
  z: -9.94972225389
linear_acceleration_covariance: [0.0015387262937311438, 0.0, 0.0, 0.0, 0.0015387262937311438, 0.0, 0.0, 0.0, 0.0015387262937311438]
---
header: 
  seq: 31
  stamp: 
    secs: 1559008969
    nsecs: 572422048
  frame_id: "imu_link"
orientation: 
  x: -0.5069299993
  y: 0.3733577546
  z: 0.0924498522
  w: -0.7713553754
orientation_covariance: [0.002741552146694444, 0.0, 0.0, 0.0, 0.002741552146694444, 0.0, 0.0, 0.0, 0.007615422629706791]
angular_velocity: 
  x: -0.00102720710984
  y: -0.000448334066913
  z: -0.000649626263097
angular_velocity_covariance: [1.0966208586777776e-06, 0.0, 0.0, 0.0, 1.0966208586777776e-06, 0.0, 0.0, 0.0, 1.0966208586777776e-06]
linear_acceleration: 
  x: -0.96308537265
  y: 1.02726244207
  z: -9.94837083929
linear_acceleration_covariance: [0.0015387262937311438, 0.0, 0.0, 0.0, 0.0015387262937311438, 0.0, 0.0, 0.0, 0.0015387262937311438]
---
header: 
  seq: 32
  stamp: 
    secs: 1559008969
    nsecs: 623419255
  frame_id: "imu_link"
orientation: 
  x: -0.5071314151
  y: 0.3724178142
  z: 0.0921477285
  w: -0.771758207
orientation_covariance: [0.002741552146694444, 0.0, 0.0, 0.0, 0.002741552146694444, 0.0, 0.0, 0.0, 0.007615422629706791]
angular_velocity: 
  x: 0.000641973381022
  y: 0.00121664095709
  z: -0.000191550917277
angular_velocity_covariance: [1.0966208586777776e-06, 0.0, 0.0, 0.0, 1.0966208586777776e-06, 0.0, 0.0, 0.0, 1.0966208586777776e-06]
linear_acceleration: 
  x: -0.966060150677
  y: 1.0235273472
  z: -9.9551431099
linear_acceleration_covariance: [0.0015387262937311438, 0.0, 0.0, 0.0, 0.0015387262937311438, 0.0, 0.0, 0.0, 0.0015387262937311438]
---
header: 
  seq: 33
  stamp: 
    secs: 1559008969
    nsecs: 677419250
  frame_id: "imu_link"
orientation: 
  x: -0.5072656923
  y: 0.371276458
  z: 0.0918791741
  w: -0.7722281772
orientation_covariance: [0.002741552146694444, 0.0, 0.0, 0.0, 0.002741552146694444, 0.0, 0.0, 0.0, 0.007615422629706791]
angular_velocity: 
  x: -0.00171466768539
  y: 0.00336923817594
  z: 0.00123258572386
angular_velocity_covariance: [1.0966208586777776e-06, 0.0, 0.0, 0.0, 1.0966208586777776e-06, 0.0, 0.0, 0.0, 1.0966208586777776e-06]
linear_acceleration: 
  x: -0.97218703606
  y: 1.02137966764
  z: -9.96543420229
linear_acceleration_covariance: [0.0015387262937311438, 0.0, 0.0, 0.0, 0.0015387262937311438, 0.0, 0.0, 0.0, 0.0015387262937311438]
---
header: 
  seq: 34
  stamp: 
    secs: 1559008969
    nsecs: 725418145
  frame_id: "imu_link"
orientation: 
  x: -0.5073664002
  y: 0.370269379
  z: 0.0915770504
  w: -0.7726981474
orientation_covariance: [0.002741552146694444, 0.0, 0.0, 0.0, 0.002741552146694444, 0.0, 0.0, 0.0, 0.007615422629706791]
angular_velocity: 
  x: 0.00120399354266
  y: -0.00266132912653
  z: -0.000339976212421
angular_velocity_covariance: [1.0966208586777776e-06, 0.0, 0.0, 0.0, 1.0966208586777776e-06, 0.0, 0.0, 0.0, 1.0966208586777776e-06]
linear_acceleration: 
  x: -0.968535747011
  y: 1.02698976261
  z: -9.96996424693
linear_acceleration_covariance: [0.0015387262937311438, 0.0, 0.0, 0.0, 0.0015387262937311438, 0.0, 0.0, 0.0, 0.0015387262937311438]
---
header: 
  seq: 35
  stamp: 
    secs: 1559008969
    nsecs: 780429593
  frame_id: "imu_link"
orientation: 
  x: -0.5064600291
  y: 0.3727535072
  z: 0.0921477285
  w: -0.7720267614
orientation_covariance: [0.002741552146694444, 0.0, 0.0, 0.0, 0.002741552146694444, 0.0, 0.0, 0.0, 0.007615422629706791]
angular_velocity: 
  x: 4.86835079905e-05
  y: -0.00156305956815
  z: 0.00158282339634
angular_velocity_covariance: [1.0966208586777776e-06, 0.0, 0.0, 0.0, 1.0966208586777776e-06, 0.0, 0.0, 0.0, 1.0966208586777776e-06]
linear_acceleration: 
  x: -0.971144614335
  y: 1.02045831501
  z: -9.96610757151
linear_acceleration_covariance: [0.0015387262937311438, 0.0, 0.0, 0.0, 0.0015387262937311438, 0.0, 0.0, 0.0, 0.0015387262937311438]
---
header: 
  seq: 36
  stamp: 
    secs: 1559008969
    nsecs: 832454390
  frame_id: "imu_link"
orientation: 
  x: -0.506560737
  y: 0.3717128589
  z: 0.0918456048
  w: -0.7724967316
orientation_covariance: [0.002741552146694444, 0.0, 0.0, 0.0, 0.002741552146694444, 0.0, 0.0, 0.0, 0.007615422629706791]
angular_velocity: 
  x: -0.000823193430898
  y: 0.00603492224705
  z: -0.000797665640452
angular_velocity_covariance: [1.0966208586777776e-06, 0.0, 0.0, 0.0, 1.0966208586777776e-06, 0.0, 0.0, 0.0, 1.0966208586777776e-06]
linear_acceleration: 
  x: -0.977120473874
  y: 1.02870021979
  z: -9.96333576871
linear_acceleration_covariance: [0.0015387262937311438, 0.0, 0.0, 0.0, 0.0015387262937311438, 0.0, 0.0, 0.0, 0.0015387262937311438]
---
header: 
  seq: 37
  stamp: 
    secs: 1559008969
    nsecs: 882389440
  frame_id: "imu_link"
orientation: 
  x: -0.5066614449
  y: 0.3707057799
  z: 0.0915434811
  w: -0.7729331325
orientation_covariance: [0.002741552146694444, 0.0, 0.0, 0.0, 0.002741552146694444, 0.0, 0.0, 0.0, 0.007615422629706791]
angular_velocity: 
  x: 0.00375520459915
  y: -0.000765726692797
  z: -0.000642482346477
angular_velocity_covariance: [1.0966208586777776e-06, 0.0, 0.0, 0.0, 1.0966208586777776e-06, 0.0, 0.0, 0.0, 1.0966208586777776e-06]
linear_acceleration: 
  x: -0.968552186689
  y: 1.03006266725
  z: -9.95871453865
linear_acceleration_covariance: [0.0015387262937311438, 0.0, 0.0, 0.0, 0.0015387262937311438, 0.0, 0.0, 0.0, 0.0015387262937311438]
---
header: 
  seq: 38
  stamp: 
    secs: 1559008969
    nsecs: 937389455
  frame_id: "imu_link"
orientation: 
  x: -0.5057550738
  y: 0.3730220616
  z: 0.0920805899
  w: -0.7723288851
orientation_covariance: [0.002741552146694444, 0.0, 0.0, 0.0, 0.002741552146694444, 0.0, 0.0, 0.0, 0.007615422629706791]
angular_velocity: 
  x: 0.00198785456796
  y: -0.00286567342496
  z: -6.76565801999e-05
angular_velocity_covariance: [1.0966208586777776e-06, 0.0, 0.0, 0.0, 1.0966208586777776e-06, 0.0, 0.0, 0.0, 1.0966208586777776e-06]
linear_acceleration: 
  x: -0.966834642181
  y: 1.02541864084
  z: -9.95535470682
linear_acceleration_covariance: [0.0015387262937311438, 0.0, 0.0, 0.0, 0.0015387262937311438, 0.0, 0.0, 0.0, 0.0015387262937311438]
---
header: 
  seq: 39
  stamp: 
    secs: 1559008969
    nsecs: 988452093
  frame_id: "imu_link"
orientation: 
  x: -0.5059564896
  y: 0.3719142747
  z: 0.0917113276
  w: -0.7727988553
orientation_covariance: [0.002741552146694444, 0.0, 0.0, 0.0, 0.002741552146694444, 0.0, 0.0, 0.0, 0.007615422629706791]
angular_velocity: 
  x: -0.000226250163783
  y: 0.00211677900256
  z: -0.000165233281106
angular_velocity_covariance: [1.0966208586777776e-06, 0.0, 0.0, 0.0, 1.0966208586777776e-06, 0.0, 0.0, 0.0, 1.0966208586777776e-06]
linear_acceleration: 
  x: -0.970286024744
  y: 1.02062424617
  z: -9.95993151322
linear_acceleration_covariance: [0.0015387262937311438, 0.0, 0.0, 0.0, 0.0015387262937311438, 0.0, 0.0, 0.0, 0.0015387262937311438]
---
header: 
  seq: 40
  stamp: 
    secs: 1559008970
    nsecs:  42408632
  frame_id: "imu_link"
orientation: 
  x: -0.506225044
  y: 0.3707729185
  z: 0.0914092039
  w: -0.7732016869
orientation_covariance: [0.002741552146694444, 0.0, 0.0, 0.0, 0.002741552146694444, 0.0, 0.0, 0.0, 0.007615422629706791]
angular_velocity: 
  x: -0.00160121442221
  y: 0.00416879377652
  z: 0.000754968718335
angular_velocity_covariance: [1.0966208586777776e-06, 0.0, 0.0, 0.0, 1.0966208586777776e-06, 0.0, 0.0, 0.0, 1.0966208586777776e-06]
linear_acceleration: 
  x: -0.966580959681
  y: 1.01943657075
  z: -9.95397523516
linear_acceleration_covariance: [0.0015387262937311438, 0.0, 0.0, 0.0, 0.0015387262937311438, 0.0, 0.0, 0.0, 0.0015387262937311438]
---
header: 
  seq: 41
  stamp: 
    secs: 1559008970
    nsecs:  94441889
  frame_id: "imu_link"
orientation: 
  x: -0.5064935984
  y: 0.3696987009
  z: 0.0911070802
  w: -0.7735709492
orientation_covariance: [0.002741552146694444, 0.0, 0.0, 0.0, 0.002741552146694444, 0.0, 0.0, 0.0, 0.007615422629706791]
angular_velocity: 
  x: 0.00226689000196
  y: -0.000919770406098
  z: -0.000821961263764
angular_velocity_covariance: [1.0966208586777776e-06, 0.0, 0.0, 0.0, 1.0966208586777776e-06, 0.0, 0.0, 0.0, 1.0966208586777776e-06]
linear_acceleration: 
  x: -0.966190279863
  y: 1.02076650418
  z: -9.96417631118
linear_acceleration_covariance: [0.0015387262937311438, 0.0, 0.0, 0.0, 0.0015387262937311438, 0.0, 0.0, 0.0, 0.0015387262937311438]
---
header: 
  seq: 42
  stamp: 
    secs: 1559008970
    nsecs: 145421546
  frame_id: "imu_link"
orientation: 
  x: -0.5058557817
  y: 0.3720149826
  z: 0.091644189
  w: -0.7728324246
orientation_covariance: [0.002741552146694444, 0.0, 0.0, 0.0, 0.002741552146694444, 0.0, 0.0, 0.0, 0.007615422629706791]
angular_velocity: 
  x: -0.000401344650568
  y: -0.00282865418544
  z: -0.00117408057399
angular_velocity_covariance: [1.0966208586777776e-06, 0.0, 0.0, 0.0, 1.0966208586777776e-06, 0.0, 0.0, 0.0, 1.0966208586777776e-06]
linear_acceleration: 
  x: -0.967042878104
  y: 1.01931652457
  z: -9.95154596219
linear_acceleration_covariance: [0.0015387262937311438, 0.0, 0.0, 0.0, 0.0015387262937311438, 0.0, 0.0, 0.0, 0.0015387262937311438]
---
header: 
  seq: 43
  stamp: 
    secs: 1559008970
    nsecs: 197455515
  frame_id: "imu_link"
orientation: 
  x: -0.5061579054
  y: 0.3710079036
  z: 0.0913756346
  w: -0.7731681176
orientation_covariance: [0.002741552146694444, 0.0, 0.0, 0.0, 0.002741552146694444, 0.0, 0.0, 0.0, 0.007615422629706791]
angular_velocity: 
  x: -0.00153028409143
  y: 0.00272275400081
  z: 8.39747649336e-05
angular_velocity_covariance: [1.0966208586777776e-06, 0.0, 0.0, 0.0, 1.0966208586777776e-06, 0.0, 0.0, 0.0, 1.0966208586777776e-06]
linear_acceleration: 
  x: -0.963207172399
  y: 1.01945951324
  z: -9.95711879389
linear_acceleration_covariance: [0.0015387262937311438, 0.0, 0.0, 0.0, 0.0015387262937311438, 0.0, 0.0, 0.0, 0.0015387262937311438]
---
header: 
  seq: 44
  stamp: 
    secs: 1559008970
    nsecs: 247445510
  frame_id: "imu_link"
orientation: 
  x: -0.5063593212
  y: 0.369933686
  z: 0.0911070802
  w: -0.7735709492
orientation_covariance: [0.002741552146694444, 0.0, 0.0, 0.0, 0.002741552146694444, 0.0, 0.0, 0.0, 0.007615422629706791]
angular_velocity: 
  x: 0.00352786504904
  y: -4.64616280117e-05
  z: -0.000964796423834
angular_velocity_covariance: [1.0966208586777776e-06, 0.0, 0.0, 0.0, 1.0966208586777776e-06, 0.0, 0.0, 0.0, 1.0966208586777776e-06]
linear_acceleration: 
  x: -0.967146119283
  y: 1.02048783337
  z: -9.95595910246
linear_acceleration_covariance: [0.0015387262937311438, 0.0, 0.0, 0.0, 0.0015387262937311438, 0.0, 0.0, 0.0, 0.0015387262937311438]
---
header: 
  seq: 45
  stamp: 
    secs: 1559008970
    nsecs: 302394817
  frame_id: "imu_link"
orientation: 
  x: -0.5056543659
  y: 0.3723171063
  z: 0.0916777583
  w: -0.7727988553
orientation_covariance: [0.002741552146694444, 0.0, 0.0, 0.0, 0.002741552146694444, 0.0, 0.0, 0.0, 0.007615422629706791]
angular_velocity: 
  x: 0.0020685700652
  y: -0.00194335194981
  z: 0.000950151508545
angular_velocity_covariance: [1.0966208586777776e-06, 0.0, 0.0, 0.0, 1.0966208586777776e-06, 0.0, 0.0, 0.0, 1.0966208586777776e-06]
linear_acceleration: 
  x: -0.9604607963
  y: 1.01551735148
  z: -9.95259342542
linear_acceleration_covariance: [0.0015387262937311438, 0.0, 0.0, 0.0, 0.0015387262937311438, 0.0, 0.0, 0.0, 0.0015387262937311438]
---
header: 
  seq: 46
  stamp: 
    secs: 1559008970
    nsecs: 354457682
  frame_id: "imu_link"
orientation: 
  x: -0.505889351
  y: 0.3713771659
  z: 0.0914092039
  w: -0.7731345483
orientation_covariance: [0.002741552146694444, 0.0, 0.0, 0.0, 0.002741552146694444, 0.0, 0.0, 0.0, 0.007615422629706791]
angular_velocity: 
  x: 0.00370899329268
  y: -0.00126480698219
  z: 0.00042595967766
angular_velocity_covariance: [1.0966208586777776e-06, 0.0, 0.0, 0.0, 1.0966208586777776e-06, 0.0, 0.0, 0.0, 1.0966208586777776e-06]
linear_acceleration: 
  x: -0.951883814352
  y: 1.01806893566
  z: -9.95220997906
linear_acceleration_covariance: [0.0015387262937311438, 0.0, 0.0, 0.0, 0.0015387262937311438, 0.0, 0.0, 0.0, 0.0015387262937311438]
---
header: 
  seq: 47
  stamp: 
    secs: 1559008970
    nsecs: 407432923
  frame_id: "imu_link"
orientation: 
  x: -0.5060571975
  y: 0.3704372255
  z: 0.0911742188
  w: -0.7735038106
orientation_covariance: [0.002741552146694444, 0.0, 0.0, 0.0, 0.002741552146694444, 0.0, 0.0, 0.0, 0.007615422629706791]
angular_velocity: 
  x: -0.000337239125204
  y: 0.00325236311487
  z: -0.000519009849955
angular_velocity_covariance: [1.0966208586777776e-06, 0.0, 0.0, 0.0, 1.0966208586777776e-06, 0.0, 0.0, 0.0, 1.0966208586777776e-06]
linear_acceleration: 
  x: -0.958941989235
  y: 1.01663948738
  z: -9.95183588505
linear_acceleration_covariance: [0.0015387262937311438, 0.0, 0.0, 0.0, 0.0015387262937311438, 0.0, 0.0, 0.0, 0.0015387262937311438]
---
header: 
  seq: 48
  stamp: 
    secs: 1559008970
    nsecs: 459395153
  frame_id: "imu_link"
orientation: 
  x: -0.5061579054
  y: 0.369597993
  z: 0.0908720951
  w: -0.7738730729
orientation_covariance: [0.002741552146694444, 0.0, 0.0, 0.0, 0.002741552146694444, 0.0, 0.0, 0.0, 0.007615422629706791]
angular_velocity: 
  x: 0.00267845137981
  y: -0.00110538662233
  z: -0.000967053088754
angular_velocity_covariance: [1.0966208586777776e-06, 0.0, 0.0, 0.0, 1.0966208586777776e-06, 0.0, 0.0, 0.0, 1.0966208586777776e-06]
linear_acceleration: 
  x: -0.997685780584
  y: 1.0356767808
  z: -9.82305869849
linear_acceleration_covariance: [0.0015387262937311438, 0.0, 0.0, 0.0, 0.0015387262937311438, 0.0, 0.0, 0.0, 0.0015387262937311438]
---
header: 
  seq: 49
  stamp: 
    secs: 1559008970
    nsecs: 510399346
  frame_id: "imu_link"
orientation: 
  x: -0.5057886431
  y: 0.3720149826
  z: 0.0915770504
  w: -0.7728659939
orientation_covariance: [0.002741552146694444, 0.0, 0.0, 0.0, 0.002741552146694444, 0.0, 0.0, 0.0, 0.007615422629706791]
angular_velocity: 
  x: 0.0263415052731
  y: -0.00278013523947
  z: -0.000815860830355
angular_velocity_covariance: [1.0966208586777776e-06, 0.0, 0.0, 0.0, 1.0966208586777776e-06, 0.0, 0.0, 0.0, 1.0966208586777776e-06]
linear_acceleration: 
  x: -0.979490856267
  y: 1.00118567846
  z: -10.2683030504
linear_acceleration_covariance: [0.0015387262937311438, 0.0, 0.0, 0.0, 0.0015387262937311438, 0.0, 0.0, 0.0, 0.0015387262937311438]
---
header: 
  seq: 50
  stamp: 
    secs: 1559008970
    nsecs: 562425925
  frame_id: "imu_link"
orientation: 
  x: -0.5060571975
  y: 0.3710750422
  z: 0.091308496
  w: -0.7732016869
orientation_covariance: [0.002741552146694444, 0.0, 0.0, 0.0, 0.002741552146694444, 0.0, 0.0, 0.0, 0.007615422629706791]
angular_velocity: 
  x: -0.00338698018634
  y: 0.00281931803731
  z: 0.000994428967355
angular_velocity_covariance: [1.0966208586777776e-06, 0.0, 0.0, 0.0, 1.0966208586777776e-06, 0.0, 0.0, 0.0, 1.0966208586777776e-06]
linear_acceleration: 
  x: -0.966896455371
  y: 1.01285463508
  z: -9.96330654261
linear_acceleration_covariance: [0.0015387262937311438, 0.0, 0.0, 0.0, 0.0015387262937311438, 0.0, 0.0, 0.0, 0.0015387262937311438]
---
header: 
  seq: 51
  stamp: 
    secs: 1559008970
    nsecs: 615456941
  frame_id: "imu_link"
orientation: 
  x: -0.5063593212
  y: 0.3700008246
  z: 0.0910399416
  w: -0.7735373799
orientation_covariance: [0.002741552146694444, 0.0, 0.0, 0.0, 0.002741552146694444, 0.0, 0.0, 0.0, 0.007615422629706791]
angular_velocity: 
  x: -0.000823715660143
  y: 1.02339246967e-07
  z: 0.000549534448411
angular_velocity_covariance: [1.0966208586777776e-06, 0.0, 0.0, 0.0, 1.0966208586777776e-06, 0.0, 0.0, 0.0, 1.0966208586777776e-06]
linear_acceleration: 
  x: -0.962853025199
  y: 1.01860033912
  z: -9.95865959359
linear_acceleration_covariance: [0.0015387262937311438, 0.0, 0.0, 0.0, 0.0015387262937311438, 0.0, 0.0, 0.0, 0.0015387262937311438]
---
header: 
  seq: 52
  stamp: 
    secs: 1559008970
    nsecs: 667459468
  frame_id: "imu_link"
orientation: 
  x: -0.5055872273
  y: 0.3722499677
  z: 0.0915434811
  w: -0.7728995632
orientation_covariance: [0.002741552146694444, 0.0, 0.0, 0.0, 0.002741552146694444, 0.0, 0.0, 0.0, 0.007615422629706791]
angular_velocity: 
  x: 0.000589305534369
  y: 0.000466860721544
  z: 9.0766118297e-05
angular_velocity_covariance: [1.0966208586777776e-06, 0.0, 0.0, 0.0, 1.0966208586777776e-06, 0.0, 0.0, 0.0, 1.0966208586777776e-06]
linear_acceleration: 
  x: -0.963359440351
  y: 1.01912326702
  z: -9.95587610035
linear_acceleration_covariance: [0.0015387262937311438, 0.0, 0.0, 0.0, 0.0015387262937311438, 0.0, 0.0, 0.0, 0.0015387262937311438]
---
header: 
  seq: 53
  stamp: 
    secs: 1559008970
    nsecs: 719456016
  frame_id: "imu_link"
orientation: 
  x: -0.5056879352
  y: 0.3713100273
  z: 0.0912413574
  w: -0.7733023948
orientation_covariance: [0.002741552146694444, 0.0, 0.0, 0.0, 0.002741552146694444, 0.0, 0.0, 0.0, 0.007615422629706791]
angular_velocity: 
  x: 0.000463144487002
  y: 0.00186095845302
  z: 0.00150931520885
angular_velocity_covariance: [1.0966208586777776e-06, 0.0, 0.0, 0.0, 1.0966208586777776e-06, 0.0, 0.0, 0.0, 1.0966208586777776e-06]
linear_acceleration: 
  x: -0.956854296241
  y: 1.02515224498
  z: -9.9602272813
linear_acceleration_covariance: [0.0015387262937311438, 0.0, 0.0, 0.0, 0.0015387262937311438, 0.0, 0.0, 0.0, 0.0015387262937311438]
---
header: 
  seq: 54
  stamp: 
    secs: 1559008970
    nsecs: 770426656
  frame_id: "imu_link"
orientation: 
  x: -0.5058557817
  y: 0.3704707948
  z: 0.090972803
  w: -0.7736716571
orientation_covariance: [0.002741552146694444, 0.0, 0.0, 0.0, 0.002741552146694444, 0.0, 0.0, 0.0, 0.007615422629706791]
angular_velocity: 
  x: -0.000601102765835
  y: 0.0035654684155
  z: 0.000870187431053
angular_velocity_covariance: [1.0966208586777776e-06, 0.0, 0.0, 0.0, 1.0966208586777776e-06, 0.0, 0.0, 0.0, 1.0966208586777776e-06]
linear_acceleration: 
  x: -0.959142114917
  y: 1.02229868218
  z: -9.95316274974
linear_acceleration_covariance: [0.0015387262937311438, 0.0, 0.0, 0.0, 0.0015387262937311438, 0.0, 0.0, 0.0, 0.0015387262937311438]
---
header: 
  seq: 55
  stamp: 
    secs: 1559008970
    nsecs: 824422405
  frame_id: "imu_link"
orientation: 
  x: -0.5060236282
  y: 0.3696315623
  z: 0.0907713872
  w: -0.7739402115
orientation_covariance: [0.002741552146694444, 0.0, 0.0, 0.0, 0.002741552146694444, 0.0, 0.0, 0.0, 0.007615422629706791]
angular_velocity: 
  x: 0.00241999939824
  y: -0.00370172967685
  z: -0.000707099893168
angular_velocity_covariance: [1.0966208586777776e-06, 0.0, 0.0, 0.0, 1.0966208586777776e-06, 0.0, 0.0, 0.0, 1.0966208586777776e-06]
linear_acceleration: 
  x: -0.962676061197
  y: 1.01797533909
  z: -9.94703929842
linear_acceleration_covariance: [0.0015387262937311438, 0.0, 0.0, 0.0, 0.0015387262937311438, 0.0, 0.0, 0.0, 0.0015387262937311438]
---
header: 
  seq: 56
  stamp: 
    secs: 1559008970
    nsecs: 875427684
  frame_id: "imu_link"
orientation: 
  x: -0.5056879352
  y: 0.3720485519
  z: 0.0914092039
  w: -0.7729331325
orientation_covariance: [0.002741552146694444, 0.0, 0.0, 0.0, 0.002741552146694444, 0.0, 0.0, 0.0, 0.007615422629706791]
angular_velocity: 
  x: -0.000535663774388
  y: -0.00110525112361
  z: -0.000436007064047
angular_velocity_covariance: [1.0966208586777776e-06, 0.0, 0.0, 0.0, 1.0966208586777776e-06, 0.0, 0.0, 0.0, 1.0966208586777776e-06]
linear_acceleration: 
  x: -0.952028410454
  y: 1.02085871251
  z: -9.95233974292
linear_acceleration_covariance: [0.0015387262937311438, 0.0, 0.0, 0.0, 0.0015387262937311438, 0.0, 0.0, 0.0, 0.0015387262937311438]
---
header: 
  seq: 57
  stamp: 
    secs: 1559008970
    nsecs: 927435802
  frame_id: "imu_link"
orientation: 
  x: -0.5058557817
  y: 0.3711086115
  z: 0.0911406495
  w: -0.7733023948
orientation_covariance: [0.002741552146694444, 0.0, 0.0, 0.0, 0.002741552146694444, 0.0, 0.0, 0.0, 0.007615422629706791]
angular_velocity: 
  x: -0.00221336644576
  y: 0.00236326990584
  z: -0.00150309215039
angular_velocity_covariance: [1.0966208586777776e-06, 0.0, 0.0, 0.0, 1.0966208586777776e-06, 0.0, 0.0, 0.0, 1.0966208586777776e-06]
linear_acceleration: 
  x: -0.965418491773
  y: 1.01549798919
  z: -9.95704046795
linear_acceleration_covariance: [0.0015387262937311438, 0.0, 0.0, 0.0, 0.0015387262937311438, 0.0, 0.0, 0.0, 0.0015387262937311438]
---
header: 
  seq: 58
  stamp: 
    secs: 1559008970
    nsecs: 980433294
  frame_id: "imu_link"
orientation: 
  x: -0.5059229203
  y: 0.3702022404
  z: 0.0908720951
  w: -0.7737387957
orientation_covariance: [0.002741552146694444, 0.0, 0.0, 0.0, 0.002741552146694444, 0.0, 0.0, 0.0, 0.007615422629706791]
angular_velocity: 
  x: 0.00128814111072
  y: -0.000310979583135
  z: 0.000485312539787
angular_velocity_covariance: [1.0966208586777776e-06, 0.0, 0.0, 0.0, 1.0966208586777776e-06, 0.0, 0.0, 0.0, 1.0966208586777776e-06]
linear_acceleration: 
  x: -0.958053881289
  y: 1.01930790287
  z: -9.96961704093
linear_acceleration_covariance: [0.0015387262937311438, 0.0, 0.0, 0.0, 0.0015387262937311438, 0.0, 0.0, 0.0, 0.0015387262937311438]
---
header: 
  seq: 59
  stamp: 
    secs: 1559008971
    nsecs:  29439604
  frame_id: "imu_link"
orientation: 
  x: -0.5060571975
  y: 0.3692287307
  z: 0.0906035407
  w: -0.7741751966
orientation_covariance: [0.002741552146694444, 0.0, 0.0, 0.0, 0.002741552146694444, 0.0, 0.0, 0.0, 0.007615422629706791]
angular_velocity: 
  x: 0.00129873965962
  y: -0.00175399820545
  z: -0.00045736036899
angular_velocity_covariance: [1.0966208586777776e-06, 0.0, 0.0, 0.0, 1.0966208586777776e-06, 0.0, 0.0, 0.0, 1.0966208586777776e-06]
linear_acceleration: 
  x: -0.959542877738
  y: 1.01743845574
  z: -9.95338954423
linear_acceleration_covariance: [0.0015387262937311438, 0.0, 0.0, 0.0, 0.0015387262937311438, 0.0, 0.0, 0.0, 0.0015387262937311438]
---
header: 
  seq: 60
  stamp: 
    secs: 1559008971
    nsecs:  84454582
  frame_id: "imu_link"
orientation: 
  x: -0.5053186729
  y: 0.3716457203
  z: 0.0911406495
  w: -0.7734031027
orientation_covariance: [0.002741552146694444, 0.0, 0.0, 0.0, 0.002741552146694444, 0.0, 0.0, 0.0, 0.007615422629706791]
angular_velocity: 
  x: -0.00364825709522
  y: 0.00310783773176
  z: -0.000827985430377
angular_velocity_covariance: [1.0966208586777776e-06, 0.0, 0.0, 0.0, 1.0966208586777776e-06, 0.0, 0.0, 0.0, 1.0966208586777776e-06]
linear_acceleration: 
  x: -0.957732248119
  y: 1.01622776477
  z: -9.95934231516
linear_acceleration_covariance: [0.0015387262937311438, 0.0, 0.0, 0.0, 0.0015387262937311438, 0.0, 0.0, 0.0, 0.0015387262937311438]
---
header: 
  seq: 61
  stamp: 
    secs: 1559008971
    nsecs: 136432702
  frame_id: "imu_link"
orientation: 
  x: -0.5054529501
  y: 0.3707393492
  z: 0.0909056644
  w: -0.773772365
orientation_covariance: [0.002741552146694444, 0.0, 0.0, 0.0, 0.002741552146694444, 0.0, 0.0, 0.0, 0.007615422629706791]
angular_velocity: 
  x: 0.00125474535674
  y: 0.00264838418707
  z: 0.000602423098166
angular_velocity_covariance: [1.0966208586777776e-06, 0.0, 0.0, 0.0, 1.0966208586777776e-06, 0.0, 0.0, 0.0, 1.0966208586777776e-06]
linear_acceleration: 
  x: -0.961406844979
  y: 1.0182388854
  z: -9.96090415764
linear_acceleration_covariance: [0.0015387262937311438, 0.0, 0.0, 0.0, 0.0015387262937311438, 0.0, 0.0, 0.0, 0.0015387262937311438]
---
header: 
  seq: 62
  stamp: 
    secs: 1559008971
    nsecs: 185453021
  frame_id: "imu_link"
orientation: 
  x: -0.5056543659
  y: 0.3697658395
  z: 0.0906706793
  w: -0.7741416273
orientation_covariance: [0.002741552146694444, 0.0, 0.0, 0.0, 0.002741552146694444, 0.0, 0.0, 0.0, 0.007615422629706791]
angular_velocity: 
  x: 0.00319932927862
  y: -0.00181070012998
  z: 0.000598006906086
angular_velocity_covariance: [1.0966208586777776e-06, 0.0, 0.0, 0.0, 1.0966208586777776e-06, 0.0, 0.0, 0.0, 1.0966208586777776e-06]
linear_acceleration: 
  x: -0.961576867783
  y: 1.01697836394
  z: -9.96768694965
linear_acceleration_covariance: [0.0015387262937311438, 0.0, 0.0, 0.0, 0.0015387262937311438, 0.0, 0.0, 0.0, 0.0015387262937311438]
---
header: 
  seq: 63
  stamp: 
    secs: 1559008971
    nsecs: 237459187
  frame_id: "imu_link"
orientation: 
  x: -0.5051172571
  y: 0.3724513835
  z: 0.091308496
  w: -0.7731345483
orientation_covariance: [0.002741552146694444, 0.0, 0.0, 0.0, 0.002741552146694444, 0.0, 0.0, 0.0, 0.007615422629706791]
angular_velocity: 
  x: -0.000510268394282
  y: 0.00335128108409
  z: 0.000881128562859
angular_velocity_covariance: [1.0966208586777776e-06, 0.0, 0.0, 0.0, 1.0966208586777776e-06, 0.0, 0.0, 0.0, 1.0966208586777776e-06]
linear_acceleration: 
  x: -0.960958151363
  y: 1.01283395762
  z: -9.95797804106
linear_acceleration_covariance: [0.0015387262937311438, 0.0, 0.0, 0.0, 0.0015387262937311438, 0.0, 0.0, 0.0, 0.0015387262937311438]
---
header: 
  seq: 64
  stamp: 
    secs: 1559008971
    nsecs: 289439765
  frame_id: "imu_link"
orientation: 
  x: -0.5054193808
  y: 0.3714107352
  z: 0.0910735109
  w: -0.7734702413
orientation_covariance: [0.002741552146694444, 0.0, 0.0, 0.0, 0.002741552146694444, 0.0, 0.0, 0.0, 0.007615422629706791]
angular_velocity: 
  x: 0.000118503223881
  y: 0.000332718968414
  z: 6.90154522944e-05
angular_velocity_covariance: [1.0966208586777776e-06, 0.0, 0.0, 0.0, 1.0966208586777776e-06, 0.0, 0.0, 0.0, 1.0966208586777776e-06]
linear_acceleration: 
  x: -0.959348451144
  y: 1.01681857027
  z: -9.95478304442
linear_acceleration_covariance: [0.0015387262937311438, 0.0, 0.0, 0.0, 0.0015387262937311438, 0.0, 0.0, 0.0, 0.0015387262937311438]
---
header: 
  seq: 65
  stamp: 
    secs: 1559008971
    nsecs: 342461702
  frame_id: "imu_link"
orientation: 
  x: -0.5055872273
  y: 0.3704707948
  z: 0.0908049565
  w: -0.7738395036
orientation_covariance: [0.002741552146694444, 0.0, 0.0, 0.0, 0.002741552146694444, 0.0, 0.0, 0.0, 0.007615422629706791]
angular_velocity: 
  x: 0.000909767167327
  y: -0.00333984535593
  z: 0.00280103975366
angular_velocity_covariance: [1.0966208586777776e-06, 0.0, 0.0, 0.0, 1.0966208586777776e-06, 0.0, 0.0, 0.0, 1.0966208586777776e-06]
linear_acceleration: 
  x: -0.959138461655
  y: 1.01643344341
  z: -9.95056747255
linear_acceleration_covariance: [0.0015387262937311438, 0.0, 0.0, 0.0, 0.0015387262937311438, 0.0, 0.0, 0.0, 0.0015387262937311438]
---
header: 
  seq: 66
  stamp: 
    secs: 1559008971
    nsecs: 394464241
  frame_id: "imu_link"
orientation: 
  x: -0.5057215045
  y: 0.3695644237
  z: 0.0905364021
  w: -0.7742087659
orientation_covariance: [0.002741552146694444, 0.0, 0.0, 0.0, 0.002741552146694444, 0.0, 0.0, 0.0, 0.007615422629706791]
angular_velocity: 
  x: 0.00042566637884
  y: 0.00434605393472
  z: 0.00180810432814
angular_velocity_covariance: [1.0966208586777776e-06, 0.0, 0.0, 0.0, 1.0966208586777776e-06, 0.0, 0.0, 0.0, 1.0966208586777776e-06]
linear_acceleration: 
  x: -0.958757718709
  y: 1.0186443244
  z: -9.94672248756
linear_acceleration_covariance: [0.0015387262937311438, 0.0, 0.0, 0.0, 0.0015387262937311438, 0.0, 0.0, 0.0, 0.0015387262937311438]
---
header: 
  seq: 67
  stamp: 
    secs: 1559008971
    nsecs: 446426886
  frame_id: "imu_link"
orientation: 
  x: -0.5052515343
  y: 0.3720485519
  z: 0.0911742188
  w: -0.7732688255
orientation_covariance: [0.002741552146694444, 0.0, 0.0, 0.0, 0.002741552146694444, 0.0, 0.0, 0.0, 0.007615422629706791]
angular_velocity: 
  x: -0.00192204588086
  y: -0.0015160816926
  z: 0.000820669734665
angular_velocity_covariance: [1.0966208586777776e-06, 0.0, 0.0, 0.0, 1.0966208586777776e-06, 0.0, 0.0, 0.0, 1.0966208586777776e-06]
linear_acceleration: 
  x: -0.958196139304
  y: 1.02135592144
  z: -9.95182536365
linear_acceleration_covariance: [0.0015387262937311438, 0.0, 0.0, 0.0, 0.0015387262937311438, 0.0, 0.0, 0.0, 0.0015387262937311438]
---
header: 
  seq: 68
  stamp: 
    secs: 1559008971
    nsecs: 497470666
  frame_id: "imu_link"
orientation: 
  x: -0.5053858115
  y: 0.3711086115
  z: 0.0909056644
  w: -0.7736716571
orientation_covariance: [0.002741552146694444, 0.0, 0.0, 0.0, 0.002741552146694444, 0.0, 0.0, 0.0, 0.007615422629706791]
angular_velocity: 
  x: 0.00314468142111
  y: -0.00416846842354
  z: 0.000415728353707
angular_velocity_covariance: [1.0966208586777776e-06, 0.0, 0.0, 0.0, 1.0966208586777776e-06, 0.0, 0.0, 0.0, 1.0966208586777776e-06]
linear_acceleration: 
  x: -0.967240592634
  y: 1.02205062571
  z: -9.94936686459
linear_acceleration_covariance: [0.0015387262937311438, 0.0, 0.0, 0.0, 0.0015387262937311438, 0.0, 0.0, 0.0, 0.0015387262937311438]
---
header: 
  seq: 69
  stamp: 
    secs: 1559008971
    nsecs: 551434869
  frame_id: "imu_link"
orientation: 
  x: -0.5054865194
  y: 0.3702022404
  z: 0.09063711
  w: -0.7740744887
orientation_covariance: [0.002741552146694444, 0.0, 0.0, 0.0, 0.002741552146694444, 0.0, 0.0, 0.0, 0.007615422629706791]
angular_velocity: 
  x: -0.000116186465537
  y: 0.00198023178949
  z: 0.000644360213142
angular_velocity_covariance: [1.0966208586777776e-06, 0.0, 0.0, 0.0, 1.0966208586777776e-06, 0.0, 0.0, 0.0, 1.0966208586777776e-06]
linear_acceleration: 
  x: -0.964390683095
  y: 1.02595303997
  z: -9.95330654212
linear_acceleration_covariance: [0.0015387262937311438, 0.0, 0.0, 0.0, 0.0015387262937311438, 0.0, 0.0, 0.0, 0.0015387262937311438]
---
header: 
  seq: 70
  stamp: 
    secs: 1559008971
    nsecs: 599428392
  frame_id: "imu_link"
orientation: 
  x: -0.5058222124
  y: 0.3693294386
  z: 0.0904356942
  w: -0.7742759045
orientation_covariance: [0.002741552146694444, 0.0, 0.0, 0.0, 0.002741552146694444, 0.0, 0.0, 0.0, 0.007615422629706791]
angular_velocity: 
  x: -0.00120650599067
  y: 0.00314672794598
  z: 0.00115233745015
angular_velocity_covariance: [1.0966208586777776e-06, 0.0, 0.0, 0.0, 1.0966208586777776e-06, 0.0, 0.0, 0.0, 1.0966208586777776e-06]
linear_acceleration: 
  x: -0.966090034359
  y: 1.01746432083
  z: -9.94825861108
linear_acceleration_covariance: [0.0015387262937311438, 0.0, 0.0, 0.0, 0.0015387262937311438, 0.0, 0.0, 0.0, 0.0015387262937311438]
---
header: 
  seq: 71
  stamp: 
    secs: 1559008971
    nsecs: 654660438
  frame_id: "imu_link"
orientation: 
  x: -0.5055872273
  y: 0.3714778738
  z: 0.0910063723
  w: -0.7733359641
orientation_covariance: [0.002741552146694444, 0.0, 0.0, 0.0, 0.002741552146694444, 0.0, 0.0, 0.0, 0.007615422629706791]
angular_velocity: 
  x: 0.00501327227536
  y: 0.000553805714072
  z: 0.000808195399694
angular_velocity_covariance: [1.0966208586777776e-06, 0.0, 0.0, 0.0, 1.0966208586777776e-06, 0.0, 0.0, 0.0, 1.0966208586777776e-06]
linear_acceleration: 
  x: -0.966037135128
  y: 1.01851244164
  z: -9.95461236402
linear_acceleration_covariance: [0.0015387262937311438, 0.0, 0.0, 0.0, 0.0015387262937311438, 0.0, 0.0, 0.0, 0.0015387262937311438]
---
header: 
  seq: 72
  stamp: 
    secs: 1559008971
    nsecs: 706415109
  frame_id: "imu_link"
orientation: 
  x: -0.5058222124
  y: 0.3703365176
  z: 0.0907042486
  w: -0.773772365
orientation_covariance: [0.002741552146694444, 0.0, 0.0, 0.0, 0.002741552146694444, 0.0, 0.0, 0.0, 0.007615422629706791]
angular_velocity: 
  x: -0.00101038218654
  y: -0.00315756472296
  z: 0.000491262520199
angular_velocity_covariance: [1.0966208586777776e-06, 0.0, 0.0, 0.0, 1.0966208586777776e-06, 0.0, 0.0, 0.0, 1.0966208586777776e-06]
linear_acceleration: 
  x: -0.963697367069
  y: 1.02386308196
  z: -9.95153076462
linear_acceleration_covariance: [0.0015387262937311438, 0.0, 0.0, 0.0, 0.0015387262937311438, 0.0, 0.0, 0.0, 0.0015387262937311438]
---
header: 
  seq: 73
  stamp: 
    secs: 1559008971
    nsecs: 759440936
  frame_id: "imu_link"
orientation: 
  x: -0.5059900589
  y: 0.3693294386
  z: 0.0904356942
  w: -0.7741751966
orientation_covariance: [0.002741552146694444, 0.0, 0.0, 0.0, 0.002741552146694444, 0.0, 0.0, 0.0, 0.007615422629706791]
angular_velocity: 
  x: -0.00203726751942
  y: 0.00292670974819
  z: -0.00112322668074
angular_velocity_covariance: [1.0966208586777776e-06, 0.0, 0.0, 0.0, 1.0966208586777776e-06, 0.0, 0.0, 0.0, 1.0966208586777776e-06]
linear_acceleration: 
  x: -0.960537807059
  y: 1.02319037033
  z: -9.95672716422
linear_acceleration_covariance: [0.0015387262937311438, 0.0, 0.0, 0.0, 0.0015387262937311438, 0.0, 0.0, 0.0, 0.0015387262937311438]
---
header: 
  seq: 74
  stamp: 
    secs: 1559008971
    nsecs: 811571665
  frame_id: "imu_link"
orientation: 
  x: -0.5051172571
  y: 0.3718135668
  z: 0.0910063723
  w: -0.7734702413
orientation_covariance: [0.002741552146694444, 0.0, 0.0, 0.0, 0.002741552146694444, 0.0, 0.0, 0.0, 0.007615422629706791]
angular_velocity: 
  x: -0.00214469017915
  y: 0.0030960748301
  z: 0.00105695506134
angular_velocity_covariance: [1.0966208586777776e-06, 0.0, 0.0, 0.0, 1.0966208586777776e-06, 0.0, 0.0, 0.0, 1.0966208586777776e-06]
linear_acceleration: 
  x: -0.96761074112
  y: 1.02183902878
  z: -9.95998295115
linear_acceleration_covariance: [0.0015387262937311438, 0.0, 0.0, 0.0, 0.0015387262937311438, 0.0, 0.0, 0.0, 0.0015387262937311438]
---
header: 
  seq: 75
  stamp: 
    secs: 1559008971
    nsecs: 862479262
  frame_id: "imu_link"
orientation: 
  x: -0.5053522422
  y: 0.3709071957
  z: 0.0907713872
  w: -0.7738059343
orientation_covariance: [0.002741552146694444, 0.0, 0.0, 0.0, 0.002741552146694444, 0.0, 0.0, 0.0, 0.007615422629706791]
angular_velocity: 
  x: 0.0017181440989
  y: -0.00252507046592
  z: 0.00112438232101
angular_velocity_covariance: [1.0966208586777776e-06, 0.0, 0.0, 0.0, 1.0966208586777776e-06, 0.0, 0.0, 0.0, 1.0966208586777776e-06]
linear_acceleration: 
  x: -0.965351856278
  y: 1.01908037773
  z: -9.95583869095
linear_acceleration_covariance: [0.0015387262937311438, 0.0, 0.0, 0.0, 0.0015387262937311438, 0.0, 0.0, 0.0, 0.0015387262937311438]
---
header: 
  seq: 76
  stamp: 
    secs: 1559008971
    nsecs: 919190231
  frame_id: "imu_link"
orientation: 
  x: -0.5056207966
  y: 0.3700008246
  z: 0.0905364021
  w: -0.7740744887
orientation_covariance: [0.002741552146694444, 0.0, 0.0, 0.0, 0.002741552146694444, 0.0, 0.0, 0.0, 0.007615422629706791]
angular_velocity: 
  x: -0.00321769832821
  y: 0.0028816432889
  z: -0.00104622101372
angular_velocity_covariance: [1.0966208586777776e-06, 0.0, 0.0, 0.0, 1.0966208586777776e-06, 0.0, 0.0, 0.0, 1.0966208586777776e-06]
linear_acceleration: 
  x: -0.965377721371
  y: 1.01691815819
  z: -9.96137762038
linear_acceleration_covariance: [0.0015387262937311438, 0.0, 0.0, 0.0, 0.0015387262937311438, 0.0, 0.0, 0.0, 0.0015387262937311438]
---
header: 
  seq: 77
  stamp: 
    secs: 1559008971
    nsecs: 964444844
  frame_id: "imu_link"
orientation: 
  x: -0.505889351
  y: 0.3690944535
  z: 0.0903349863
  w: -0.7743430431
orientation_covariance: [0.002741552146694444, 0.0, 0.0, 0.0, 0.002741552146694444, 0.0, 0.0, 0.0, 0.007615422629706791]
angular_velocity: 
  x: -0.00168321507673
  y: 0.00205406650031
  z: 0.000300073366308
angular_velocity_covariance: [1.0966208586777776e-06, 0.0, 0.0, 0.0, 1.0966208586777776e-06, 0.0, 0.0, 0.0, 1.0966208586777776e-06]
linear_acceleration: 
  x: -0.971056278464
  y: 1.02066165557
  z: -9.9582060046
linear_acceleration_covariance: [0.0015387262937311438, 0.0, 0.0, 0.0, 0.0015387262937311438, 0.0, 0.0, 0.0, 0.0015387262937311438]
---
header: 
  seq: 78
  stamp: 
    secs: 1559008972
    nsecs:  19467161
  frame_id: "imu_link"
orientation: 
  x: -0.5052851036
  y: 0.3716457203
  z: 0.090972803
  w: -0.7734702413
orientation_covariance: [0.002741552146694444, 0.0, 0.0, 0.0, 0.002741552146694444, 0.0, 0.0, 0.0, 0.007615422629706791]
angular_velocity: 
  x: 0.000401488504179
  y: -0.00213254821916
  z: -0.00110245688506
angular_velocity_covariance: [1.0966208586777776e-06, 0.0, 0.0, 0.0, 1.0966208586777776e-06, 0.0, 0.0, 0.0, 1.0966208586777776e-06]
linear_acceleration: 
  x: -0.965754226533
  y: 1.02113022293
  z: -9.96118472815
linear_acceleration_covariance: [0.0015387262937311438, 0.0, 0.0, 0.0, 0.0015387262937311438, 0.0, 0.0, 0.0, 0.0015387262937311438]
---
header: 
  seq: 79
  stamp: 
    secs: 1559008972
    nsecs:  71506104
  frame_id: "imu_link"
orientation: 
  x: -0.5055200887
  y: 0.3707057799
  z: 0.0907042486
  w: -0.773772365
orientation_covariance: [0.002741552146694444, 0.0, 0.0, 0.0, 0.002741552146694444, 0.0, 0.0, 0.0, 0.007615422629706791]
angular_velocity: 
  x: 0.00058180915202
  y: -0.000246008010269
  z: -0.000875018376663
angular_velocity_covariance: [1.0966208586777776e-06, 0.0, 0.0, 0.0, 1.0966208586777776e-06, 0.0, 0.0, 0.0, 1.0966208586777776e-06]
linear_acceleration: 
  x: -0.962329512782
  y: 1.01639939501
  z: -9.95048213235
linear_acceleration_covariance: [0.0015387262937311438, 0.0, 0.0, 0.0, 0.0015387262937311438, 0.0, 0.0, 0.0, 0.0015387262937311438]
---
header: 
  seq: 80
  stamp: 
    secs: 1559008972
    nsecs: 121426662
  frame_id: "imu_link"
orientation: 
  x: -0.5056543659
  y: 0.3699672553
  z: 0.0904692635
  w: -0.7740744887
orientation_covariance: [0.002741552146694444, 0.0, 0.0, 0.0, 0.002741552146694444, 0.0, 0.0, 0.0, 0.007615422629706791]
angular_velocity: 
  x: -0.00179050899966
  y: 0.00500240168871
  z: -0.000720890464299
angular_velocity_covariance: [1.0966208586777776e-06, 0.0, 0.0, 0.0, 1.0966208586777776e-06, 0.0, 0.0, 0.0, 1.0966208586777776e-06]
linear_acceleration: 
  x: -0.968442515769
  y: 1.01459227253
  z: -9.94812417105
linear_acceleration_covariance: [0.0015387262937311438, 0.0, 0.0, 0.0, 0.0015387262937311438, 0.0, 0.0, 0.0, 0.0015387262937311438]
---
header: 
  seq: 81
  stamp: 
    secs: 1559008972
    nsecs: 176427916
  frame_id: "imu_link"
