
header: 
  seq: 0
  stamp: 
    secs: 1559001919
    nsecs: 714596379
  frame_id: "imu_link"
vector: 
  x: 0.402379989624
  y: 0.544319868088
  z: -0.508632957935
---
header: 
  seq: 1
  stamp: 
    secs: 1559001919
    nsecs: 764620449
  frame_id: "imu_link"
vector: 
  x: 0.380098223686
  y: 0.521385848522
  z: -0.51370704174
---
header: 
  seq: 2
  stamp: 
    secs: 1559001919
    nsecs: 818579663
  frame_id: "imu_link"
vector: 
  x: 0.400617599487
  y: 0.504613816738
  z: -0.510801196098
---
header: 
  seq: 3
  stamp: 
    secs: 1559001919
    nsecs: 873546259
  frame_id: "imu_link"
vector: 
  x: 0.385138571262
  y: 0.497287511826
  z: -0.483040452003
---
header: 
  seq: 4
  stamp: 
    secs: 1559001919
    nsecs: 926578713
  frame_id: "imu_link"
vector: 
  x: 0.376344710588
  y: 0.503701031208
  z: -0.483554422855
---
header: 
  seq: 5
  stamp: 
    secs: 1559001919
    nsecs: 979550774
  frame_id: "imu_link"
vector: 
  x: 0.381851971149
  y: 0.511857151985
  z: -0.506795883179
---
header: 
  seq: 6
  stamp: 
    secs: 1559001920
    nsecs:  34610769
  frame_id: "imu_link"
vector: 
  x: 0.380813032389
  y: 0.522818922997
  z: -0.525566935539
---
header: 
  seq: 7
  stamp: 
    secs: 1559001920
    nsecs:  87617896
  frame_id: "imu_link"
vector: 
  x: 0.386494159698
  y: 0.502658486366
  z: -0.528111100197
---
header: 
  seq: 8
  stamp: 
    secs: 1559001920
    nsecs: 140610426
  frame_id: "imu_link"
vector: 
  x: 0.403433144093
  y: 0.495892882347
  z: -0.534647583961
---
header: 
  seq: 9
  stamp: 
    secs: 1559001920
    nsecs: 195586078
  frame_id: "imu_link"
vector: 
  x: 0.403653383255
  y: 0.493396222591
  z: -0.519734561443
---
header: 
  seq: 10
  stamp: 
    secs: 1559001920
    nsecs: 245614263
  frame_id: "imu_link"
vector: 
  x: 0.372697114944
  y: 0.467597544193
  z: -0.486848831177
---
header: 
  seq: 11
  stamp: 
    secs: 1559001920
    nsecs: 298601294
  frame_id: "imu_link"
vector: 
  x: 0.407664000988
  y: 0.484577834606
  z: -0.501008033752
---
header: 
  seq: 12
  stamp: 
    secs: 1559001920
    nsecs: 352611877
  frame_id: "imu_link"
vector: 
  x: 0.398589193821
  y: 0.480141282082
  z: -0.505393743515
---
header: 
  seq: 13
  stamp: 
    secs: 1559001920
    nsecs: 406613684
  frame_id: "imu_link"
vector: 
  x: 0.394712150097
  y: 0.494371265173
  z: -0.507267475128
---
header: 
  seq: 14
  stamp: 
    secs: 1559001920
    nsecs: 456618721
  frame_id: "imu_link"
vector: 
  x: 0.388987064362
  y: 0.490935862064
  z: -0.517233014107
---
header: 
  seq: 15
  stamp: 
    secs: 1559001920
    nsecs: 510586834
  frame_id: "imu_link"
vector: 
  x: 0.390727460384
  y: 0.490136414766
  z: -0.530023634434
---
header: 
  seq: 16
  stamp: 
    secs: 1559001920
    nsecs: 561581445
  frame_id: "imu_link"
vector: 
  x: 0.401815712452
  y: 0.489996790886
  z: -0.544291496277
---
header: 
  seq: 17
  stamp: 
    secs: 1559001920
    nsecs: 615587040
  frame_id: "imu_link"
vector: 
  x: 0.407325148582
  y: 0.514638900757
  z: -0.510081171989
---
header: 
  seq: 18
  stamp: 
    secs: 1559001920
    nsecs: 668587108
  frame_id: "imu_link"
vector: 
  x: 0.394384205341
  y: 0.525111615658
  z: -0.518545925617
---
header: 
  seq: 19
  stamp: 
    secs: 1559001920
    nsecs: 723587175
  frame_id: "imu_link"
vector: 
  x: 0.393021613359
  y: 0.528851568699
  z: -0.530581712723
---
header: 
  seq: 20
  stamp: 
    secs: 1559001920
    nsecs: 773601473
  frame_id: "imu_link"
vector: 
  x: 0.388961434364
  y: 0.514533758163
  z: -0.526843965054
---
header: 
  seq: 21
  stamp: 
    secs: 1559001920
    nsecs: 826582828
  frame_id: "imu_link"
vector: 
  x: 0.423139810562
  y: 0.536142647266
  z: -0.50818836689
---
header: 
  seq: 22
  stamp: 
    secs: 1559001920
    nsecs: 879588090
  frame_id: "imu_link"
vector: 
  x: 0.446637570858
  y: 0.535100579262
  z: -0.543902754784
---
header: 
  seq: 23
  stamp: 
    secs: 1559001920
    nsecs: 934591638
  frame_id: "imu_link"
vector: 
  x: 0.425554007292
  y: 0.509924292564
  z: -0.532522797585
---
header: 
  seq: 24
  stamp: 
    secs: 1559001920
    nsecs: 984587259
  frame_id: "imu_link"
vector: 
  x: 0.413146972656
  y: 0.522896528244
  z: -0.509221971035
---
header: 
  seq: 25
  stamp: 
    secs: 1559001921
    nsecs:  37585439
  frame_id: "imu_link"
vector: 
  x: 0.407488882542
  y: 0.512385725975
  z: -0.508876800537
---
header: 
  seq: 26
  stamp: 
    secs: 1559001921
    nsecs:  92592975
  frame_id: "imu_link"
vector: 
  x: 0.39853399992
  y: 0.500068068504
  z: -0.508748531342
---
header: 
  seq: 27
  stamp: 
    secs: 1559001921
    nsecs: 139563529
  frame_id: "imu_link"
vector: 
  x: 0.384316265583
  y: 0.494578897953
  z: -0.499831616879
---
header: 
  seq: 28
  stamp: 
    secs: 1559001921
    nsecs: 192618595
  frame_id: "imu_link"
vector: 
  x: 0.383607536554
  y: 0.487731575966
  z: -0.50704729557
---
header: 
  seq: 29
  stamp: 
    secs: 1559001921
    nsecs: 245595224
  frame_id: "imu_link"
vector: 
  x: 0.391719311476
  y: 0.514239370823
  z: -0.499125599861
---
header: 
  seq: 30
  stamp: 
    secs: 1559001921
    nsecs: 300628500
  frame_id: "imu_link"
vector: 
  x: 0.408913105726
  y: 0.52631175518
  z: -0.495748519897
---
header: 
  seq: 31
  stamp: 
    secs: 1559001921
    nsecs: 350562415
  frame_id: "imu_link"
vector: 
  x: 0.407672822475
  y: 0.520973265171
  z: -0.506310999393
---
header: 
  seq: 32
  stamp: 
    secs: 1559001921
    nsecs: 403566115
  frame_id: "imu_link"
vector: 
  x: 0.412584811449
  y: 0.503566205502
  z: -0.507728338242
---
header: 
  seq: 33
  stamp: 
    secs: 1559001921
    nsecs: 458568127
  frame_id: "imu_link"
vector: 
  x: 0.438508331776
  y: 0.481934070587
  z: -0.517101407051
---
header: 
  seq: 34
  stamp: 
    secs: 1559001921
    nsecs: 505593718
  frame_id: "imu_link"
vector: 
  x: 0.425459951162
  y: 0.479783773422
  z: -0.512249231339
---
header: 
  seq: 35
  stamp: 
    secs: 1559001921
    nsecs: 558593043
  frame_id: "imu_link"
vector: 
  x: 0.422959446907
  y: 0.509607255459
  z: -0.513085722923
---
header: 
  seq: 36
  stamp: 
    secs: 1559001921
    nsecs: 612595496
  frame_id: "imu_link"
vector: 
  x: 0.408495366573
  y: 0.515519857407
  z: -0.50169980526
---
header: 
  seq: 37
  stamp: 
    secs: 1559001921
    nsecs: 666601711
  frame_id: "imu_link"
vector: 
  x: 0.405902475119
  y: 0.525161206722
  z: -0.523420989513
---
header: 
  seq: 38
  stamp: 
    secs: 1559001921
    nsecs: 717620646
  frame_id: "imu_link"
vector: 
  x: 0.37869155407
  y: 0.529692411423
  z: -0.506282687187
---
header: 
  seq: 39
  stamp: 
    secs: 1559001921
    nsecs: 770621139
  frame_id: "imu_link"
vector: 
  x: 0.379371643066
  y: 0.506984353065
  z: -0.507645308971
---
header: 
  seq: 40
  stamp: 
    secs: 1559001921
    nsecs: 825559819
  frame_id: "imu_link"
vector: 
  x: 0.404985100031
  y: 0.51562422514
  z: -0.498925745487
---
header: 
  seq: 41
  stamp: 
    secs: 1559001921
    nsecs: 871592305
  frame_id: "imu_link"
vector: 
  x: 0.41456836462
  y: 0.526902139187
  z: -0.49566334486
---
header: 
  seq: 42
  stamp: 
    secs: 1559001921
    nsecs: 925623355
  frame_id: "imu_link"
vector: 
  x: 0.418948233128
  y: 0.541549682617
  z: -0.497455537319
---
header: 
  seq: 43
  stamp: 
    secs: 1559001921
    nsecs: 978624913
  frame_id: "imu_link"
vector: 
  x: 0.427485466003
  y: 0.537581384182
  z: -0.512722015381
---
header: 
  seq: 44
  stamp: 
    secs: 1559001922
    nsecs:  33595858
  frame_id: "imu_link"
vector: 
  x: 0.403505265713
  y: 0.527036726475
  z: -0.501520633698
---
header: 
  seq: 45
  stamp: 
    secs: 1559001922
    nsecs:  83620238
  frame_id: "imu_link"
vector: 
  x: 0.396409511566
  y: 0.550506472588
  z: -0.503579497337
---
header: 
  seq: 46
  stamp: 
    secs: 1559001922
    nsecs: 136579590
  frame_id: "imu_link"
vector: 
  x: 0.404044747353
  y: 0.517250835896
  z: -0.497647255659
---
header: 
  seq: 47
  stamp: 
    secs: 1559001922
    nsecs: 191625495
  frame_id: "imu_link"
vector: 
  x: 0.400335013866
  y: 0.501085758209
  z: -0.513637781143
---
header: 
  seq: 48
  stamp: 
    secs: 1559001922
    nsecs: 238624542
  frame_id: "imu_link"
vector: 
  x: 0.391973555088
  y: 0.463188320398
  z: -0.501922547817
---
header: 
  seq: 49
  stamp: 
    secs: 1559001922
    nsecs: 291628339
  frame_id: "imu_link"
vector: 
  x: 0.387764692307
  y: 0.492781639099
  z: -0.474646091461
---
header: 
  seq: 50
  stamp: 
    secs: 1559001922
    nsecs: 344596492
  frame_id: "imu_link"
vector: 
  x: 0.37985253334
  y: 0.5148614645
  z: -0.502998173237
---
header: 
  seq: 51
  stamp: 
    secs: 1559001922
    nsecs: 399591725
  frame_id: "imu_link"
vector: 
  x: 0.386747837067
  y: 0.509129703045
  z: -0.506249189377
---
header: 
  seq: 52
  stamp: 
    secs: 1559001922
    nsecs: 449618070
  frame_id: "imu_link"
vector: 
  x: 0.383520752192
  y: 0.537742853165
  z: -0.4993904531
---
header: 
  seq: 53
  stamp: 
    secs: 1559001922
    nsecs: 502635448
  frame_id: "imu_link"
vector: 
  x: 0.384817302227
  y: 0.543230831623
  z: -0.4958537817
---
header: 
  seq: 54
  stamp: 
    secs: 1559001922
    nsecs: 557605668
  frame_id: "imu_link"
vector: 
  x: 0.400020688772
  y: 0.520191192627
  z: -0.512963294983
---
header: 
  seq: 55
  stamp: 
    secs: 1559001922
    nsecs: 604568017
  frame_id: "imu_link"
vector: 
  x: 0.395427435637
  y: 0.510655224323
  z: -0.528175830841
---
header: 
  seq: 56
  stamp: 
    secs: 1559001922
    nsecs: 657631828
  frame_id: "imu_link"
vector: 
  x: 0.409191727638
  y: 0.518024086952
  z: -0.519756436348
---
header: 
  seq: 57
  stamp: 
    secs: 1559001922
    nsecs: 710641884
  frame_id: "imu_link"
vector: 
  x: 0.416361749172
  y: 0.511834561825
  z: -0.504543602467
---
header: 
  seq: 58
  stamp: 
    secs: 1559001922
    nsecs: 765597787
  frame_id: "imu_link"
vector: 
  x: 0.402297139168
  y: 0.515896975994
  z: -0.506901025772
---
header: 
  seq: 59
  stamp: 
    secs: 1559001922
    nsecs: 815627315
  frame_id: "imu_link"
vector: 
  x: 0.409575879574
  y: 0.537447452545
  z: -0.538589417934
---
header: 
  seq: 60
  stamp: 
    secs: 1559001922
    nsecs: 868603438
  frame_id: "imu_link"
vector: 
  x: 0.430454403162
  y: 0.527414321899
  z: -0.547943174839
---
header: 
  seq: 61
  stamp: 
    secs: 1559001922
    nsecs: 923604057
  frame_id: "imu_link"
vector: 
  x: 0.428905069828
  y: 0.507563114166
  z: -0.525353848934
---
header: 
  seq: 62
  stamp: 
    secs: 1559001922
    nsecs: 970574155
  frame_id: "imu_link"
vector: 
  x: 0.413603305817
  y: 0.490161120892
  z: -0.496558487415
---
header: 
  seq: 63
  stamp: 
    secs: 1559001923
    nsecs:  23576634
  frame_id: "imu_link"
vector: 
  x: 0.384062021971
  y: 0.505951464176
  z: -0.511527776718
---
header: 
  seq: 64
  stamp: 
    secs: 1559001923
    nsecs:  77629373
  frame_id: "imu_link"
vector: 
  x: 0.402359783649
  y: 0.505356609821
  z: -0.527563869953
---
header: 
  seq: 65
  stamp: 
    secs: 1559001923
    nsecs: 131601776
  frame_id: "imu_link"
vector: 
  x: 0.43082511425
  y: 0.522388219833
  z: -0.534414947033
---
header: 
  seq: 66
  stamp: 
    secs: 1559001923
    nsecs: 181604192
  frame_id: "imu_link"
vector: 
  x: 0.420011729002
  y: 0.524003446102
  z: -0.517116785049
---
header: 
  seq: 67
  stamp: 
    secs: 1559001923
    nsecs: 235596143
  frame_id: "imu_link"
vector: 
  x: 0.410624325275
  y: 0.522229492664
  z: -0.494575560093
---
header: 
  seq: 68
  stamp: 
    secs: 1559001923
    nsecs: 289624411
  frame_id: "imu_link"
vector: 
  x: 0.399827897549
  y: 0.528386950493
  z: -0.502668976784
---
header: 
  seq: 69
  stamp: 
    secs: 1559001923
    nsecs: 336616479
  frame_id: "imu_link"
vector: 
  x: 0.416835844517
  y: 0.540051341057
  z: -0.524949431419
---
header: 
  seq: 70
  stamp: 
    secs: 1559001923
    nsecs: 389607996
  frame_id: "imu_link"
vector: 
  x: 0.406580418348
  y: 0.515898644924
  z: -0.497727692127
---
header: 
  seq: 71
  stamp: 
    secs: 1559001923
    nsecs: 443604779
  frame_id: "imu_link"
vector: 
  x: 0.408380687237
  y: 0.502497196198
  z: -0.495152592659
---
header: 
  seq: 72
  stamp: 
    secs: 1559001923
    nsecs: 498601030
  frame_id: "imu_link"
vector: 
  x: 0.412726998329
  y: 0.503884017467
  z: -0.520582973957
---
header: 
  seq: 73
  stamp: 
    secs: 1559001923
    nsecs: 548597742
  frame_id: "imu_link"
vector: 
  x: 0.399158626795
  y: 0.538635134697
  z: -0.527208089828
---
header: 
  seq: 74
  stamp: 
    secs: 1559001923
    nsecs: 601592212
  frame_id: "imu_link"
vector: 
  x: 0.418952345848
  y: 0.521007180214
  z: -0.507720351219
---
header: 
  seq: 75
  stamp: 
    secs: 1559001923
    nsecs: 656598610
  frame_id: "imu_link"
vector: 
  x: 0.437837272882
  y: 0.504887461662
  z: -0.525940656662
---
header: 
  seq: 76
  stamp: 
    secs: 1559001923
    nsecs: 702619653
  frame_id: "imu_link"
vector: 
  x: 0.428249001503
  y: 0.504706799984
  z: -0.543499290943
---
header: 
  seq: 77
  stamp: 
    secs: 1559001923
    nsecs: 756647551
  frame_id: "imu_link"
vector: 
  x: 0.3846539855
  y: 0.535824656487
  z: -0.49732863903
---
header: 
  seq: 78
  stamp: 
    secs: 1559001923
    nsecs: 809644739
  frame_id: "imu_link"
vector: 
  x: 0.402515470982
  y: 0.510805368423
  z: -0.503825187683
---
header: 
  seq: 79
  stamp: 
    secs: 1559001923
    nsecs: 864631926
  frame_id: "imu_link"
vector: 
  x: 0.430830091238
  y: 0.484447717667
  z: -0.524280190468
---
header: 
  seq: 80
  stamp: 
    secs: 1559001923
    nsecs: 914599372
  frame_id: "imu_link"
vector: 
  x: 0.424404978752
  y: 0.499158501625
  z: -0.511497020721
---
header: 
  seq: 81
  stamp: 
    secs: 1559001923
    nsecs: 967612266
  frame_id: "imu_link"
vector: 
  x: 0.419450968504
  y: 0.519353866577
  z: -0.509861767292
---
header: 
  seq: 82
  stamp: 
    secs: 1559001924
    nsecs:  19606656
  frame_id: "imu_link"
vector: 
  x: 0.417349725962
  y: 0.544010281563
  z: -0.509168148041
---
header: 
  seq: 83
  stamp: 
    secs: 1559001924
    nsecs:  69645505
  frame_id: "imu_link"
vector: 
  x: 0.402686655521
  y: 0.537645280361
  z: -0.508871853352
---
header: 
  seq: 84
  stamp: 
    secs: 1559001924
    nsecs: 122580116
  frame_id: "imu_link"
vector: 
  x: 0.380336999893
  y: 0.517317175865
  z: -0.51752281189
---
header: 
  seq: 85
  stamp: 
    secs: 1559001924
    nsecs: 175610740
  frame_id: "imu_link"
vector: 
  x: 0.393903911114
  y: 0.517861247063
  z: -0.530119597912
---
header: 
  seq: 86
  stamp: 
    secs: 1559001924
    nsecs: 230622089
  frame_id: "imu_link"
vector: 
  x: 0.389240920544
  y: 0.502562046051
  z: -0.508961498737
---
header: 
  seq: 87
  stamp: 
    secs: 1559001924
    nsecs: 280643171
  frame_id: "imu_link"
vector: 
  x: 0.386826366186
  y: 0.529601037502
  z: -0.479726552963
---
header: 
  seq: 88
  stamp: 
    secs: 1559001924
    nsecs: 333631726
  frame_id: "imu_link"
vector: 
  x: 0.37935590744
  y: 0.531316876411
  z: -0.487478554249
---
header: 
  seq: 89
  stamp: 
    secs: 1559001924
    nsecs: 385654639
  frame_id: "imu_link"
vector: 
  x: 0.365985572338
  y: 0.514203429222
  z: -0.51737600565
---
header: 
  seq: 90
  stamp: 
    secs: 1559001924
    nsecs: 435606313
  frame_id: "imu_link"
vector: 
  x: 0.377519905567
  y: 0.515574097633
  z: -0.538876414299
---
header: 
  seq: 91
  stamp: 
    secs: 1559001924
    nsecs: 488657690
  frame_id: "imu_link"
vector: 
  x: 0.399138510227
  y: 0.513745963573
  z: -0.530535876751
---
header: 
  seq: 92
  stamp: 
    secs: 1559001924
    nsecs: 541654625
  frame_id: "imu_link"
vector: 
  x: 0.426033943892
  y: 0.509259998798
  z: -0.544525027275
---
header: 
  seq: 93
  stamp: 
    secs: 1559001924
    nsecs: 596657886
  frame_id: "imu_link"
vector: 
  x: 0.447724044323
  y: 0.50831079483
  z: -0.541630804539
---
header: 
  seq: 94
  stamp: 
    secs: 1559001924
    nsecs: 646603402
  frame_id: "imu_link"
vector: 
  x: 0.407856613398
  y: 0.48750770092
  z: -0.514646172523
---
header: 
  seq: 95
  stamp: 
    secs: 1559001924
    nsecs: 699619848
  frame_id: "imu_link"
vector: 
  x: 0.402153521776
  y: 0.505339741707
  z: -0.520050525665
---
header: 
  seq: 96
  stamp: 
    secs: 1559001924
    nsecs: 751646390
  frame_id: "imu_link"
vector: 
  x: 0.410080909729
  y: 0.505095601082
  z: -0.531209230423
---
header: 
  seq: 97
  stamp: 
    secs: 1559001924
    nsecs: 801635764
  frame_id: "imu_link"
vector: 
  x: 0.423705220222
  y: 0.505950093269
  z: -0.527111470699
---
header: 
  seq: 98
  stamp: 
    secs: 1559001924
    nsecs: 854611866
  frame_id: "imu_link"
vector: 
  x: 0.39938980341
  y: 0.524163484573
  z: -0.528562605381
---
header: 
  seq: 99
  stamp: 
    secs: 1559001924
    nsecs: 908605724
  frame_id: "imu_link"
vector: 
  x: 0.398542225361
  y: 0.520959496498
  z: -0.525977611542
---
header: 
  seq: 100
  stamp: 
    secs: 1559001924
    nsecs: 962653108
  frame_id: "imu_link"
vector: 
  x: 0.411918401718
  y: 0.504281759262
  z: -0.524881184101
---
header: 
  seq: 101
  stamp: 
    secs: 1559001925
    nsecs:  12617072
  frame_id: "imu_link"
vector: 
  x: 0.405843794346
  y: 0.478600561619
  z: -0.52044481039
---
header: 
  seq: 102
  stamp: 
    secs: 1559001925
    nsecs:  66591896
  frame_id: "imu_link"
vector: 
  x: 0.401198804379
  y: 0.486210823059
  z: -0.504837095737
---
header: 
  seq: 103
  stamp: 
    secs: 1559001925
    nsecs: 117636349
  frame_id: "imu_link"
vector: 
  x: 0.39911749959
  y: 0.506348133087
  z: -0.480445295572
---
header: 
  seq: 104
  stamp: 
    secs: 1559001925
    nsecs: 167626034
  frame_id: "imu_link"
vector: 
  x: 0.40868139267
  y: 0.514329910278
  z: -0.496627688408
---
header: 
  seq: 105
  stamp: 
    secs: 1559001925
    nsecs: 221633414
  frame_id: "imu_link"
vector: 
  x: 0.392546832561
  y: 0.521900475025
  z: -0.518604338169
---
header: 
  seq: 106
  stamp: 
    secs: 1559001925
    nsecs: 274692778
  frame_id: "imu_link"
vector: 
  x: 0.392143756151
  y: 0.504059016705
  z: -0.512882828712
---
header: 
  seq: 107
  stamp: 
    secs: 1559001925
    nsecs: 329627632
  frame_id: "imu_link"
vector: 
  x: 0.392069458961
  y: 0.495732665062
  z: -0.528141498566
---
header: 
  seq: 108
  stamp: 
    secs: 1559001925
    nsecs: 379611405
  frame_id: "imu_link"
vector: 
  x: 0.434182167053
  y: 0.504293322563
  z: -0.542474448681
---
header: 
  seq: 109
  stamp: 
    secs: 1559001925
    nsecs: 432599931
  frame_id: "imu_link"
vector: 
  x: 0.444351792336
  y: 0.497748106718
  z: -0.54075294733
---
header: 
  seq: 110
  stamp: 
    secs: 1559001925
    nsecs: 484653978
  frame_id: "imu_link"
vector: 
  x: 0.438315212727
  y: 0.470636546612
  z: -0.531180024147
---
header: 
  seq: 111
  stamp: 
    secs: 1559001925
    nsecs: 537613590
  frame_id: "imu_link"
vector: 
  x: 0.413290143013
  y: 0.490357041359
  z: -0.563196599483
---
header: 
  seq: 112
  stamp: 
    secs: 1559001925
    nsecs: 590650934
  frame_id: "imu_link"
vector: 
  x: 0.403975427151
  y: 0.51595890522
  z: -0.539489448071
---
header: 
  seq: 113
  stamp: 
    secs: 1559001925
    nsecs: 645658140
  frame_id: "imu_link"
vector: 
  x: 0.400394588709
  y: 0.510169863701
  z: -0.512898564339
---
header: 
  seq: 114
  stamp: 
    secs: 1559001925
    nsecs: 695646916
  frame_id: "imu_link"
vector: 
  x: 0.409225821495
  y: 0.483777910471
  z: -0.510462760925
---
header: 
  seq: 115
  stamp: 
    secs: 1559001925
    nsecs: 748628132
  frame_id: "imu_link"
vector: 
  x: 0.397357434034
  y: 0.490092277527
  z: -0.500129878521
---
header: 
  seq: 116
  stamp: 
    secs: 1559001925
    nsecs: 802639065
  frame_id: "imu_link"
vector: 
  x: 0.387316763401
  y: 0.490151524544
  z: -0.505024671555
---
header: 
  seq: 117
  stamp: 
    secs: 1559001925
    nsecs: 856618724
  frame_id: "imu_link"
vector: 
  x: 0.396889805794
  y: 0.498243778944
  z: -0.524812936783
---
header: 
  seq: 118
  stamp: 
    secs: 1559001925
    nsecs: 906648741
  frame_id: "imu_link"
vector: 
  x: 0.397078156471
  y: 0.497668087482
  z: -0.497673928738
---
header: 
  seq: 119
  stamp: 
    secs: 1559001925
    nsecs: 959606883
  frame_id: "imu_link"
vector: 
  x: 0.393979728222
  y: 0.518661856651
  z: -0.48628693819
---
header: 
  seq: 120
  stamp: 
    secs: 1559001926
    nsecs:  15613391
  frame_id: "imu_link"
vector: 
  x: 0.410886526108
  y: 0.519434630871
  z: -0.509198248386
---
header: 
  seq: 121
  stamp: 
    secs: 1559001926
    nsecs:  61644529
  frame_id: "imu_link"
vector: 
  x: 0.389612913132
  y: 0.526982784271
  z: -0.500042557716
---
header: 
  seq: 122
  stamp: 
    secs: 1559001926
    nsecs: 114677548
  frame_id: "imu_link"
vector: 
  x: 0.395200908184
  y: 0.502488732338
  z: -0.474323570728
---
header: 
  seq: 123
  stamp: 
    secs: 1559001926
    nsecs: 168657073
  frame_id: "imu_link"
vector: 
  x: 0.382912755013
  y: 0.511723279953
  z: -0.485186964273
---
header: 
  seq: 124
  stamp: 
    secs: 1559001926
    nsecs: 223635396
  frame_id: "imu_link"
vector: 
  x: 0.391519755125
  y: 0.523708343506
  z: -0.507491827011
---
header: 
  seq: 125
  stamp: 
    secs: 1559001926
    nsecs: 273630922
  frame_id: "imu_link"
vector: 
  x: 0.396891117096
  y: 0.518438339233
  z: -0.546279132366
---
header: 
  seq: 126
  stamp: 
    secs: 1559001926
    nsecs: 326643696
  frame_id: "imu_link"
vector: 
  x: 0.383839845657
  y: 0.508949637413
  z: -0.551221370697
---
header: 
  seq: 127
  stamp: 
    secs: 1559001926
    nsecs: 381619612
  frame_id: "imu_link"
vector: 
  x: 0.38521695137
  y: 0.488092660904
  z: -0.553446412086
---
header: 
  seq: 128
  stamp: 
    secs: 1559001926
    nsecs: 427631317
  frame_id: "imu_link"
vector: 
  x: 0.39598429203
  y: 0.489311993122
  z: -0.545434117317
---
header: 
  seq: 129
  stamp: 
    secs: 1559001926
    nsecs: 481627761
  frame_id: "imu_link"
vector: 
  x: 0.414745211601
  y: 0.471400558949
  z: -0.536773324013
---
header: 
  seq: 130
  stamp: 
    secs: 1559001926
    nsecs: 534652980
  frame_id: "imu_link"
vector: 
  x: 0.408572435379
  y: 0.466105401516
  z: -0.538326263428
---
header: 
  seq: 131
  stamp: 
    secs: 1559001926
    nsecs: 589635411
  frame_id: "imu_link"
vector: 
  x: 0.402542322874
  y: 0.471332222223
  z: -0.547851502895
---
header: 
  seq: 132
  stamp: 
    secs: 1559001926
    nsecs: 639659777
  frame_id: "imu_link"
vector: 
  x: 0.403079926968
  y: 0.530340671539
  z: -0.514504313469
---
header: 
  seq: 133
  stamp: 
    secs: 1559001926
    nsecs: 692627711
  frame_id: "imu_link"
vector: 
  x: 0.396538347006
  y: 0.540635824203
  z: -0.493461847305
---
header: 
  seq: 134
  stamp: 
    secs: 1559001926
    nsecs: 747623311
  frame_id: "imu_link"
vector: 
  x: 0.414488434792
  y: 0.537371277809
  z: -0.502195596695
---
header: 
  seq: 135
  stamp: 
    secs: 1559001926
    nsecs: 794621373
  frame_id: "imu_link"
vector: 
  x: 0.422622919083
  y: 0.509645700455
  z: -0.524762511253
---
header: 
  seq: 136
  stamp: 
    secs: 1559001926
    nsecs: 847624476
  frame_id: "imu_link"
vector: 
  x: 0.434233307838
  y: 0.512048959732
  z: -0.52042222023
---
header: 
  seq: 137
  stamp: 
    secs: 1559001926
    nsecs: 900630589
  frame_id: "imu_link"
vector: 
  x: 0.423736870289
  y: 0.516005635262
  z: -0.531367480755
---
header: 
  seq: 138
  stamp: 
    secs: 1559001926
    nsecs: 955622639
  frame_id: "imu_link"
vector: 
  x: 0.408907413483
  y: 0.493328213692
  z: -0.527174413204
---
header: 
  seq: 139
  stamp: 
    secs: 1559001927
    nsecs:   5678665
  frame_id: "imu_link"
vector: 
  x: 0.403736412525
  y: 0.511879980564
  z: -0.499415397644
---
header: 
  seq: 140
  stamp: 
    secs: 1559001927
    nsecs:  58687467
  frame_id: "imu_link"
vector: 
  x: 0.414036095142
  y: 0.501169979572
  z: -0.495872080326
---
header: 
  seq: 141
  stamp: 
    secs: 1559001927
    nsecs: 113656965
  frame_id: "imu_link"
vector: 
  x: 0.394341230392
  y: 0.519768834114
  z: -0.485518783331
---
header: 
  seq: 142
  stamp: 
    secs: 1559001927
    nsecs: 160686516
  frame_id: "imu_link"
vector: 
  x: 0.400076568127
  y: 0.528147697449
  z: -0.499520868063
---
header: 
  seq: 143
  stamp: 
    secs: 1559001927
    nsecs: 213628095
  frame_id: "imu_link"
vector: 
  x: 0.394834220409
  y: 0.474630594254
  z: -0.510775506496
---
header: 
  seq: 144
  stamp: 
    secs: 1559001927
    nsecs: 266667217
  frame_id: "imu_link"
vector: 
  x: 0.406881392002
  y: 0.492802381516
  z: -0.509555101395
---
header: 
  seq: 145
  stamp: 
    secs: 1559001927
    nsecs: 321611971
  frame_id: "imu_link"
vector: 
  x: 0.41557008028
  y: 0.491519272327
  z: -0.5355656147
---
header: 
  seq: 146
  stamp: 
    secs: 1559001927
    nsecs: 371604852
  frame_id: "imu_link"
vector: 
  x: 0.401032269001
  y: 0.502950310707
  z: -0.508493065834
---
header: 
  seq: 147
  stamp: 
    secs: 1559001927
    nsecs: 424690396
  frame_id: "imu_link"
vector: 
  x: 0.409612834454
  y: 0.487954199314
  z: -0.526308596134
---
header: 
  seq: 148
  stamp: 
    secs: 1559001927
    nsecs: 479641033
  frame_id: "imu_link"
vector: 
  x: 0.413252294064
  y: 0.489638924599
  z: -0.53386503458
---
header: 
  seq: 149
  stamp: 
    secs: 1559001927
    nsecs: 526668972
  frame_id: "imu_link"
vector: 
  x: 0.407643467188
  y: 0.506965577602
  z: -0.537263691425
---
header: 
  seq: 150
  stamp: 
    secs: 1559001927
    nsecs: 579665257
  frame_id: "imu_link"
vector: 
  x: 0.407237946987
  y: 0.495908856392
  z: -0.560537219048
---
header: 
  seq: 151
  stamp: 
    secs: 1559001927
    nsecs: 633625504
  frame_id: "imu_link"
vector: 
  x: 0.419107675552
  y: 0.501461327076
  z: -0.548456907272
---
header: 
  seq: 152
  stamp: 
    secs: 1559001927
    nsecs: 687637822
  frame_id: "imu_link"
vector: 
  x: 0.437847286463
  y: 0.489242166281
  z: -0.525572180748
---
header: 
  seq: 153
  stamp: 
    secs: 1559001927
    nsecs: 737637713
  frame_id: "imu_link"
vector: 
  x: 0.42238086462
  y: 0.503316104412
  z: -0.538240611553
---
header: 
  seq: 154
  stamp: 
    secs: 1559001927
    nsecs: 790684353
  frame_id: "imu_link"
vector: 
  x: 0.425659835339
  y: 0.519950807095
  z: -0.556637167931
---
header: 
  seq: 155
  stamp: 
    secs: 1559001927
    nsecs: 845663135
  frame_id: "imu_link"
vector: 
  x: 0.416514396667
  y: 0.504224717617
  z: -0.52026617527
---
header: 
  seq: 156
  stamp: 
    secs: 1559001927
    nsecs: 892650964
  frame_id: "imu_link"
vector: 
  x: 0.401568830013
  y: 0.504629015923
  z: -0.513230144978
---
header: 
  seq: 157
  stamp: 
    secs: 1559001927
    nsecs: 945680570
  frame_id: "imu_link"
vector: 
  x: 0.401962459087
  y: 0.516621410847
  z: -0.513261079788
---
header: 
  seq: 158
  stamp: 
    secs: 1559001927
    nsecs: 999642315
  frame_id: "imu_link"
vector: 
  x: 0.40990281105
  y: 0.526765823364
  z: -0.510614514351
---
header: 
  seq: 159
  stamp: 
    secs: 1559001928
    nsecs:  53647193
  frame_id: "imu_link"
vector: 
  x: 0.416768908501
  y: 0.522843420506
  z: -0.518340110779
---
header: 
  seq: 160
  stamp: 
    secs: 1559001928
    nsecs: 104632545
  frame_id: "imu_link"
vector: 
  x: 0.394936472178
  y: 0.503313004971
  z: -0.514191091061
---
header: 
  seq: 161
  stamp: 
    secs: 1559001928
    nsecs: 157631948
  frame_id: "imu_link"
vector: 
  x: 0.396647453308
  y: 0.504033148289
  z: -0.519862651825
---
header: 
  seq: 162
  stamp: 
    secs: 1559001928
    nsecs: 212660658
  frame_id: "imu_link"
vector: 
  x: 0.393892765045
  y: 0.504525840282
  z: -0.513431668282
---
header: 
  seq: 163
  stamp: 
    secs: 1559001928
    nsecs: 265616585
  frame_id: "imu_link"
vector: 
  x: 0.409007459879
  y: 0.517439365387
  z: -0.509456932545
---
header: 
  seq: 164
  stamp: 
    secs: 1559001928
    nsecs: 318654727
  frame_id: "imu_link"
vector: 
  x: 0.419765412807
  y: 0.495308220387
  z: -0.508995592594
---
header: 
  seq: 165
  stamp: 
    secs: 1559001928
    nsecs: 373639303
  frame_id: "imu_link"
vector: 
  x: 0.40363407135
  y: 0.48546397686
  z: -0.491094112396
---
header: 
  seq: 166
  stamp: 
    secs: 1559001928
    nsecs: 426671459
  frame_id: "imu_link"
vector: 
  x: 0.416074752808
  y: 0.506922662258
  z: -0.511805295944
---
header: 
  seq: 167
  stamp: 
    secs: 1559001928
    nsecs: 479655290
  frame_id: "imu_link"
vector: 
  x: 0.426357120275
  y: 0.50597012043
  z: -0.536524891853
---
header: 
  seq: 168
  stamp: 
    secs: 1559001928
    nsecs: 534661358
  frame_id: "imu_link"
vector: 
  x: 0.430653214455
  y: 0.490198254585
  z: -0.529362142086
---
header: 
  seq: 169
  stamp: 
    secs: 1559001928
    nsecs: 584681232
  frame_id: "imu_link"
vector: 
  x: 0.429089784622
  y: 0.48293620348
  z: -0.535166800022
---
header: 
  seq: 170
  stamp: 
    secs: 1559001928
    nsecs: 637618429
  frame_id: "imu_link"
vector: 
  x: 0.414305925369
  y: 0.505399465561
  z: -0.521089196205
---
header: 
  seq: 171
  stamp: 
    secs: 1559001928
    nsecs: 691672607
  frame_id: "imu_link"
vector: 
  x: 0.404806286097
  y: 0.505680799484
  z: -0.505111813545
---
header: 
  seq: 172
  stamp: 
    secs: 1559001928
    nsecs: 746702715
  frame_id: "imu_link"
vector: 
  x: 0.393888711929
  y: 0.53759598732
  z: -0.498300492764
---
header: 
  seq: 173
  stamp: 
    secs: 1559001928
    nsecs: 795675077
  frame_id: "imu_link"
vector: 
  x: 0.384416937828
  y: 0.523926377296
  z: -0.511826515198
---
header: 
  seq: 174
  stamp: 
    secs: 1559001928
    nsecs: 849675871
  frame_id: "imu_link"
vector: 
  x: 0.392161041498
  y: 0.496729373932
  z: -0.518848478794
---
header: 
  seq: 175
  stamp: 
    secs: 1559001928
    nsecs: 900647277
  frame_id: "imu_link"
vector: 
  x: 0.405701160431
  y: 0.502178132534
  z: -0.513005614281
---
header: 
  seq: 176
  stamp: 
    secs: 1559001928
    nsecs: 950659517
  frame_id: "imu_link"
vector: 
  x: 0.404620230198
  y: 0.488030344248
  z: -0.510508418083
---
header: 
  seq: 177
  stamp: 
    secs: 1559001929
    nsecs:   3640531
  frame_id: "imu_link"
vector: 
  x: 0.407438009977
  y: 0.487151145935
  z: -0.517816841602
---
header: 
  seq: 178
  stamp: 
    secs: 1559001929
    nsecs:  57652096
  frame_id: "imu_link"
vector: 
  x: 0.419192969799
  y: 0.497727870941
  z: -0.53024494648
---
header: 
  seq: 179
  stamp: 
    secs: 1559001929
    nsecs: 112629235
  frame_id: "imu_link"
vector: 
  x: 0.424204200506
  y: 0.510282099247
  z: -0.535543143749
---
header: 
  seq: 180
  stamp: 
    secs: 1559001929
    nsecs: 162648136
  frame_id: "imu_link"
vector: 
  x: 0.412626743317
  y: 0.508503377438
  z: -0.551377117634
---
header: 
  seq: 181
  stamp: 
    secs: 1559001929
    nsecs: 215640293
  frame_id: "imu_link"
vector: 
  x: 0.390427470207
  y: 0.505469918251
  z: -0.53569227457
---
header: 
  seq: 182
  stamp: 
    secs: 1559001929
    nsecs: 267669069
  frame_id: "imu_link"
vector: 
  x: 0.377491533756
  y: 0.504365265369
  z: -0.520163178444
---
header: 
  seq: 183
  stamp: 
    secs: 1559001929
    nsecs: 317647152
  frame_id: "imu_link"
vector: 
  x: 0.385629802942
  y: 0.497381001711
  z: -0.495874285698
---
header: 
  seq: 184
  stamp: 
    secs: 1559001929
    nsecs: 370621794
  frame_id: "imu_link"
vector: 
  x: 0.395664572716
  y: 0.481472253799
  z: -0.485708773136
---
header: 
  seq: 185
  stamp: 
    secs: 1559001929
    nsecs: 423649890
  frame_id: "imu_link"
vector: 
  x: 0.390082120895
  y: 0.494349479675
  z: -0.507738113403
---
header: 
  seq: 186
  stamp: 
    secs: 1559001929
    nsecs: 478638064
  frame_id: "imu_link"
vector: 
  x: 0.367033183575
  y: 0.507457375526
  z: -0.499429136515
---
header: 
  seq: 187
  stamp: 
    secs: 1559001929
    nsecs: 528626779
  frame_id: "imu_link"
vector: 
  x: 0.390442937613
  y: 0.476983487606
  z: -0.529734909534
---
header: 
  seq: 188
  stamp: 
    secs: 1559001929
    nsecs: 581661291
  frame_id: "imu_link"
vector: 
  x: 0.387859344482
  y: 0.484384655952
  z: -0.526479482651
---
header: 
  seq: 189
  stamp: 
    secs: 1559001929
    nsecs: 633647623
  frame_id: "imu_link"
vector: 
  x: 0.369523048401
  y: 0.495003223419
  z: -0.516241371632
---
header: 
  seq: 190
  stamp: 
    secs: 1559001929
    nsecs: 686680886
  frame_id: "imu_link"
vector: 
  x: 0.391164898872
  y: 0.515135407448
  z: -0.501200795174
---
header: 
  seq: 191
  stamp: 
    secs: 1559001929
    nsecs: 739675219
  frame_id: "imu_link"
vector: 
  x: 0.388005107641
  y: 0.508331537247
  z: -0.515040516853
---
header: 
  seq: 192
  stamp: 
    secs: 1559001929
    nsecs: 794678939
  frame_id: "imu_link"
vector: 
  x: 0.407468318939
  y: 0.498877972364
  z: -0.520229816437
---
header: 
  seq: 193
  stamp: 
    secs: 1559001929
    nsecs: 844667932
  frame_id: "imu_link"
vector: 
  x: 0.408855855465
  y: 0.494482308626
  z: -0.522430896759
---
header: 
  seq: 194
  stamp: 
    secs: 1559001929
    nsecs: 897632319
  frame_id: "imu_link"
vector: 
  x: 0.377340972424
  y: 0.521289825439
  z: -0.516199171543
---
header: 
  seq: 195
  stamp: 
    secs: 1559001929
    nsecs: 951661215
  frame_id: "imu_link"
vector: 
  x: 0.427169978619
  y: 0.520724415779
  z: -0.54730784893
---
header: 
  seq: 196
  stamp: 
    secs: 1559001930
    nsecs:   5653254
  frame_id: "imu_link"
vector: 
  x: 0.430990457535
  y: 0.520658135414
  z: -0.533974468708
---
header: 
  seq: 197
  stamp: 
    secs: 1559001930
    nsecs:  55659553
  frame_id: "imu_link"
vector: 
  x: 0.407725870609
  y: 0.505363643169
  z: -0.500653028488
---
header: 
  seq: 198
  stamp: 
    secs: 1559001930
    nsecs: 109662868
  frame_id: "imu_link"
vector: 
  x: 0.394414365292
  y: 0.488265424967
  z: -0.496156841516
---
header: 
  seq: 199
  stamp: 
    secs: 1559001930
    nsecs: 164681055
  frame_id: "imu_link"
vector: 
  x: 0.417026460171
  y: 0.458548724651
  z: -0.512168347836
---
header: 
  seq: 200
  stamp: 
    secs: 1559001930
    nsecs: 210648437
  frame_id: "imu_link"
vector: 
  x: 0.416316151619
  y: 0.493952661753
  z: -0.51015150547
---
header: 
  seq: 201
  stamp: 
    secs: 1559001930
    nsecs: 264668641
  frame_id: "imu_link"
vector: 
  x: 0.393355518579
  y: 0.470560848713
  z: -0.508924722672
---
header: 
  seq: 202
  stamp: 
    secs: 1559001930
    nsecs: 317673345
  frame_id: "imu_link"
vector: 
  x: 0.392392754555
  y: 0.474924594164
  z: -0.491083234549
---
header: 
  seq: 203
  stamp: 
    secs: 1559001930
    nsecs: 372682440
  frame_id: "imu_link"
vector: 
  x: 0.385218918324
  y: 0.499749094248
  z: -0.501151800156
---
header: 
  seq: 204
  stamp: 
    secs: 1559001930
    nsecs: 422696608
  frame_id: "imu_link"
vector: 
  x: 0.407442688942
  y: 0.542852163315
  z: -0.532514452934
---
header: 
  seq: 205
  stamp: 
    secs: 1559001930
    nsecs: 475639804
  frame_id: "imu_link"
vector: 
  x: 0.390756726265
  y: 0.527957201004
  z: -0.518071889877
---
header: 
  seq: 206
  stamp: 
    secs: 1559001930
    nsecs: 530623537
  frame_id: "imu_link"
vector: 
  x: 0.419010400772
  y: 0.475169241428
  z: -0.530380189419
---
header: 
  seq: 207
  stamp: 
    secs: 1559001930
    nsecs: 577677410
  frame_id: "imu_link"
vector: 
  x: 0.434476435184
  y: 0.468683362007
  z: -0.544443488121
---
header: 
  seq: 208
  stamp: 
    secs: 1559001930
    nsecs: 630688648
  frame_id: "imu_link"
vector: 
  x: 0.401481598616
  y: 0.48749423027
  z: -0.502531290054
---
header: 
  seq: 209
  stamp: 
    secs: 1559001930
    nsecs: 683668603
  frame_id: "imu_link"
vector: 
  x: 0.416653692722
  y: 0.513964653015
  z: -0.523728609085
---
header: 
  seq: 210
  stamp: 
    secs: 1559001930
    nsecs: 738649830
  frame_id: "imu_link"
vector: 
  x: 0.429989516735
  y: 0.5336804986
  z: -0.53276515007
---
header: 
  seq: 211
  stamp: 
    secs: 1559001930
    nsecs: 788675145
  frame_id: "imu_link"
vector: 
  x: 0.411962449551
  y: 0.498615264893
  z: -0.50420820713
---
header: 
  seq: 212
  stamp: 
    secs: 1559001930
    nsecs: 841690558
  frame_id: "imu_link"
vector: 
  x: 0.417542874813
  y: 0.487469822168
  z: -0.497915267944
---
header: 
  seq: 213
  stamp: 
    secs: 1559001930
    nsecs: 896673771
  frame_id: "imu_link"
vector: 
  x: 0.401974201202
  y: 0.498025119305
  z: -0.504420638084
---
header: 
  seq: 214
  stamp: 
    secs: 1559001930
    nsecs: 949678334
  frame_id: "imu_link"
vector: 
  x: 0.392340302467
  y: 0.510676383972
  z: -0.529324054718
---
header: 
  seq: 215
  stamp: 
    secs: 1559001931
    nsecs:   2844288
  frame_id: "imu_link"
vector: 
  x: 0.388767659664
  y: 0.514071941376
  z: -0.543993294239
---
header: 
  seq: 216
  stamp: 
    secs: 1559001931
    nsecs:  57665492
  frame_id: "imu_link"
vector: 
  x: 0.383762359619
  y: 0.52375125885
  z: -0.541404128075
---
header: 
  seq: 217
  stamp: 
    secs: 1559001931
    nsecs: 104656324
  frame_id: "imu_link"
vector: 
  x: 0.402271956205
  y: 0.537109553814
  z: -0.540297985077
---
header: 
  seq: 218
  stamp: 
    secs: 1559001931
    nsecs: 157685169
  frame_id: "imu_link"
vector: 
  x: 0.406100571156
  y: 0.521887123585
  z: -0.538346290588
---
header: 
  seq: 219
  stamp: 
    secs: 1559001931
    nsecs: 210663134
  frame_id: "imu_link"
vector: 
  x: 0.390941858292
  y: 0.5205540061
  z: -0.503588318825
---
header: 
  seq: 220
  stamp: 
    secs: 1559001931
    nsecs: 262677966
  frame_id: "imu_link"
vector: 
  x: 0.405995190144
  y: 0.494887560606
  z: -0.506656646729
---
header: 
  seq: 221
  stamp: 
    secs: 1559001931
    nsecs: 315661728
  frame_id: "imu_link"
vector: 
  x: 0.422449529171
  y: 0.470472455025
  z: -0.529730975628
---
header: 
  seq: 222
  stamp: 
    secs: 1559001931
    nsecs: 369658366
  frame_id: "imu_link"
vector: 
  x: 0.422109901905
  y: 0.498880058527
  z: -0.526477813721
---
header: 
  seq: 223
  stamp: 
    secs: 1559001931
    nsecs: 423749962
  frame_id: "imu_link"
vector: 
  x: 0.408133178949
  y: 0.494856148958
  z: -0.507408976555
---
header: 
  seq: 224
  stamp: 
    secs: 1559001931
    nsecs: 477679516
  frame_id: "imu_link"
vector: 
  x: 0.444307625294
  y: 0.521521389484
  z: -0.517249941826
---
header: 
  seq: 225
  stamp: 
    secs: 1559001931
    nsecs: 530663964
  frame_id: "imu_link"
vector: 
  x: 0.431414633989
  y: 0.528664946556
  z: -0.521164774895
---
header: 
  seq: 226
  stamp: 
    secs: 1559001931
    nsecs: 585677006
  frame_id: "imu_link"
vector: 
  x: 0.401814460754
  y: 0.530733525753
  z: -0.51397895813
---
header: 
  seq: 227
  stamp: 
    secs: 1559001931
    nsecs: 635663520
  frame_id: "imu_link"
vector: 
  x: 0.392097443342
  y: 0.506777882576
  z: -0.501413583755
---
header: 
  seq: 228
  stamp: 
    secs: 1559001931
    nsecs: 688663869
  frame_id: "imu_link"
vector: 
  x: 0.410039454699
  y: 0.510707139969
  z: -0.511106848717
---
header: 
  seq: 229
  stamp: 
    secs: 1559001931
    nsecs: 741660899
  frame_id: "imu_link"
vector: 
  x: 0.413337528706
  y: 0.508142888546
  z: -0.509698987007
---
header: 
  seq: 230
  stamp: 
    secs: 1559001931
    nsecs: 796696144
  frame_id: "imu_link"
vector: 
  x: 0.394140034914
  y: 0.497846573591
  z: -0.509098768234
---
header: 
  seq: 231
  stamp: 
    secs: 1559001931
    nsecs: 846694929
  frame_id: "imu_link"
vector: 
  x: 0.390362620354
  y: 0.504139780998
  z: -0.521350204945
---
header: 
  seq: 232
  stamp: 
    secs: 1559001931
    nsecs: 899670454
  frame_id: "imu_link"
vector: 
  x: 0.391116857529
  y: 0.545556724072
  z: -0.496380329132
---
header: 
  seq: 233
  stamp: 
    secs: 1559001931
    nsecs: 951693127
  frame_id: "imu_link"
vector: 
  x: 0.422391891479
  y: 0.556525111198
  z: -0.494578182697
---
header: 
  seq: 234
  stamp: 
    secs: 1559001932
    nsecs:   1667977
  frame_id: "imu_link"
vector: 
  x: 0.435821354389
  y: 0.536306202412
  z: -0.511495351791
---
header: 
  seq: 235
  stamp: 
    secs: 1559001932
    nsecs:  54658267
  frame_id: "imu_link"
vector: 
  x: 0.408531904221
  y: 0.510349869728
  z: -0.517073154449
---
header: 
  seq: 236
  stamp: 
    secs: 1559001932
    nsecs: 108669209
  frame_id: "imu_link"
vector: 
  x: 0.40592366457
  y: 0.490755140781
  z: -0.52992784977
---
header: 
  seq: 237
  stamp: 
    secs: 1559001932
    nsecs: 162656193
  frame_id: "imu_link"
vector: 
  x: 0.411788880825
  y: 0.490072607994
  z: -0.553143501282
---
header: 
  seq: 238
  stamp: 
    secs: 1559001932
    nsecs: 212718012
  frame_id: "imu_link"
vector: 
  x: 0.426475197077
  y: 0.486624002457
  z: -0.545751333237
---
header: 
  seq: 239
  stamp: 
    secs: 1559001932
    nsecs: 266657983
  frame_id: "imu_link"
vector: 
  x: 0.413641989231
  y: 0.495992541313
  z: -0.559869527817
---
header: 
  seq: 240
  stamp: 
    secs: 1559001932
    nsecs: 317701451
  frame_id: "imu_link"
vector: 
  x: 0.39436647296
  y: 0.507998526096
  z: -0.548172354698
---
header: 
  seq: 241
  stamp: 
    secs: 1559001932
    nsecs: 367677371
  frame_id: "imu_link"
vector: 
  x: 0.37558555603
  y: 0.498334079981
  z: -0.498918890953
---
header: 
  seq: 242
  stamp: 
    secs: 1559001932
    nsecs: 421708147
  frame_id: "imu_link"
vector: 
  x: 0.377726644278
  y: 0.490548670292
  z: -0.528677344322
---
header: 
  seq: 243
  stamp: 
    secs: 1559001932
    nsecs: 474667906
  frame_id: "imu_link"
vector: 
  x: 0.378862202168
  y: 0.507195591927
  z: -0.499503940344
---
header: 
  seq: 244
  stamp: 
    secs: 1559001932
    nsecs: 529658698
  frame_id: "imu_link"
vector: 
  x: 0.379250496626
  y: 0.490880042315
  z: -0.469316512346
---
header: 
  seq: 245
  stamp: 
    secs: 1559001932
    nsecs: 579664601
  frame_id: "imu_link"
vector: 
  x: 0.375382781029
  y: 0.487424552441
  z: -0.510326564312
---
header: 
  seq: 246
  stamp: 
    secs: 1559001932
    nsecs: 632644643
  frame_id: "imu_link"
vector: 
  x: 0.367495924234
  y: 0.505703747272
  z: -0.482778668404
---
header: 
  seq: 247
  stamp: 
    secs: 1559001932
    nsecs: 684675545
  frame_id: "imu_link"
vector: 
  x: 0.388236403465
  y: 0.506382882595
  z: -0.479936957359
---
header: 
  seq: 248
  stamp: 
    secs: 1559001932
    nsecs: 737695586
  frame_id: "imu_link"
vector: 
  x: 0.402876585722
  y: 0.488024115562
  z: -0.490818023682
---
header: 
  seq: 249
  stamp: 
    secs: 1559001932
    nsecs: 790693874
  frame_id: "imu_link"
vector: 
  x: 0.392424285412
  y: 0.490742951632
  z: -0.473624736071
---
header: 
  seq: 250
  stamp: 
    secs: 1559001932
    nsecs: 845761490
  frame_id: "imu_link"
vector: 
  x: 0.40234580636
  y: 0.483727872372
  z: -0.484877288342
---
header: 
  seq: 251
  stamp: 
    secs: 1559001932
    nsecs: 895659323
  frame_id: "imu_link"
vector: 
  x: 0.39292627573
  y: 0.487255632877
  z: -0.507384121418
---
header: 
  seq: 252
  stamp: 
    secs: 1559001932
    nsecs: 948664288
  frame_id: "imu_link"
vector: 
  x: 0.393013119698
  y: 0.487162292004
  z: -0.500882744789
---
header: 
  seq: 253
  stamp: 
    secs: 1559001933
    nsecs:   2703982
  frame_id: "imu_link"
vector: 
  x: 0.382089972496
  y: 0.496375322342
  z: -0.514183044434
---
header: 
  seq: 254
  stamp: 
    secs: 1559001933
    nsecs:  56669617
  frame_id: "imu_link"
vector: 
  x: 0.373933553696
  y: 0.516623735428
  z: -0.511003494263
---
header: 
  seq: 255
  stamp: 
    secs: 1559001933
    nsecs: 106677000
  frame_id: "imu_link"
vector: 
  x: 0.423924446106
  y: 0.508468151093
  z: -0.521688938141
---
header: 
  seq: 256
  stamp: 
    secs: 1559001933
    nsecs: 159707869
  frame_id: "imu_link"
vector: 
  x: 0.426148116589
  y: 0.516830205917
  z: -0.495087981224
---
header: 
  seq: 257
  stamp: 
    secs: 1559001933
    nsecs: 214759484
  frame_id: "imu_link"
vector: 
  x: 0.423590362072
  y: 0.511325597763
  z: -0.494027256966
---
header: 
  seq: 258
  stamp: 
    secs: 1559001933
    nsecs: 261706795
  frame_id: "imu_link"
vector: 
  x: 0.405378758907
  y: 0.515680015087
  z: -0.502417802811
---
header: 
  seq: 259
  stamp: 
    secs: 1559001933
    nsecs: 314658350
  frame_id: "imu_link"
vector: 
  x: 0.423221826553
  y: 0.500597655773
  z: -0.503752350807
---
header: 
  seq: 260
  stamp: 
    secs: 1559001933
    nsecs: 368676167
  frame_id: "imu_link"
vector: 
  x: 0.422439515591
  y: 0.487556040287
  z: -0.515406370163
---
header: 
  seq: 261
  stamp: 
    secs: 1559001933
    nsecs: 423673436
  frame_id: "imu_link"
vector: 
  x: 0.404947012663
  y: 0.480637073517
  z: -0.529247224331
---
header: 
  seq: 262
  stamp: 
    secs: 1559001933
    nsecs: 473679364
  frame_id: "imu_link"
vector: 
  x: 0.402673840523
  y: 0.48855394125
  z: -0.533842563629
---
header: 
  seq: 263
  stamp: 
    secs: 1559001933
    nsecs: 526671741
  frame_id: "imu_link"
vector: 
  x: 0.396120041609
  y: 0.472978651524
  z: -0.518596172333
---
header: 
  seq: 264
  stamp: 
    secs: 1559001933
    nsecs: 581701497
  frame_id: "imu_link"
vector: 
  x: 0.393565773964
  y: 0.467899084091
  z: -0.495155692101
---
header: 
  seq: 265
  stamp: 
    secs: 1559001933
    nsecs: 627709027
  frame_id: "imu_link"
vector: 
  x: 0.385614544153
  y: 0.481449246407
  z: -0.485213398933
---
header: 
  seq: 266
  stamp: 
    secs: 1559001933
    nsecs: 681675262
  frame_id: "imu_link"
vector: 
  x: 0.405877828598
  y: 0.478697985411
  z: -0.500611484051
---
header: 
  seq: 267
  stamp: 
    secs: 1559001933
    nsecs: 734711536
  frame_id: "imu_link"
vector: 
  x: 0.404596149921
  y: 0.48684233427
  z: -0.487510979176
---
header: 
  seq: 268
  stamp: 
    secs: 1559001933
    nsecs: 789702734
  frame_id: "imu_link"
vector: 
  x: 0.407631397247
  y: 0.481306105852
  z: -0.508482575417
---
header: 
  seq: 269
  stamp: 
    secs: 1559001933
    nsecs: 839674171
  frame_id: "imu_link"
vector: 
  x: 0.387996196747
  y: 0.484225511551
  z: -0.533838510513
---
header: 
  seq: 270
  stamp: 
    secs: 1559001933
    nsecs: 892698522
  frame_id: "imu_link"
vector: 
  x: 0.400568306446
  y: 0.49629420042
  z: -0.528226315975
---
header: 
  seq: 271
  stamp: 
    secs: 1559001933
    nsecs: 947669808
  frame_id: "imu_link"
vector: 
  x: 0.402536571026
  y: 0.501910805702
  z: -0.516367614269
---
header: 
  seq: 272
  stamp: 
    secs: 1559001933
    nsecs: 994697687
  frame_id: "imu_link"
vector: 
  x: 0.386149913073
  y: 0.526798665524
  z: -0.520784378052
---
header: 
  seq: 273
  stamp: 
    secs: 1559001934
    nsecs:  47705215
  frame_id: "imu_link"
vector: 
  x: 0.395227849483
  y: 0.51926857233
  z: -0.514635980129
---
header: 
  seq: 274
  stamp: 
    secs: 1559001934
    nsecs: 100713865
  frame_id: "imu_link"
vector: 
  x: 0.372684121132
  y: 0.501817703247
  z: -0.511203467846
---
header: 
  seq: 275
  stamp: 
    secs: 1559001934
    nsecs: 155680671
  frame_id: "imu_link"
vector: 
  x: 0.383894443512
  y: 0.510126829147
  z: -0.545184373856
---
header: 
  seq: 276
  stamp: 
    secs: 1559001934
    nsecs: 205679027
  frame_id: "imu_link"
vector: 
  x: 0.442151248455
  y: 0.493747353554
  z: -0.569511473179
---
header: 
  seq: 277
  stamp: 
    secs: 1559001934
    nsecs: 258716389
  frame_id: "imu_link"
vector: 
  x: 0.430509269238
  y: 0.484635710716
  z: -0.543440043926
---
header: 
  seq: 278
  stamp: 
    secs: 1559001934
    nsecs: 313681032
  frame_id: "imu_link"
vector: 
  x: 0.414439737797
  y: 0.488017857075
  z: -0.541040956974
---
header: 
  seq: 279
  stamp: 
    secs: 1559001934
    nsecs: 360680908
  frame_id: "imu_link"
vector: 
  x: 0.377488672733
  y: 0.495968163013
  z: -0.531302809715
---
header: 
  seq: 280
  stamp: 
    secs: 1559001934
    nsecs: 413681023
  frame_id: "imu_link"
vector: 
  x: 0.385810256004
  y: 0.491767257452
  z: -0.508999943733
---
header: 
  seq: 281
  stamp: 
    secs: 1559001934
    nsecs: 466709669
  frame_id: "imu_link"
vector: 
  x: 0.396162927151
  y: 0.483574420214
  z: -0.508800327778
---
header: 
  seq: 282
  stamp: 
    secs: 1559001934
    nsecs: 521721199
  frame_id: "imu_link"
vector: 
  x: 0.404036253691
  y: 0.487958282232
  z: -0.517558395863
---
header: 
  seq: 283
  stamp: 
    secs: 1559001934
    nsecs: 571719169
  frame_id: "imu_link"
vector: 
  x: 0.427507966757
  y: 0.514070928097
  z: -0.535490393639
---
header: 
  seq: 284
  stamp: 
    secs: 1559001934
    nsecs: 624705788
  frame_id: "imu_link"
vector: 
  x: 0.424266725779
  y: 0.525481045246
  z: -0.528936564922
---
header: 
  seq: 285
  stamp: 
    secs: 1559001934
    nsecs: 679691764
  frame_id: "imu_link"
vector: 
  x: 0.411991298199
  y: 0.529601871967
  z: -0.535318255424
---
header: 
  seq: 286
  stamp: 
    secs: 1559001934
    nsecs: 726709701
  frame_id: "imu_link"
vector: 
  x: 0.414266228676
  y: 0.539574921131
  z: -0.537705898285
---
header: 
  seq: 287
  stamp: 
    secs: 1559001934
    nsecs: 779687893
  frame_id: "imu_link"
vector: 
  x: 0.407744437456
  y: 0.52968198061
  z: -0.526548862457
---
header: 
  seq: 288
  stamp: 
    secs: 1559001934
    nsecs: 833679335
  frame_id: "imu_link"
vector: 
  x: 0.419251799583
  y: 0.516589701176
  z: -0.516259789467
---
header: 
  seq: 289
  stamp: 
    secs: 1559001934
    nsecs: 887686152
  frame_id: "imu_link"
vector: 
  x: 0.417264819145
  y: 0.510650634766
  z: -0.51189571619
---
header: 
  seq: 290
  stamp: 
    secs: 1559001934
    nsecs: 937729472
  frame_id: "imu_link"
vector: 
  x: 0.379222154617
  y: 0.505351006985
  z: -0.500388979912
---
header: 
  seq: 291
  stamp: 
    secs: 1559001934
    nsecs: 991715513
  frame_id: "imu_link"
vector: 
  x: 0.386367559433
  y: 0.497801244259
  z: -0.487444370985
---
header: 
  seq: 292
  stamp: 
    secs: 1559001935
    nsecs:  46703385
  frame_id: "imu_link"
vector: 
  x: 0.427420258522
  y: 0.47943675518
  z: -0.508499622345
---
header: 
  seq: 293
  stamp: 
    secs: 1559001935
    nsecs:  92688552
  frame_id: "imu_link"
vector: 
  x: 0.420481860638
  y: 0.494857490063
  z: -0.527250945568
---
header: 
  seq: 294
  stamp: 
    secs: 1559001935
    nsecs: 146678274
  frame_id: "imu_link"
vector: 
  x: 0.394768476486
  y: 0.539640665054
  z: -0.538537144661
---
header: 
  seq: 295
  stamp: 
    secs: 1559001935
    nsecs: 199685948
  frame_id: "imu_link"
vector: 
  x: 0.403557389975
  y: 0.527164518833
  z: -0.547941148281
---
header: 
  seq: 296
  stamp: 
    secs: 1559001935
    nsecs: 254713456
  frame_id: "imu_link"
vector: 
  x: 0.424309790134
  y: 0.507885396481
  z: -0.525401711464
---
header: 
  seq: 297
  stamp: 
    secs: 1559001935
    nsecs: 304720675
  frame_id: "imu_link"
vector: 
  x: 0.400236546993
  y: 0.509796380997
  z: -0.520534276962
---
header: 
  seq: 298
  stamp: 
    secs: 1559001935
    nsecs: 357699347
  frame_id: "imu_link"
vector: 
  x: 0.381687164307
  y: 0.50621086359
  z: -0.51371794939
---
header: 
  seq: 299
  stamp: 
    secs: 1559001935
    nsecs: 412694762
  frame_id: "imu_link"
vector: 
  x: 0.373779416084
  y: 0.488591730595
  z: -0.510812103748
---
header: 
  seq: 300
  stamp: 
    secs: 1559001935
    nsecs: 459685220
  frame_id: "imu_link"
vector: 
  x: 0.391960024834
  y: 0.490376770496
  z: -0.509505152702
---
header: 
  seq: 301
  stamp: 
    secs: 1559001935
    nsecs: 512662771
  frame_id: "imu_link"
vector: 
  x: 0.407035797834
  y: 0.522789239883
  z: -0.505024075508
---
header: 
  seq: 302
  stamp: 
    secs: 1559001935
    nsecs: 565696661
  frame_id: "imu_link"
vector: 
  x: 0.422310471535
  y: 0.498161315918
  z: -0.498263090849
---
header: 
  seq: 303
  stamp: 
    secs: 1559001935
    nsecs: 620679168
  frame_id: "imu_link"
vector: 
  x: 0.418568760157
  y: 0.4706133008
  z: -0.504223585129
---
header: 
  seq: 304
  stamp: 
    secs: 1559001935
    nsecs: 670683490
  frame_id: "imu_link"
vector: 
  x: 0.369987845421
  y: 0.464589715004
  z: -0.464911341667
---
header: 
  seq: 305
  stamp: 
    secs: 1559001935
    nsecs: 723682543
  frame_id: "imu_link"
vector: 
  x: 0.375563085079
  y: 0.480038404465
  z: -0.472319960594
---
header: 
  seq: 306
  stamp: 
    secs: 1559001935
    nsecs: 778692138
  frame_id: "imu_link"
vector: 
  x: 0.398639976978
  y: 0.49506855011
  z: -0.493163794279
---
header: 
  seq: 307
  stamp: 
    secs: 1559001935
    nsecs: 825710552
  frame_id: "imu_link"
vector: 
  x: 0.401671469212
  y: 0.510710120201
  z: -0.48388004303
---
header: 
  seq: 308
  stamp: 
    secs: 1559001935
    nsecs: 878721133
  frame_id: "imu_link"
vector: 
  x: 0.383844226599
  y: 0.516764819622
  z: -0.506747364998
---
header: 
  seq: 309
  stamp: 
    secs: 1559001935
    nsecs: 931691468
  frame_id: "imu_link"
vector: 
  x: 0.38176009059
  y: 0.532185673714
  z: -0.543211340904
---
header: 
  seq: 310
  stamp: 
    secs: 1559001935
    nsecs: 986692463
  frame_id: "imu_link"
vector: 
  x: 0.401420861483
  y: 0.540694773197
  z: -0.541066169739
---
header: 
  seq: 311
  stamp: 
    secs: 1559001936
    nsecs:  36695677
  frame_id: "imu_link"
vector: 
  x: 0.376214146614
  y: 0.549735784531
  z: -0.480483055115
---
header: 
  seq: 312
  stamp: 
    secs: 1559001936
    nsecs:  89712568
  frame_id: "imu_link"
vector: 
  x: 0.371349602938
  y: 0.515950918198
  z: -0.478958308697
---
header: 
  seq: 313
  stamp: 
    secs: 1559001936
    nsecs: 141711431
  frame_id: "imu_link"
vector: 
  x: 0.39348205924
  y: 0.509799301624
  z: -0.504864513874
---
header: 
  seq: 314
  stamp: 
    secs: 1559001936
    nsecs: 191691177
  frame_id: "imu_link"
vector: 
  x: 0.409778833389
  y: 0.49951300025
  z: -0.515892446041
---
header: 
  seq: 315
  stamp: 
    secs: 1559001936
    nsecs: 244726199
  frame_id: "imu_link"
vector: 
  x: 0.428467720747
  y: 0.503417432308
  z: -0.501926362514
---
header: 
  seq: 316
  stamp: 
    secs: 1559001936
    nsecs: 298705330
  frame_id: "imu_link"
vector: 
  x: 0.438314884901
  y: 0.514424860477
  z: -0.496942520142
---
header: 
  seq: 317
  stamp: 
    secs: 1559001936
    nsecs: 352679034
  frame_id: "imu_link"
vector: 
  x: 0.452894330025
  y: 0.503202021122
  z: -0.503675103188
---
header: 
  seq: 318
  stamp: 
    secs: 1559001936
    nsecs: 402723550
  frame_id: "imu_link"
vector: 
  x: 0.411766380072
  y: 0.508504092693
  z: -0.507744193077
---
header: 
  seq: 319
  stamp: 
    secs: 1559001936
    nsecs: 455692778
  frame_id: "imu_link"
vector: 
  x: 0.389940917492
  y: 0.498164772987
  z: -0.499404728413
---
header: 
  seq: 320
  stamp: 
    secs: 1559001936
    nsecs: 507704903
  frame_id: "imu_link"
vector: 
  x: 0.394419282675
  y: 0.518687129021
  z: -0.495867520571
---
header: 
  seq: 321
  stamp: 
    secs: 1559001936
    nsecs: 564690360
  frame_id: "imu_link"
vector: 
  x: 0.413546323776
  y: 0.511930763721
  z: -0.503202319145
---
header: 
  seq: 322
  stamp: 
    secs: 1559001936
    nsecs: 610703837
  frame_id: "imu_link"
vector: 
  x: 0.387056469917
  y: 0.490483283997
  z: -0.503755867481
---
header: 
  seq: 323
  stamp: 
    secs: 1559001936
    nsecs: 664684019
  frame_id: "imu_link"
vector: 
  x: 0.382839560509
  y: 0.491077065468
  z: -0.488879710436
---
header: 
  seq: 324
  stamp: 
    secs: 1559001936
    nsecs: 718713445
  frame_id: "imu_link"
vector: 
  x: 0.388006329536
  y: 0.507047891617
  z: -0.500223338604
---
header: 
  seq: 325
  stamp: 
    secs: 1559001936
    nsecs: 768675719
  frame_id: "imu_link"
vector: 
  x: 0.425950437784
  y: 0.533446192741
  z: -0.510884225368
---
header: 
  seq: 326
  stamp: 
    secs: 1559001936
    nsecs: 822698365
  frame_id: "imu_link"
vector: 
  x: 0.423602759838
  y: 0.533740878105
  z: -0.518446743488
---
header: 
  seq: 327
  stamp: 
    secs: 1559001936
    nsecs: 873722753
  frame_id: "imu_link"
vector: 
  x: 0.415717065334
  y: 0.517354547977
  z: -0.521677732468
---
header: 
  seq: 328
  stamp: 
    secs: 1559001936
    nsecs: 923701531
  frame_id: "imu_link"
vector: 
  x: 0.41585457325
  y: 0.502172529697
  z: -0.531890869141
---
header: 
  seq: 329
  stamp: 
    secs: 1559001936
    nsecs: 977698520
  frame_id: "imu_link"
vector: 
  x: 0.397463977337
  y: 0.504349470139
  z: -0.516561448574
---
header: 
  seq: 330
  stamp: 
    secs: 1559001937
    nsecs:  30705949
  frame_id: "imu_link"
vector: 
  x: 0.387373030186
  y: 0.480138808489
  z: -0.512024283409
---
header: 
  seq: 331
  stamp: 
    secs: 1559001937
    nsecs:  85714701
  frame_id: "imu_link"
vector: 
  x: 0.389941781759
  y: 0.44603073597
  z: -0.510087966919
---
header: 
  seq: 332
  stamp: 
    secs: 1559001937
    nsecs: 135700622
  frame_id: "imu_link"
vector: 
  x: 0.392988026142
  y: 0.48379945755
  z: -0.512692928314
---
header: 
  seq: 333
  stamp: 
    secs: 1559001937
    nsecs: 188703356
  frame_id: "imu_link"
vector: 
  x: 0.402586132288
  y: 0.496858417988
  z: -0.501532375813
---
header: 
  seq: 334
  stamp: 
    secs: 1559001937
    nsecs: 240728155
  frame_id: "imu_link"
vector: 
  x: 0.399804055691
  y: 0.493988126516
  z: -0.496764242649
---
header: 
  seq: 335
  stamp: 
    secs: 1559001937
    nsecs: 293721698
  frame_id: "imu_link"
vector: 
  x: 0.406603813171
  y: 0.475418686867
  z: -0.522893488407
---
header: 
  seq: 336
  stamp: 
    secs: 1559001937
    nsecs: 346701099
  frame_id: "imu_link"
vector: 
  x: 0.40123796463
  y: 0.476887047291
  z: -0.50492721796
---
header: 
  seq: 337
  stamp: 
    secs: 1559001937
    nsecs: 401718945
  frame_id: "imu_link"
vector: 
  x: 0.39235791564
  y: 0.485103309155
  z: -0.498214542866
---
header: 
  seq: 338
  stamp: 
    secs: 1559001937
    nsecs: 451714323
  frame_id: "imu_link"
vector: 
  x: 0.409300267696
  y: 0.480946183205
  z: -0.513061642647
---
header: 
  seq: 339
  stamp: 
    secs: 1559001937
    nsecs: 504757177
  frame_id: "imu_link"
vector: 
  x: 0.421990483999
  y: 0.501567006111
  z: -0.520763158798
---
header: 
  seq: 340
  stamp: 
    secs: 1559001937
    nsecs: 558729853
  frame_id: "imu_link"
vector: 
  x: 0.411564528942
  y: 0.49581515789
  z: -0.513815522194
---
header: 
  seq: 341
  stamp: 
    secs: 1559001937
    nsecs: 612734641
  frame_id: "imu_link"
vector: 
  x: 0.396769791842
  y: 0.493163615465
  z: -0.502010941505
---
header: 
  seq: 342
  stamp: 
    secs: 1559001937
    nsecs: 662680488
  frame_id: "imu_link"
vector: 
  x: 0.399271219969
  y: 0.493734627962
  z: -0.5389534235
---
header: 
  seq: 343
  stamp: 
    secs: 1559001937
    nsecs: 715730701
  frame_id: "imu_link"
vector: 
  x: 0.431240797043
  y: 0.492433011532
  z: -0.557949483395
---
header: 
  seq: 344
  stamp: 
    secs: 1559001937
    nsecs: 770708514
  frame_id: "imu_link"
vector: 
  x: 0.415490984917
  y: 0.49192070961
  z: -0.529637753963
---
header: 
  seq: 345
  stamp: 
    secs: 1559001937
    nsecs: 818469910
  frame_id: "imu_link"
vector: 
  x: 0.412279456854
  y: 0.475443601608
  z: -0.526445031166
---
header: 
  seq: 346
  stamp: 
    secs: 1559001937
    nsecs: 870717285
  frame_id: "imu_link"
vector: 
  x: 0.406876206398
  y: 0.504325330257
  z: -0.523174285889
---
header: 
  seq: 347
  stamp: 
    secs: 1559001937
    nsecs: 924745720
  frame_id: "imu_link"
vector: 
  x: 0.405022531748
  y: 0.513850867748
  z: -0.497129797935
---
header: 
  seq: 348
  stamp: 
    secs: 1559001937
    nsecs: 979736307
  frame_id: "imu_link"
vector: 
  x: 0.393884241581
  y: 0.49356597662
  z: -0.47721222043
---
header: 
  seq: 349
  stamp: 
    secs: 1559001938
    nsecs:  29679506
  frame_id: "imu_link"
vector: 
  x: 0.372590601444
  y: 0.479111284018
  z: -0.495380043983
---
header: 
  seq: 350
  stamp: 
    secs: 1559001938
    nsecs:  82701851
  frame_id: "imu_link"
vector: 
  x: 0.380586802959
  y: 0.49494305253
  z: -0.494081646204
---
header: 
  seq: 351
  stamp: 
    secs: 1559001938
    nsecs: 137716310
  frame_id: "imu_link"
vector: 
  x: 0.383563756943
  y: 0.516927778721
  z: -0.493598252535
---
header: 
  seq: 352
  stamp: 
    secs: 1559001938
    nsecs: 190708892
  frame_id: "imu_link"
vector: 
  x: 0.399584472179
  y: 0.496512502432
  z: -0.497079670429
---
header: 
  seq: 353
  stamp: 
    secs: 1559001938
    nsecs: 243722751
  frame_id: "imu_link"
vector: 
  x: 0.391662597656
  y: 0.501506209373
  z: -0.49487632513
---
header: 
  seq: 354
  stamp: 
    secs: 1559001938
    nsecs: 298726790
  frame_id: "imu_link"
vector: 
  x: 0.405599951744
  y: 0.503461539745
  z: -0.520465195179
---
header: 
  seq: 355
  stamp: 
    secs: 1559001938
    nsecs: 345698907
  frame_id: "imu_link"
vector: 
  x: 0.397797495127
  y: 0.511577367783
  z: -0.531385779381
---
header: 
  seq: 356
  stamp: 
