
header: 
  seq: 0
  stamp: 
    secs: 1559008967
    nsecs: 962419305
  frame_id: "imu_link"
vector: 
  x: 0.407631278038
  y: 0.484019726515
  z: -0.543374061584
---
header: 
  seq: 1
  stamp: 
    secs: 1559008968
    nsecs:  12427461
  frame_id: "imu_link"
vector: 
  x: 0.42665886879
  y: 0.455157727003
  z: -0.559173583984
---
header: 
  seq: 2
  stamp: 
    secs: 1559008968
    nsecs:  72630535
  frame_id: "imu_link"
vector: 
  x: 0.447742670774
  y: 0.463210701942
  z: -0.575880527496
---
header: 
  seq: 3
  stamp: 
    secs: 1559008968
    nsecs: 118372634
  frame_id: "imu_link"
vector: 
  x: 0.453368037939
  y: 0.456206142902
  z: -0.56430375576
---
header: 
  seq: 4
  stamp: 
    secs: 1559008968
    nsecs: 172368708
  frame_id: "imu_link"
vector: 
  x: 0.424259305
  y: 0.442362248898
  z: -0.567854881287
---
header: 
  seq: 5
  stamp: 
    secs: 1559008968
    nsecs: 220429683
  frame_id: "imu_link"
vector: 
  x: 0.40178334713
  y: 0.453778117895
  z: -0.542168140411
---
header: 
  seq: 6
  stamp: 
    secs: 1559008968
    nsecs: 275426665
  frame_id: "imu_link"
vector: 
  x: 0.465236008167
  y: 0.473789393902
  z: -0.579660713673
---
header: 
  seq: 7
  stamp: 
    secs: 1559008968
    nsecs: 326431154
  frame_id: "imu_link"
vector: 
  x: 0.471638321877
  y: 0.476015985012
  z: -0.592257797718
---
header: 
  seq: 8
  stamp: 
    secs: 1559008968
    nsecs: 376437821
  frame_id: "imu_link"
vector: 
  x: 0.449656844139
  y: 0.46771672368
  z: -0.588423490524
---
header: 
  seq: 9
  stamp: 
    secs: 1559008968
    nsecs: 431430021
  frame_id: "imu_link"
vector: 
  x: 0.408793777227
  y: 0.476603090763
  z: -0.539406836033
---
header: 
  seq: 10
  stamp: 
    secs: 1559008968
    nsecs: 483401299
  frame_id: "imu_link"
vector: 
  x: 0.416556328535
  y: 0.493020296097
  z: -0.548491716385
---
header: 
  seq: 11
  stamp: 
    secs: 1559008968
    nsecs: 537433643
  frame_id: "imu_link"
vector: 
  x: 0.416318506002
  y: 0.483380049467
  z: -0.56052595377
---
header: 
  seq: 12
  stamp: 
    secs: 1559008968
    nsecs: 588442523
  frame_id: "imu_link"
vector: 
  x: 0.412644475698
  y: 0.478974163532
  z: -0.557222127914
---
header: 
  seq: 13
  stamp: 
    secs: 1559008968
    nsecs: 640404982
  frame_id: "imu_link"
vector: 
  x: 0.430086493492
  y: 0.485272943974
  z: -0.555320382118
---
header: 
  seq: 14
  stamp: 
    secs: 1559008968
    nsecs: 691433852
  frame_id: "imu_link"
vector: 
  x: 0.411214709282
  y: 0.488364487886
  z: -0.536986470222
---
header: 
  seq: 15
  stamp: 
    secs: 1559008968
    nsecs: 745404566
  frame_id: "imu_link"
vector: 
  x: 0.392830193043
  y: 0.456532597542
  z: -0.520365595818
---
header: 
  seq: 16
  stamp: 
    secs: 1559008968
    nsecs: 797430310
  frame_id: "imu_link"
vector: 
  x: 0.42667683959
  y: 0.489027887583
  z: -0.549132168293
---
header: 
  seq: 17
  stamp: 
    secs: 1559008968
    nsecs: 848415962
  frame_id: "imu_link"
vector: 
  x: 0.416926503181
  y: 0.489535421133
  z: -0.55251210928
---
header: 
  seq: 18
  stamp: 
    secs: 1559008968
    nsecs: 902405087
  frame_id: "imu_link"
vector: 
  x: 0.405774503946
  y: 0.49835306406
  z: -0.535825610161
---
header: 
  seq: 19
  stamp: 
    secs: 1559008968
    nsecs: 953444330
  frame_id: "imu_link"
vector: 
  x: 0.414646685123
  y: 0.487051218748
  z: -0.529338955879
---
header: 
  seq: 20
  stamp: 
    secs: 1559008969
    nsecs:   2399872
  frame_id: "imu_link"
vector: 
  x: 0.40300321579
  y: 0.434002399445
  z: -0.555830895901
---
header: 
  seq: 21
  stamp: 
    secs: 1559008969
    nsecs:  53417573
  frame_id: "imu_link"
vector: 
  x: 0.420165121555
  y: 0.443181633949
  z: -0.538146734238
---
header: 
  seq: 22
  stamp: 
    secs: 1559008969
    nsecs: 107412264
  frame_id: "imu_link"
vector: 
  x: 0.400090843439
  y: 0.454116851091
  z: -0.529887080193
---
header: 
  seq: 23
  stamp: 
    secs: 1559008969
    nsecs: 158411155
  frame_id: "imu_link"
vector: 
  x: 0.41305744648
  y: 0.450042724609
  z: -0.56264013052
---
header: 
  seq: 24
  stamp: 
    secs: 1559008969
    nsecs: 207404603
  frame_id: "imu_link"
vector: 
  x: 0.410339057446
  y: 0.440777242184
  z: -0.547732114792
---
header: 
  seq: 25
  stamp: 
    secs: 1559008969
    nsecs: 258412315
  frame_id: "imu_link"
vector: 
  x: 0.427778244019
  y: 0.461961269379
  z: -0.560975193977
---
header: 
  seq: 26
  stamp: 
    secs: 1559008969
    nsecs: 312413956
  frame_id: "imu_link"
vector: 
  x: 0.434888601303
  y: 0.496173977852
  z: -0.548366010189
---
header: 
  seq: 27
  stamp: 
    secs: 1559008969
    nsecs: 360400934
  frame_id: "imu_link"
vector: 
  x: 0.437652647495
  y: 0.494001865387
  z: -0.543464362621
---
header: 
  seq: 28
  stamp: 
    secs: 1559008969
    nsecs: 415417577
  frame_id: "imu_link"
vector: 
  x: 0.453798830509
  y: 0.479827314615
  z: -0.583804130554
---
header: 
  seq: 29
  stamp: 
    secs: 1559008969
    nsecs: 467424009
  frame_id: "imu_link"
vector: 
  x: 0.446248114109
  y: 0.477455377579
  z: -0.593452811241
---
header: 
  seq: 30
  stamp: 
    secs: 1559008969
    nsecs: 517387296
  frame_id: "imu_link"
vector: 
  x: 0.428676486015
  y: 0.49201130867
  z: -0.597959280014
---
header: 
  seq: 31
  stamp: 
    secs: 1559008969
    nsecs: 572422048
  frame_id: "imu_link"
vector: 
  x: 0.440151870251
  y: 0.486618697643
  z: -0.569728970528
---
header: 
  seq: 32
  stamp: 
    secs: 1559008969
    nsecs: 623419255
  frame_id: "imu_link"
vector: 
  x: 0.430060565472
  y: 0.47405397892
  z: -0.544540286064
---
header: 
  seq: 33
  stamp: 
    secs: 1559008969
    nsecs: 677419250
  frame_id: "imu_link"
vector: 
  x: 0.414538264275
  y: 0.442923784256
  z: -0.523313879967
---
header: 
  seq: 34
  stamp: 
    secs: 1559008969
    nsecs: 725418145
  frame_id: "imu_link"
vector: 
  x: 0.415469169617
  y: 0.429153352976
  z: -0.550880968571
---
header: 
  seq: 35
  stamp: 
    secs: 1559008969
    nsecs: 780429593
  frame_id: "imu_link"
vector: 
  x: 0.434894561768
  y: 0.437170743942
  z: -0.561179876328
---
header: 
  seq: 36
  stamp: 
    secs: 1559008969
    nsecs: 832454390
  frame_id: "imu_link"
vector: 
  x: 0.420103251934
  y: 0.435958325863
  z: -0.539228320122
---
header: 
  seq: 37
  stamp: 
    secs: 1559008969
    nsecs: 882389440
  frame_id: "imu_link"
vector: 
  x: 0.431023240089
  y: 0.451530992985
  z: -0.539367198944
---
header: 
  seq: 38
  stamp: 
    secs: 1559008969
    nsecs: 937389455
  frame_id: "imu_link"
vector: 
  x: 0.445561617613
  y: 0.454822659492
  z: -0.525114953518
---
header: 
  seq: 39
  stamp: 
    secs: 1559008969
    nsecs: 988452093
  frame_id: "imu_link"
vector: 
  x: 0.431558072567
  y: 0.460889011621
  z: -0.506416201591
---
header: 
  seq: 40
  stamp: 
    secs: 1559008970
    nsecs:  42408632
  frame_id: "imu_link"
vector: 
  x: 0.412828326225
  y: 0.461783528328
  z: -0.516242623329
---
header: 
  seq: 41
  stamp: 
    secs: 1559008970
    nsecs:  94441889
  frame_id: "imu_link"
vector: 
  x: 0.414663493633
  y: 0.462405234575
  z: -0.52987408638
---
header: 
  seq: 42
  stamp: 
    secs: 1559008970
    nsecs: 145421546
  frame_id: "imu_link"
vector: 
  x: 0.446832627058
  y: 0.480157613754
  z: -0.533645570278
---
header: 
  seq: 43
  stamp: 
    secs: 1559008970
    nsecs: 197455515
  frame_id: "imu_link"
vector: 
  x: 0.432182341814
  y: 0.487039148808
  z: -0.528026342392
---
header: 
  seq: 44
  stamp: 
    secs: 1559008970
    nsecs: 247445510
  frame_id: "imu_link"
vector: 
  x: 0.419103592634
  y: 0.456583321095
  z: -0.525703430176
---
header: 
  seq: 45
  stamp: 
    secs: 1559008970
    nsecs: 302394817
  frame_id: "imu_link"
vector: 
  x: 0.427001297474
  y: 0.466739416122
  z: -0.549544990063
---
header: 
  seq: 46
  stamp: 
    secs: 1559008970
    nsecs: 354457682
  frame_id: "imu_link"
vector: 
  x: 0.417060613632
  y: 0.472095131874
  z: -0.552682757378
---
header: 
  seq: 47
  stamp: 
    secs: 1559008970
    nsecs: 407432923
  frame_id: "imu_link"
vector: 
  x: 0.430458068848
  y: 0.467457234859
  z: -0.544937968254
---
header: 
  seq: 48
  stamp: 
    secs: 1559008970
    nsecs: 459395153
  frame_id: "imu_link"
vector: 
  x: 0.439014405012
  y: 0.465474963188
  z: -0.550429940224
---
header: 
  seq: 49
  stamp: 
    secs: 1559008970
    nsecs: 510399346
  frame_id: "imu_link"
vector: 
  x: 0.425430357456
  y: 0.498404681683
  z: -0.545098185539
---
header: 
  seq: 50
  stamp: 
    secs: 1559008970
    nsecs: 562425925
  frame_id: "imu_link"
vector: 
  x: 0.42680811882
  y: 0.47915917635
  z: -0.541999161243
---
header: 
  seq: 51
  stamp: 
    secs: 1559008970
    nsecs: 615456941
  frame_id: "imu_link"
vector: 
  x: 0.41332128644
  y: 0.47819596529
  z: -0.522437810898
---
header: 
  seq: 52
  stamp: 
    secs: 1559008970
    nsecs: 667459468
  frame_id: "imu_link"
vector: 
  x: 0.428568929434
  y: 0.427737176418
  z: -0.544823944569
---
header: 
  seq: 53
  stamp: 
    secs: 1559008970
    nsecs: 719456016
  frame_id: "imu_link"
vector: 
  x: 0.424699366093
  y: 0.448309242725
  z: -0.550780057907
---
header: 
  seq: 54
  stamp: 
    secs: 1559008970
    nsecs: 770426656
  frame_id: "imu_link"
vector: 
  x: 0.430252820253
  y: 0.464489579201
  z: -0.571277022362
---
header: 
  seq: 55
  stamp: 
    secs: 1559008970
    nsecs: 824422405
  frame_id: "imu_link"
vector: 
  x: 0.428987890482
  y: 0.479595541954
  z: -0.570708394051
---
header: 
  seq: 56
  stamp: 
    secs: 1559008970
    nsecs: 875427684
  frame_id: "imu_link"
vector: 
  x: 0.414811491966
  y: 0.48395934701
  z: -0.536226570606
---
header: 
  seq: 57
  stamp: 
    secs: 1559008970
    nsecs: 927435802
  frame_id: "imu_link"
vector: 
  x: 0.419079035521
  y: 0.454688251019
  z: -0.547267794609
---
header: 
  seq: 58
  stamp: 
    secs: 1559008970
    nsecs: 980433294
  frame_id: "imu_link"
vector: 
  x: 0.420797944069
  y: 0.435070157051
  z: -0.568479776382
---
header: 
  seq: 59
  stamp: 
    secs: 1559008971
    nsecs:  29439604
  frame_id: "imu_link"
vector: 
  x: 0.41093558073
  y: 0.434514641762
  z: -0.551468253136
---
header: 
  seq: 60
  stamp: 
    secs: 1559008971
    nsecs:  84454582
  frame_id: "imu_link"
vector: 
  x: 0.428287357092
  y: 0.453637838364
  z: -0.567420721054
---
header: 
  seq: 61
  stamp: 
    secs: 1559008971
    nsecs: 136432702
  frame_id: "imu_link"
vector: 
  x: 0.431637227535
  y: 0.467468351126
  z: -0.560072302818
---
header: 
  seq: 62
  stamp: 
    secs: 1559008971
    nsecs: 185453021
  frame_id: "imu_link"
vector: 
  x: 0.439945697784
  y: 0.482582807541
  z: -0.5389508605
---
header: 
  seq: 63
  stamp: 
    secs: 1559008971
    nsecs: 237459187
  frame_id: "imu_link"
vector: 
  x: 0.430130183697
  y: 0.482110500336
  z: -0.539383232594
---
header: 
  seq: 64
  stamp: 
    secs: 1559008971
    nsecs: 289439765
  frame_id: "imu_link"
vector: 
  x: 0.418255269527
  y: 0.479225337505
  z: -0.530398249626
---
header: 
  seq: 65
  stamp: 
    secs: 1559008971
    nsecs: 342461702
  frame_id: "imu_link"
vector: 
  x: 0.424028247595
  y: 0.461007624865
  z: -0.553809523582
---
header: 
  seq: 66
  stamp: 
    secs: 1559008971
    nsecs: 394464241
  frame_id: "imu_link"
vector: 
  x: 0.419628381729
  y: 0.45348572731
  z: -0.562994539738
---
header: 
  seq: 67
  stamp: 
    secs: 1559008971
    nsecs: 446426886
  frame_id: "imu_link"
vector: 
  x: 0.422833263874
  y: 0.480896830559
  z: -0.556278169155
---
header: 
  seq: 68
  stamp: 
    secs: 1559008971
    nsecs: 497470666
  frame_id: "imu_link"
vector: 
  x: 0.438850998878
  y: 0.464315474033
  z: -0.547011971474
---
header: 
  seq: 69
  stamp: 
    secs: 1559008971
    nsecs: 551434869
  frame_id: "imu_link"
vector: 
  x: 0.443026602268
  y: 0.464050501585
  z: -0.551635622978
---
header: 
  seq: 70
  stamp: 
    secs: 1559008971
    nsecs: 599428392
  frame_id: "imu_link"
vector: 
  x: 0.423685312271
  y: 0.503889560699
  z: -0.553547024727
---
header: 
  seq: 71
  stamp: 
    secs: 1559008971
    nsecs: 654660438
  frame_id: "imu_link"
vector: 
  x: 0.402277559042
  y: 0.466497957706
  z: -0.503724694252
---
header: 
  seq: 72
  stamp: 
    secs: 1559008971
    nsecs: 706415109
  frame_id: "imu_link"
vector: 
  x: 0.403180629015
  y: 0.448282510042
  z: -0.506615579128
---
header: 
  seq: 73
  stamp: 
    secs: 1559008971
    nsecs: 759440936
  frame_id: "imu_link"
vector: 
  x: 0.417796552181
  y: 0.448216229677
  z: -0.543978095055
---
header: 
  seq: 74
  stamp: 
    secs: 1559008971
    nsecs: 811571665
  frame_id: "imu_link"
vector: 
  x: 0.438643038273
  y: 0.45465734601
  z: -0.547399222851
---
header: 
  seq: 75
  stamp: 
    secs: 1559008971
    nsecs: 862479262
  frame_id: "imu_link"
vector: 
  x: 0.421873182058
  y: 0.475327014923
  z: -0.551795661449
---
header: 
  seq: 76
  stamp: 
    secs: 1559008971
    nsecs: 919190231
  frame_id: "imu_link"
vector: 
  x: 0.418702423573
  y: 0.483182728291
  z: -0.562007367611
---
header: 
  seq: 77
  stamp: 
    secs: 1559008971
    nsecs: 964444844
  frame_id: "imu_link"
vector: 
  x: 0.42066860199
  y: 0.479254961014
  z: -0.557799994946
---
header: 
  seq: 78
  stamp: 
    secs: 1559008972
    nsecs:  19467161
  frame_id: "imu_link"
vector: 
  x: 0.425511837006
  y: 0.469217300415
  z: -0.55008649826
---
header: 
  seq: 79
  stamp: 
    secs: 1559008972
    nsecs:  71506104
  frame_id: "imu_link"
vector: 
  x: 0.423589289188
  y: 0.473257809877
  z: -0.552738428116
---
header: 
  seq: 80
  stamp: 
    secs: 1559008972
    nsecs: 121426662
  frame_id: "imu_link"
vector: 
  x: 0.447399526834
  y: 0.483628123999
  z: -0.581128418446
---
header: 
  seq: 81
  stamp: 
    secs: 1559008972
    nsecs: 176427916
  frame_id: "imu_link"
vector: 
  x: 0.455880045891
  y: 0.463149487972
  z: -0.576298475266
---
header: 
  seq: 82
  stamp: 
    secs: 1559008972
    nsecs: 227434553
  frame_id: "imu_link"
vector: 
  x: 0.42543810606
  y: 0.454348802567
  z: -0.554700493813
---
header: 
  seq: 83
  stamp: 
    secs: 1559008972
    nsecs: 281940320
  frame_id: "imu_link"
vector: 
  x: 0.426898747683
  y: 0.476179420948
  z: -0.545772075653
---
header: 
  seq: 84
  stamp: 
    secs: 1559008972
    nsecs: 329446657
  frame_id: "imu_link"
vector: 
  x: 0.424092531204
  y: 0.477117776871
  z: -0.533687949181
---
header: 
  seq: 85
  stamp: 
    secs: 1559008972
    nsecs: 384430890
  frame_id: "imu_link"
vector: 
  x: 0.4074216187
  y: 0.484578669071
  z: -0.53849029541
---
header: 
  seq: 86
  stamp: 
    secs: 1559008972
    nsecs: 436459606
  frame_id: "imu_link"
vector: 
  x: 0.425430119038
  y: 0.480337262154
  z: -0.55604159832
---
header: 
  seq: 87
  stamp: 
    secs: 1559008972
    nsecs: 486448948
  frame_id: "imu_link"
vector: 
  x: 0.43767619133
  y: 0.48557472229
  z: -0.591535806656
---
header: 
  seq: 88
  stamp: 
    secs: 1559008972
    nsecs: 541636046
  frame_id: "imu_link"
vector: 
  x: 0.418796122074
  y: 0.490162581205
  z: -0.54307192564
---
header: 
  seq: 89
  stamp: 
    secs: 1559008972
    nsecs: 593533044
  frame_id: "imu_link"
vector: 
  x: 0.433736622334
  y: 0.484801590443
  z: -0.515328466892
---
header: 
  seq: 90
  stamp: 
    secs: 1559008972
    nsecs: 651233120
  frame_id: "imu_link"
vector: 
  x: 0.45139670372
  y: 0.465272665024
  z: -0.529496192932
---
header: 
  seq: 91
  stamp: 
    secs: 1559008972
    nsecs: 694468936
  frame_id: "imu_link"
vector: 
  x: 0.458796024323
  y: 0.456423670053
  z: -0.553436636925
---
header: 
  seq: 92
  stamp: 
    secs: 1559008972
    nsecs: 749558737
  frame_id: "imu_link"
vector: 
  x: 0.443361997604
  y: 0.459538429976
  z: -0.542037606239
---
header: 
  seq: 93
  stamp: 
    secs: 1559008972
    nsecs: 801456547
  frame_id: "imu_link"
vector: 
  x: 0.430747628212
  y: 0.478515446186
  z: -0.531495571136
---
header: 
  seq: 94
  stamp: 
    secs: 1559008972
    nsecs: 851745299
  frame_id: "imu_link"
vector: 
  x: 0.409381240606
  y: 0.476863980293
  z: -0.535900115967
---
header: 
  seq: 95
  stamp: 
    secs: 1559008972
    nsecs: 906511599
  frame_id: "imu_link"
vector: 
  x: 0.398443907499
  y: 0.481162130833
  z: -0.529826521873
---
header: 
  seq: 96
  stamp: 
    secs: 1559008972
    nsecs: 959333917
  frame_id: "imu_link"
vector: 
  x: 0.419201463461
  y: 0.479622542858
  z: -0.52644765377
---
header: 
  seq: 97
  stamp: 
    secs: 1559008973
    nsecs:  11457538
  frame_id: "imu_link"
vector: 
  x: 0.437295556068
  y: 0.495563447475
  z: -0.516540706158
---
header: 
  seq: 98
  stamp: 
    secs: 1559008973
    nsecs:  63454407
  frame_id: "imu_link"
vector: 
  x: 0.421118527651
  y: 0.51024210453
  z: -0.502871692181
---
header: 
  seq: 99
  stamp: 
    secs: 1559008973
    nsecs: 113094720
  frame_id: "imu_link"
vector: 
  x: 0.413857728243
  y: 0.474410742521
  z: -0.549699962139
---
header: 
  seq: 100
  stamp: 
    secs: 1559008973
    nsecs: 163437596
  frame_id: "imu_link"
vector: 
  x: 0.411627233028
  y: 0.458813369274
  z: -0.552746832371
---
header: 
  seq: 101
  stamp: 
    secs: 1559008973
    nsecs: 216535707
  frame_id: "imu_link"
vector: 
  x: 0.439020216465
  y: 0.437314510345
  z: -0.554016768932
---
header: 
  seq: 102
  stamp: 
    secs: 1559008973
    nsecs: 264619671
  frame_id: "imu_link"
vector: 
  x: 0.459316194057
  y: 0.437780618668
  z: -0.545998036861
---
header: 
  seq: 103
  stamp: 
    secs: 1559008973
    nsecs: 319907029
  frame_id: "imu_link"
vector: 
  x: 0.402200192213
  y: 0.458152472973
  z: -0.522510290146
---
header: 
  seq: 104
  stamp: 
    secs: 1559008973
    nsecs: 371481269
  frame_id: "imu_link"
vector: 
  x: 0.406746685505
  y: 0.469413936138
  z: -0.52343070507
---
header: 
  seq: 105
  stamp: 
    secs: 1559008973
    nsecs: 422182249
  frame_id: "imu_link"
vector: 
  x: 0.428475737572
  y: 0.47335845232
  z: -0.557791829109
---
header: 
  seq: 106
  stamp: 
    secs: 1559008973
    nsecs: 476440334
  frame_id: "imu_link"
vector: 
  x: 0.415489464998
  y: 0.472235679626
  z: -0.553822875023
---
header: 
  seq: 107
  stamp: 
    secs: 1559008973
    nsecs: 534288444
  frame_id: "imu_link"
vector: 
  x: 0.422414392233
  y: 0.467381209135
  z: -0.545837879181
---
header: 
  seq: 108
  stamp: 
    secs: 1559008973
    nsecs: 581535100
  frame_id: "imu_link"
vector: 
  x: 0.43979254365
  y: 0.456900656223
  z: -0.560192108154
---
header: 
  seq: 109
  stamp: 
    secs: 1559008973
    nsecs: 630445326
  frame_id: "imu_link"
vector: 
  x: 0.443415820599
  y: 0.469211816788
  z: -0.557084143162
---
header: 
  seq: 110
  stamp: 
    secs: 1559008973
    nsecs: 685527735
  frame_id: "imu_link"
vector: 
  x: 0.423913478851
  y: 0.49737277627
  z: -0.567856609821
---
header: 
  seq: 111
  stamp: 
    secs: 1559008973
    nsecs: 733486873
  frame_id: "imu_link"
vector: 
  x: 0.426268488169
  y: 0.485738545656
  z: -0.551210701466
---
header: 
  seq: 112
  stamp: 
    secs: 1559008973
    nsecs: 786502925
  frame_id: "imu_link"
vector: 
  x: 0.40949857235
  y: 0.463696420193
  z: -0.535155653954
---
header: 
  seq: 113
  stamp: 
    secs: 1559008973
    nsecs: 835499928
  frame_id: "imu_link"
vector: 
  x: 0.403109073639
  y: 0.470769941807
  z: -0.52903854847
---
header: 
  seq: 114
  stamp: 
    secs: 1559008973
    nsecs: 886469456
  frame_id: "imu_link"
vector: 
  x: 0.419451415539
  y: 0.473776817322
  z: -0.559517323971
---
header: 
  seq: 115
  stamp: 
    secs: 1559008973
    nsecs: 938468888
  frame_id: "imu_link"
vector: 
  x: 0.417505860329
  y: 0.459882378578
  z: -0.548362076283
---
header: 
  seq: 116
  stamp: 
    secs: 1559008973
    nsecs: 992430941
  frame_id: "imu_link"
vector: 
  x: 0.406013995409
  y: 0.453188866377
  z: -0.53411000967
---
header: 
  seq: 117
  stamp: 
    secs: 1559008974
    nsecs:  43800807
  frame_id: "imu_link"
vector: 
  x: 0.417506426573
  y: 0.456479281187
  z: -0.555095732212
---
header: 
  seq: 118
  stamp: 
    secs: 1559008974
    nsecs:  95495563
  frame_id: "imu_link"
vector: 
  x: 0.413036733866
  y: 0.427497237921
  z: -0.536893606186
---
header: 
  seq: 119
  stamp: 
    secs: 1559008974
    nsecs: 146483538
  frame_id: "imu_link"
vector: 
  x: 0.41474968195
  y: 0.448231697083
  z: -0.538410961628
---
header: 
  seq: 120
  stamp: 
    secs: 1559008974
    nsecs: 200590352
  frame_id: "imu_link"
vector: 
  x: 0.440085887909
  y: 0.457796275616
  z: -0.548080027103
---
header: 
  seq: 121
  stamp: 
    secs: 1559008974
    nsecs: 251445974
  frame_id: "imu_link"
vector: 
  x: 0.415344148874
  y: 0.455264776945
  z: -0.539108991623
---
header: 
  seq: 122
  stamp: 
    secs: 1559008974
    nsecs: 303513593
  frame_id: "imu_link"
vector: 
  x: 0.41926419735
  y: 0.459519803524
  z: -0.548368632793
---
header: 
  seq: 123
  stamp: 
    secs: 1559008974
    nsecs: 357462535
  frame_id: "imu_link"
vector: 
  x: 0.450934231281
  y: 0.469577312469
  z: -0.577745258808
---
header: 
  seq: 124
  stamp: 
    secs: 1559008974
    nsecs: 405469894
  frame_id: "imu_link"
vector: 
  x: 0.448021709919
  y: 0.466225683689
  z: -0.564340353012
---
header: 
  seq: 125
  stamp: 
    secs: 1559008974
    nsecs: 460515026
  frame_id: "imu_link"
vector: 
  x: 0.418844282627
  y: 0.440073609352
  z: -0.561093330383
---
header: 
  seq: 126
  stamp: 
    secs: 1559008974
    nsecs: 519901463
  frame_id: "imu_link"
vector: 
  x: 0.434987545013
  y: 0.478246331215
  z: -0.57566010952
---
header: 
  seq: 127
  stamp: 
    secs: 1559008974
    nsecs: 562443242
  frame_id: "imu_link"
vector: 
  x: 0.448550820351
  y: 0.485880970955
  z: -0.581562161446
---
header: 
  seq: 128
  stamp: 
    secs: 1559008974
    nsecs: 613459770
  frame_id: "imu_link"
vector: 
  x: 0.425590336323
  y: 0.48134291172
  z: -0.572393655777
---
header: 
  seq: 129
  stamp: 
    secs: 1559008974
    nsecs: 666854855
  frame_id: "imu_link"
vector: 
  x: 0.451688587666
  y: 0.487555682659
  z: -0.580211818218
---
header: 
  seq: 130
  stamp: 
    secs: 1559008974
    nsecs: 719907083
  frame_id: "imu_link"
vector: 
  x: 0.46237847209
  y: 0.482673496008
  z: -0.56536000967
---
header: 
  seq: 131
  stamp: 
    secs: 1559008974
    nsecs: 770494209
  frame_id: "imu_link"
vector: 
  x: 0.459907710552
  y: 0.472576111555
  z: -0.559533238411
---
header: 
  seq: 132
  stamp: 
    secs: 1559008974
    nsecs: 818462647
  frame_id: "imu_link"
vector: 
  x: 0.433393061161
  y: 0.480092316866
  z: -0.542907059193
---
header: 
  seq: 133
  stamp: 
    secs: 1559008974
    nsecs: 881340774
  frame_id: "imu_link"
vector: 
  x: 0.427123010159
  y: 0.478133916855
  z: -0.549519300461
---
header: 
  seq: 134
  stamp: 
    secs: 1559008974
    nsecs: 923474027
  frame_id: "imu_link"
vector: 
  x: 0.424009025097
  y: 0.486269414425
  z: -0.534464716911
---
header: 
  seq: 135
  stamp: 
    secs: 1559008974
    nsecs: 975476532
  frame_id: "imu_link"
vector: 
  x: 0.419285476208
  y: 0.497206926346
  z: -0.537406861782
---
header: 
  seq: 136
  stamp: 
    secs: 1559008975
    nsecs:  23483025
  frame_id: "imu_link"
vector: 
  x: 0.450576037169
  y: 0.474636852741
  z: -0.543150067329
---
header: 
  seq: 137
  stamp: 
    secs: 1559008975
    nsecs:  75475217
  frame_id: "imu_link"
vector: 
  x: 0.423245489597
  y: 0.467324018478
  z: -0.540997266769
---
header: 
  seq: 138
  stamp: 
    secs: 1559008975
    nsecs: 128543722
  frame_id: "imu_link"
vector: 
  x: 0.443597942591
  y: 0.449235856533
  z: -0.549149215221
---
header: 
  seq: 139
  stamp: 
    secs: 1559008975
    nsecs: 179159023
  frame_id: "imu_link"
vector: 
  x: 0.464912384748
  y: 0.435080915689
  z: -0.552347481251
---
header: 
  seq: 140
  stamp: 
    secs: 1559008975
    nsecs: 233351390
  frame_id: "imu_link"
vector: 
  x: 0.451591461897
  y: 0.471417486668
  z: -0.570976257324
---
header: 
  seq: 141
  stamp: 
    secs: 1559008975
    nsecs: 283479780
  frame_id: "imu_link"
vector: 
  x: 0.438630998135
  y: 0.481800913811
  z: -0.570607423782
---
header: 
  seq: 142
  stamp: 
    secs: 1559008975
    nsecs: 333726455
  frame_id: "imu_link"
vector: 
  x: 0.44649630785
  y: 0.479314565659
  z: -0.57043159008
---
header: 
  seq: 143
  stamp: 
    secs: 1559008975
    nsecs: 392473745
  frame_id: "imu_link"
vector: 
  x: 0.404705405235
  y: 0.492840319872
  z: -0.540955781937
---
header: 
  seq: 144
  stamp: 
    secs: 1559008975
    nsecs: 440496522
  frame_id: "imu_link"
vector: 
  x: 0.397639840841
  y: 0.506620883942
  z: -0.540134310722
---
header: 
  seq: 145
  stamp: 
    secs: 1559008975
    nsecs: 494478371
  frame_id: "imu_link"
vector: 
  x: 0.397900432348
  y: 0.504639983177
  z: -0.548792421818
---
header: 
  seq: 146
  stamp: 
    secs: 1559008975
    nsecs: 544424336
  frame_id: "imu_link"
vector: 
  x: 0.38396319747
  y: 0.494805395603
  z: -0.552371621132
---
header: 
  seq: 147
  stamp: 
    secs: 1559008975
    nsecs: 597479256
  frame_id: "imu_link"
vector: 
  x: 0.394905090332
  y: 0.465293586254
  z: -0.559926211834
---
header: 
  seq: 148
  stamp: 
    secs: 1559008975
    nsecs: 649678005
  frame_id: "imu_link"
vector: 
  x: 0.4249586761
  y: 0.455452352762
  z: -0.575057923794
---
header: 
  seq: 149
  stamp: 
    secs: 1559008975
    nsecs: 698515194
  frame_id: "imu_link"
vector: 
  x: 0.429944932461
  y: 0.467457056046
  z: -0.563934922218
---
header: 
  seq: 150
  stamp: 
    secs: 1559008975
    nsecs: 753488541
  frame_id: "imu_link"
vector: 
  x: 0.419103682041
  y: 0.447474002838
  z: -0.57078486681
---
header: 
  seq: 151
  stamp: 
    secs: 1559008975
    nsecs: 806890413
  frame_id: "imu_link"
vector: 
  x: 0.424378961325
  y: 0.456108510494
  z: -0.570504903793
---
header: 
  seq: 152
  stamp: 
    secs: 1559008975
    nsecs: 860637620
  frame_id: "imu_link"
vector: 
  x: 0.413025319576
  y: 0.459483474493
  z: -0.553232550621
---
header: 
  seq: 153
  stamp: 
    secs: 1559008975
    nsecs: 915916863
  frame_id: "imu_link"
vector: 
  x: 0.383094370365
  y: 0.45184007287
  z: -0.536123394966
---
header: 
  seq: 154
  stamp: 
    secs: 1559008975
    nsecs: 958506596
  frame_id: "imu_link"
vector: 
  x: 0.421476483345
  y: 0.465678870678
  z: -0.534803926945
---
header: 
  seq: 155
  stamp: 
    secs: 1559008976
    nsecs:  10477626
  frame_id: "imu_link"
vector: 
  x: 0.418238550425
  y: 0.480468511581
  z: -0.537547111511
---
header: 
  seq: 156
  stamp: 
    secs: 1559008976
    nsecs:  63473837
  frame_id: "imu_link"
vector: 
  x: 0.427559763193
  y: 0.470249384642
  z: -0.547807276249
---
header: 
  seq: 157
  stamp: 
    secs: 1559008976
    nsecs: 113036121
  frame_id: "imu_link"
vector: 
  x: 0.42075330019
  y: 0.44122543931
  z: -0.542922496796
---
header: 
  seq: 158
  stamp: 
    secs: 1559008976
    nsecs: 167530604
  frame_id: "imu_link"
vector: 
  x: 0.4274289608
  y: 0.475493371487
  z: -0.549160122871
---
header: 
  seq: 159
  stamp: 
    secs: 1559008976
    nsecs: 219480231
  frame_id: "imu_link"
vector: 
  x: 0.413676738739
  y: 0.467678070068
  z: -0.543481767178
---
header: 
  seq: 160
  stamp: 
    secs: 1559008976
    nsecs: 268494684
  frame_id: "imu_link"
vector: 
  x: 0.401727110147
  y: 0.464268922806
  z: -0.541274428368
---
header: 
  seq: 161
  stamp: 
    secs: 1559008976
    nsecs: 323514309
  frame_id: "imu_link"
vector: 
  x: 0.411617159843
  y: 0.490204274654
  z: -0.560131430626
---
header: 
  seq: 162
  stamp: 
    secs: 1559008976
    nsecs: 375569360
  frame_id: "imu_link"
vector: 
  x: 0.417266368866
  y: 0.498869270086
  z: -0.540237009525
---
header: 
  seq: 163
  stamp: 
    secs: 1559008976
    nsecs: 429924838
  frame_id: "imu_link"
vector: 
  x: 0.426982462406
  y: 0.495168983936
  z: -0.530751228333
---
header: 
  seq: 164
  stamp: 
    secs: 1559008976
    nsecs: 480492240
  frame_id: "imu_link"
vector: 
  x: 0.423976510763
  y: 0.501471161842
  z: -0.526829898357
---
header: 
  seq: 165
  stamp: 
    secs: 1559008976
    nsecs: 533641306
  frame_id: "imu_link"
vector: 
  x: 0.412548303604
  y: 0.470556408167
  z: -0.516070008278
---
header: 
  seq: 166
  stamp: 
    secs: 1559008976
    nsecs: 583476503
  frame_id: "imu_link"
vector: 
  x: 0.428592741489
  y: 0.483274102211
  z: -0.529802680016
---
header: 
  seq: 167
  stamp: 
    secs: 1559008976
    nsecs: 634482388
  frame_id: "imu_link"
vector: 
  x: 0.410696029663
  y: 0.47853577137
  z: -0.544521510601
---
header: 
  seq: 168
  stamp: 
    secs: 1559008976
    nsecs: 689494636
  frame_id: "imu_link"
vector: 
  x: 0.403758168221
  y: 0.465715825558
  z: -0.525867700577
---
header: 
  seq: 169
  stamp: 
    secs: 1559008976
    nsecs: 740552371
  frame_id: "imu_link"
vector: 
  x: 0.40379267931
  y: 0.48909163475
  z: -0.51576924324
---
header: 
  seq: 170
  stamp: 
    secs: 1559008976
    nsecs: 794645188
  frame_id: "imu_link"
vector: 
  x: 0.390598773956
  y: 0.497436404228
  z: -0.511843562126
---
header: 
  seq: 171
  stamp: 
    secs: 1559008976
    nsecs: 845561395
  frame_id: "imu_link"
vector: 
  x: 0.391330301762
  y: 0.468903958797
  z: -0.509971857071
---
header: 
  seq: 172
  stamp: 
    secs: 1559008976
    nsecs: 897526946
  frame_id: "imu_link"
vector: 
  x: 0.423704564571
  y: 0.476407378912
  z: -0.529133439064
---
header: 
  seq: 173
  stamp: 
    secs: 1559008976
    nsecs: 949543883
  frame_id: "imu_link"
vector: 
  x: 0.422676622868
  y: 0.461603939533
  z: -0.526312530041
---
header: 
  seq: 174
  stamp: 
    secs: 1559008977
    nsecs:   2498165
  frame_id: "imu_link"
vector: 
  x: 0.390545934439
  y: 0.477981448174
  z: -0.515953123569
---
header: 
  seq: 175
  stamp: 
    secs: 1559008977
    nsecs:  55974534
  frame_id: "imu_link"
vector: 
  x: 0.431013524532
  y: 0.459374576807
  z: -0.527011156082
---
header: 
  seq: 176
  stamp: 
    secs: 1559008977
    nsecs: 105535814
  frame_id: "imu_link"
vector: 
  x: 0.422107875347
  y: 0.486310213804
  z: -0.534386277199
---
header: 
  seq: 177
  stamp: 
    secs: 1559008977
    nsecs: 169953378
  frame_id: "imu_link"
vector: 
  x: 0.411477088928
  y: 0.505055606365
  z: -0.537374436855
---
header: 
  seq: 178
  stamp: 
    secs: 1559008977
    nsecs: 210507867
  frame_id: "imu_link"
vector: 
  x: 0.410599887371
  y: 0.505157113075
  z: -0.530033409595
---
header: 
  seq: 179
  stamp: 
    secs: 1559008977
    nsecs: 259937086
  frame_id: "imu_link"
vector: 
  x: 0.434141874313
  y: 0.465710878372
  z: -0.550695419312
---
header: 
  seq: 180
  stamp: 
    secs: 1559008977
    nsecs: 312141399
  frame_id: "imu_link"
vector: 
  x: 0.437317818403
  y: 0.464871257544
  z: -0.544508814812
---
header: 
  seq: 181
  stamp: 
    secs: 1559008977
    nsecs: 364516183
  frame_id: "imu_link"
vector: 
  x: 0.435370326042
  y: 0.463885635138
  z: -0.550600886345
---
header: 
  seq: 182
  stamp: 
    secs: 1559008977
    nsecs: 419972441
  frame_id: "imu_link"
vector: 
  x: 0.441639244556
  y: 0.455578058958
  z: -0.553140103817
---
header: 
  seq: 183
  stamp: 
    secs: 1559008977
    nsecs: 465469074
  frame_id: "imu_link"
vector: 
  x: 0.446825474501
  y: 0.47069978714
  z: -0.542012095451
---
header: 
  seq: 184
  stamp: 
    secs: 1559008977
    nsecs: 516493019
  frame_id: "imu_link"
vector: 
  x: 0.43554854393
  y: 0.458938598633
  z: -0.522280991077
---
header: 
  seq: 185
  stamp: 
    secs: 1559008977
    nsecs: 569507348
  frame_id: "imu_link"
vector: 
  x: 0.430880635977
  y: 0.463175773621
  z: -0.496202766895
---
header: 
  seq: 186
  stamp: 
    secs: 1559008977
    nsecs: 619987380
  frame_id: "imu_link"
vector: 
  x: 0.425903618336
  y: 0.479014515877
  z: -0.511573076248
---
header: 
  seq: 187
  stamp: 
    secs: 1559008977
    nsecs: 671145819
  frame_id: "imu_link"
vector: 
  x: 0.438724040985
  y: 0.491470187902
  z: -0.534711182117
---
header: 
  seq: 188
  stamp: 
    secs: 1559008977
    nsecs: 722032515
  frame_id: "imu_link"
vector: 
  x: 0.452707886696
  y: 0.523875594139
  z: -0.537366271019
---
header: 
  seq: 189
  stamp: 
    secs: 1559008977
    nsecs: 774501258
  frame_id: "imu_link"
vector: 
  x: 0.452216684818
  y: 0.505710244179
  z: -0.538606345654
---
header: 
  seq: 190
  stamp: 
    secs: 1559008977
    nsecs: 822523115
  frame_id: "imu_link"
vector: 
  x: 0.42392373085
  y: 0.480169415474
  z: -0.539119005203
---
header: 
  seq: 191
  stamp: 
    secs: 1559008977
    nsecs: 877513700
  frame_id: "imu_link"
vector: 
  x: 0.395933032036
  y: 0.465756654739
  z: -0.518353879452
---
header: 
  seq: 192
  stamp: 
    secs: 1559008977
    nsecs: 929513009
  frame_id: "imu_link"
vector: 
  x: 0.389974743128
  y: 0.464225053787
  z: -0.503621220589
---
header: 
  seq: 193
  stamp: 
    secs: 1559008977
    nsecs: 982518881
  frame_id: "imu_link"
vector: 
  x: 0.41601318121
  y: 0.463613450527
  z: -0.533947587013
---
header: 
  seq: 194
  stamp: 
    secs: 1559008978
    nsecs:  34511653
  frame_id: "imu_link"
vector: 
  x: 0.431533575058
  y: 0.50192540884
  z: -0.567083120346
---
header: 
  seq: 195
  stamp: 
    secs: 1559008978
    nsecs:  86543687
  frame_id: "imu_link"
vector: 
  x: 0.425956696272
  y: 0.495261728764
  z: -0.559932768345
---
header: 
  seq: 196
  stamp: 
    secs: 1559008978
    nsecs: 139505479
  frame_id: "imu_link"
vector: 
  x: 0.433718979359
  y: 0.493577390909
  z: -0.54854619503
---
header: 
  seq: 197
  stamp: 
    secs: 1559008978
    nsecs: 188501633
  frame_id: "imu_link"
vector: 
  x: 0.440806269646
  y: 0.476923048496
  z: -0.534186124802
---
header: 
  seq: 198
  stamp: 
    secs: 1559008978
    nsecs: 242866548
  frame_id: "imu_link"
vector: 
  x: 0.421593546867
  y: 0.442557692528
  z: -0.527362108231
---
header: 
  seq: 199
  stamp: 
    secs: 1559008978
    nsecs: 294530127
  frame_id: "imu_link"
vector: 
  x: 0.405369699001
  y: 0.444540023804
  z: -0.551051974297
---
header: 
  seq: 200
  stamp: 
    secs: 1559008978
    nsecs: 344498779
  frame_id: "imu_link"
vector: 
  x: 0.401060461998
  y: 0.462672531605
  z: -0.553324401379
---
header: 
  seq: 201
  stamp: 
    secs: 1559008978
    nsecs: 396494600
  frame_id: "imu_link"
vector: 
  x: 0.421395868063
  y: 0.459408760071
  z: -0.546100378036
---
header: 
  seq: 202
  stamp: 
    secs: 1559008978
    nsecs: 449106069
  frame_id: "imu_link"
vector: 
  x: 0.418106406927
  y: 0.470426023006
  z: -0.524133205414
---
header: 
  seq: 203
  stamp: 
    secs: 1559008978
    nsecs: 501541673
  frame_id: "imu_link"
vector: 
  x: 0.437814056873
  y: 0.476164340973
  z: -0.515052199364
---
header: 
  seq: 204
  stamp: 
    secs: 1559008978
    nsecs: 553507789
  frame_id: "imu_link"
vector: 
  x: 0.442260444164
  y: 0.470052719116
  z: -0.52007073164
---
header: 
  seq: 205
  stamp: 
    secs: 1559008978
    nsecs: 601496108
  frame_id: "imu_link"
vector: 
  x: 0.430377334356
  y: 0.461232364178
  z: -0.536163330078
---
header: 
  seq: 206
  stamp: 
    secs: 1559008978
    nsecs: 653521881
  frame_id: "imu_link"
vector: 
  x: 0.418357431889
  y: 0.48704752326
  z: -0.529067158699
---
header: 
  seq: 207
  stamp: 
    secs: 1559008978
    nsecs: 706514509
  frame_id: "imu_link"
vector: 
  x: 0.397026598454
  y: 0.495871067047
  z: -0.534864425659
---
header: 
  seq: 208
  stamp: 
    secs: 1559008978
    nsecs: 758659998
  frame_id: "imu_link"
vector: 
  x: 0.397745788097
  y: 0.474740713835
  z: -0.564697682858
---
header: 
  seq: 209
  stamp: 
    secs: 1559008978
    nsecs: 807642506
  frame_id: "imu_link"
vector: 
  x: 0.435079455376
  y: 0.477754294872
  z: -0.543759942055
---
header: 
  seq: 210
  stamp: 
    secs: 1559008978
    nsecs: 858529275
  frame_id: "imu_link"
vector: 
  x: 0.427422523499
  y: 0.477043181658
  z: -0.550291240215
---
header: 
  seq: 211
  stamp: 
    secs: 1559008978
    nsecs: 911797728
  frame_id: "imu_link"
vector: 
  x: 0.431279718876
  y: 0.477143853903
  z: -0.55299115181
---
header: 
  seq: 212
  stamp: 
    secs: 1559008978
    nsecs: 960550486
  frame_id: "imu_link"
vector: 
  x: 0.436078488827
  y: 0.446509063244
  z: -0.545469224453
---
header: 
  seq: 213
  stamp: 
    secs: 1559008979
    nsecs:  14802153
  frame_id: "imu_link"
vector: 
  x: 0.424683451653
  y: 0.452833861113
  z: -0.557021141052
---
header: 
  seq: 214
  stamp: 
    secs: 1559008979
    nsecs:  68119237
  frame_id: "imu_link"
vector: 
  x: 0.40195864439
  y: 0.458106964827
  z: -0.537689566612
---
header: 
  seq: 215
  stamp: 
    secs: 1559008979
    nsecs: 117592679
  frame_id: "imu_link"
vector: 
  x: 0.406466305256
  y: 0.460188388824
  z: -0.547267735004
---
header: 
  seq: 216
  stamp: 
    secs: 1559008979
    nsecs: 171695854
  frame_id: "imu_link"
vector: 
  x: 0.423742473125
  y: 0.473831683397
  z: -0.557328522205
---
header: 
  seq: 217
  stamp: 
    secs: 1559008979
    nsecs: 223574406
  frame_id: "imu_link"
vector: 
  x: 0.412936925888
  y: 0.474405288696
  z: -0.564488172531
---
header: 
  seq: 218
  stamp: 
    secs: 1559008979
    nsecs: 276556129
  frame_id: "imu_link"
vector: 
  x: 0.404151886702
  y: 0.474873334169
  z: -0.558813452721
---
header: 
  seq: 219
  stamp: 
    secs: 1559008979
    nsecs: 325768853
  frame_id: "imu_link"
vector: 
  x: 0.411175578833
  y: 0.483493417501
  z: -0.565556049347
---
header: 
  seq: 220
  stamp: 
    secs: 1559008979
    nsecs: 380539072
  frame_id: "imu_link"
vector: 
  x: 0.451525807381
  y: 0.442650854588
  z: -0.576456665993
---
header: 
  seq: 221
  stamp: 
    secs: 1559008979
    nsecs: 431524863
  frame_id: "imu_link"
vector: 
  x: 0.448266237974
  y: 0.455094575882
  z: -0.563807725906
---
header: 
  seq: 222
  stamp: 
    secs: 1559008979
    nsecs: 481518310
  frame_id: "imu_link"
vector: 
  x: 0.443514347076
  y: 0.460894078016
  z: -0.533101320267
---
header: 
  seq: 223
  stamp: 
    secs: 1559008979
    nsecs: 536524883
  frame_id: "imu_link"
vector: 
  x: 0.415848135948
  y: 0.467779099941
  z: -0.521872639656
---
header: 
  seq: 224
  stamp: 
    secs: 1559008979
    nsecs: 589564880
  frame_id: "imu_link"
vector: 
  x: 0.415911853313
  y: 0.48133674264
  z: -0.53220140934
---
header: 
  seq: 225
  stamp: 
    secs: 1559008979
    nsecs: 642533514
  frame_id: "imu_link"
vector: 
  x: 0.422789186239
  y: 0.485557436943
  z: -0.570578813553
---
header: 
  seq: 226
  stamp: 
    secs: 1559008979
    nsecs: 693570862
  frame_id: "imu_link"
vector: 
  x: 0.429364353418
  y: 0.480663537979
  z: -0.561377882957
---
header: 
  seq: 227
  stamp: 
    secs: 1559008979
    nsecs: 744244599
  frame_id: "imu_link"
vector: 
  x: 0.426597774029
  y: 0.493676066399
  z: -0.539484858513
---
header: 
  seq: 228
  stamp: 
    secs: 1559008979
    nsecs: 793531922
  frame_id: "imu_link"
vector: 
  x: 0.413234353065
  y: 0.484197080135
  z: -0.521398425102
---
header: 
  seq: 229
  stamp: 
    secs: 1559008979
    nsecs: 847602713
  frame_id: "imu_link"
vector: 
  x: 0.404173761606
  y: 0.463066667318
  z: -0.522976517677
---
header: 
  seq: 230
  stamp: 
    secs: 1559008979
    nsecs: 895566895
  frame_id: "imu_link"
vector: 
  x: 0.423880934715
  y: 0.455949783325
  z: -0.532080411911
---
header: 
  seq: 231
  stamp: 
    secs: 1559008979
    nsecs: 950571566
  frame_id: "imu_link"
vector: 
  x: 0.444842070341
  y: 0.462821662426
  z: -0.54725754261
---
header: 
  seq: 232
  stamp: 
    secs: 1559008980
    nsecs:   2570852
  frame_id: "imu_link"
vector: 
  x: 0.434821307659
  y: 0.480458021164
  z: -0.524611592293
---
header: 
  seq: 233
  stamp: 
    secs: 1559008980
    nsecs:  52535729
  frame_id: "imu_link"
vector: 
  x: 0.427510559559
  y: 0.495365679264
  z: -0.507145524025
---
header: 
  seq: 234
  stamp: 
    secs: 1559008980
    nsecs: 107508698
  frame_id: "imu_link"
vector: 
  x: 0.44134286046
  y: 0.500806868076
  z: -0.542996406555
---
header: 
  seq: 235
  stamp: 
    secs: 1559008980
    nsecs: 158569661
  frame_id: "imu_link"
vector: 
  x: 0.443894863129
  y: 0.488163948059
  z: -0.549559414387
---
header: 
  seq: 236
  stamp: 
    secs: 1559008980
    nsecs: 212539887
  frame_id: "imu_link"
vector: 
  x: 0.431066691875
  y: 0.448440462351
  z: -0.552688717842
---
header: 
  seq: 237
  stamp: 
    secs: 1559008980
    nsecs: 260528059
  frame_id: "imu_link"
vector: 
  x: 0.447061419487
  y: 0.432294428349
  z: -0.572226643562
---
header: 
  seq: 238
  stamp: 
    secs: 1559008980
    nsecs: 315522102
  frame_id: "imu_link"
vector: 
  x: 0.424490392208
  y: 0.465259253979
  z: -0.552579641342
---
header: 
  seq: 239
  stamp: 
    secs: 1559008980
    nsecs: 367560304
  frame_id: "imu_link"
vector: 
  x: 0.426605761051
  y: 0.455234199762
  z: -0.562979102135
---
header: 
  seq: 240
  stamp: 
    secs: 1559008980
    nsecs: 417547118
  frame_id: "imu_link"
vector: 
  x: 0.423897325993
  y: 0.467837184668
  z: -0.558196902275
---
header: 
  seq: 241
  stamp: 
    secs: 1559008980
    nsecs: 472546593
  frame_id: "imu_link"
vector: 
  x: 0.42935743928
  y: 0.462369799614
  z: -0.548476338387
---
header: 
  seq: 242
  stamp: 
    secs: 1559008980
    nsecs: 523547130
  frame_id: "imu_link"
vector: 
  x: 0.432079583406
  y: 0.471078038216
  z: -0.552240908146
---
header: 
  seq: 243
  stamp: 
    secs: 1559008980
    nsecs: 578472661
  frame_id: "imu_link"
vector: 
  x: 0.419930428267
  y: 0.481456935406
  z: -0.553704380989
---
header: 
  seq: 244
  stamp: 
    secs: 1559008980
    nsecs: 628571984
  frame_id: "imu_link"
vector: 
  x: 0.428182572126
  y: 0.487194955349
  z: -0.554402112961
---
header: 
  seq: 245
  stamp: 
    secs: 1559008980
    nsecs: 677526453
  frame_id: "imu_link"
vector: 
  x: 0.433119833469
  y: 0.499964356422
  z: -0.589128911495
---
header: 
  seq: 246
  stamp: 
    secs: 1559008980
    nsecs: 728540969
  frame_id: "imu_link"
vector: 
  x: 0.426810085773
  y: 0.501125574112
  z: -0.60521376133
---
header: 
  seq: 247
  stamp: 
    secs: 1559008980
    nsecs: 782544310
  frame_id: "imu_link"
vector: 
  x: 0.413519740105
  y: 0.510404169559
  z: -0.584737420082
---
header: 
  seq: 248
  stamp: 
    secs: 1559008980
    nsecs: 830544823
  frame_id: "imu_link"
vector: 
  x: 0.411487489939
  y: 0.473692655563
  z: -0.567230939865
---
header: 
  seq: 249
  stamp: 
    secs: 1559008980
    nsecs: 885544156
  frame_id: "imu_link"
vector: 
  x: 0.424362778664
  y: 0.473032236099
  z: -0.557154655457
---
header: 
  seq: 250
  stamp: 
    secs: 1559008980
    nsecs: 937650031
  frame_id: "imu_link"
vector: 
  x: 0.440597981215
  y: 0.483916223049
  z: -0.564870357513
---
header: 
  seq: 251
  stamp: 
    secs: 1559008980
    nsecs: 987552808
  frame_id: "imu_link"
vector: 
  x: 0.433701813221
  y: 0.479669123888
  z: -0.567869663239
---
header: 
  seq: 252
  stamp: 
    secs: 1559008981
    nsecs:  42539853
  frame_id: "imu_link"
vector: 
  x: 0.419646859169
  y: 0.446936190128
  z: -0.553373515606
---
header: 
  seq: 253
  stamp: 
    secs: 1559008981
    nsecs:  93543151
  frame_id: "imu_link"
vector: 
  x: 0.411021500826
  y: 0.462488651276
  z: -0.562801241875
---
header: 
  seq: 254
  stamp: 
    secs: 1559008981
    nsecs: 148172507
  frame_id: "imu_link"
vector: 
  x: 0.399871617556
  y: 0.461907476187
  z: -0.54912084341
---
header: 
  seq: 255
  stamp: 
    secs: 1559008981
    nsecs: 199901909
  frame_id: "imu_link"
vector: 
  x: 0.409208536148
  y: 0.4714589715
  z: -0.525381803513
---
header: 
  seq: 256
  stamp: 
    secs: 1559008981
    nsecs: 247557410
  frame_id: "imu_link"
vector: 
  x: 0.412865579128
  y: 0.434645235538
  z: -0.516201972961
---
header: 
  seq: 257
  stamp: 
    secs: 1559008981
    nsecs: 299571010
  frame_id: "imu_link"
vector: 
  x: 0.414793550968
  y: 0.467130511999
  z: -0.54820394516
---
header: 
  seq: 258
  stamp: 
    secs: 1559008981
    nsecs: 352620566
  frame_id: "imu_link"
vector: 
  x: 0.433180332184
  y: 0.49734416604
  z: -0.570212066174
---
header: 
  seq: 259
  stamp: 
    secs: 1559008981
    nsecs: 400564725
  frame_id: "imu_link"
vector: 
  x: 0.440234988928
  y: 0.48661133647
  z: -0.561762154102
---
header: 
  seq: 260
  stamp: 
    secs: 1559008981
    nsecs: 455582757
  frame_id: "imu_link"
vector: 
  x: 0.439258188009
  y: 0.496775448322
  z: -0.526770472527
---
header: 
  seq: 261
  stamp: 
    secs: 1559008981
    nsecs: 507550691
  frame_id: "imu_link"
vector: 
  x: 0.429664850235
  y: 0.493318378925
  z: -0.542427659035
---
header: 
  seq: 262
  stamp: 
    secs: 1559008981
    nsecs: 557558486
  frame_id: "imu_link"
vector: 
  x: 0.418161690235
  y: 0.483082532883
  z: -0.549740552902
---
header: 
  seq: 263
  stamp: 
    secs: 1559008981
    nsecs: 612551205
  frame_id: "imu_link"
vector: 
  x: 0.405075788498
  y: 0.47152775526
  z: -0.563055157661
---
header: 
  seq: 264
  stamp: 
    secs: 1559008981
    nsecs: 664535494
  frame_id: "imu_link"
vector: 
  x: 0.40782263875
  y: 0.466186821461
  z: -0.558553218842
---
header: 
  seq: 265
  stamp: 
    secs: 1559008981
    nsecs: 717556130
  frame_id: "imu_link"
vector: 
  x: 0.412633746862
  y: 0.472503900528
  z: -0.547272086143
---
header: 
  seq: 266
  stamp: 
    secs: 1559008981
    nsecs: 765573733
  frame_id: "imu_link"
vector: 
  x: 0.418044924736
  y: 0.467422246933
  z: -0.533659398556
---
header: 
  seq: 267
  stamp: 
    secs: 1559008981
    nsecs: 817638833
  frame_id: "imu_link"
vector: 
  x: 0.406374454498
  y: 0.479736745358
  z: -0.534886419773
---
header: 
  seq: 268
  stamp: 
    secs: 1559008981
    nsecs: 869562218
  frame_id: "imu_link"
vector: 
  x: 0.376685500145
  y: 0.469405710697
  z: -0.501413702965
---
header: 
  seq: 269
  stamp: 
    secs: 1559008981
    nsecs: 922574285
  frame_id: "imu_link"
vector: 
  x: 0.38850492239
  y: 0.449943810701
  z: -0.514025211334
---
header: 
  seq: 270
  stamp: 
    secs: 1559008981
    nsecs: 970962540
  frame_id: "imu_link"
vector: 
  x: 0.394124150276
  y: 0.46475738287
  z: -0.537999272346
---
header: 
  seq: 271
  stamp: 
    secs: 1559008982
    nsecs:  25601406
  frame_id: "imu_link"
vector: 
  x: 0.432059794664
  y: 0.454333901405
  z: -0.579132318497
---
header: 
  seq: 272
  stamp: 
    secs: 1559008982
    nsecs:  77611108
  frame_id: "imu_link"
vector: 
  x: 0.439897358418
  y: 0.466710448265
  z: -0.582800626755
---
header: 
  seq: 273
  stamp: 
    secs: 1559008982
    nsecs: 127559091
  frame_id: "imu_link"
vector: 
  x: 0.429513007402
  y: 0.479928255081
  z: -0.584513962269
---
header: 
  seq: 274
  stamp: 
    secs: 1559008982
    nsecs: 179744492
  frame_id: "imu_link"
vector: 
  x: 0.444622159004
  y: 0.451657563448
  z: -0.555935621262
---
header: 
  seq: 275
  stamp: 
    secs: 1559008982
    nsecs: 234585561
  frame_id: "imu_link"
vector: 
  x: 0.44541233778
  y: 0.434138387442
  z: -0.555324494839
---
header: 
  seq: 276
  stamp: 
    secs: 1559008982
    nsecs: 284549303
  frame_id: "imu_link"
vector: 
  x: 0.438815295696
  y: 0.458631515503
  z: -0.573155641556
---
header: 
  seq: 277
  stamp: 
    secs: 1559008982
    nsecs: 335554441
  frame_id: "imu_link"
vector: 
  x: 0.42946857214
  y: 0.468602836132
  z: -0.562988758087
---
header: 
  seq: 278
  stamp: 
    secs: 1559008982
    nsecs: 387589673
  frame_id: "imu_link"
vector: 
  x: 0.436784535646
  y: 0.49200540781
  z: -0.565319061279
---
header: 
  seq: 279
  stamp: 
    secs: 1559008982
    nsecs: 439561921
  frame_id: "imu_link"
vector: 
  x: 0.435149848461
  y: 0.475102603436
  z: -0.559203565121
---
header: 
  seq: 280
  stamp: 
    secs: 1559008982
    nsecs: 494787126
  frame_id: "imu_link"
vector: 
  x: 0.421214133501
  y: 0.476255267859
  z: -0.539821028709
---
header: 
  seq: 281
  stamp: 
    secs: 1559008982
    nsecs: 541539086
  frame_id: "imu_link"
vector: 
  x: 0.43216624856
  y: 0.486490011215
  z: -0.521385908127
---
header: 
  seq: 282
  stamp: 
    secs: 1559008982
    nsecs: 596527135
  frame_id: "imu_link"
vector: 
  x: 0.410561442375
  y: 0.46729695797
  z: -0.523569583893
---
header: 
  seq: 283
  stamp: 
    secs: 1559008982
    nsecs: 647591469
  frame_id: "imu_link"
vector: 
  x: 0.431233227253
  y: 0.4660589993
  z: -0.523861050606
---
header: 
  seq: 284
  stamp: 
    secs: 1559008982
    nsecs: 701556825
  frame_id: "imu_link"
vector: 
  x: 0.450520306826
  y: 0.465748667717
  z: -0.533099353313
---
header: 
  seq: 285
  stamp: 
    secs: 1559008982
    nsecs: 749584363
  frame_id: "imu_link"
vector: 
  x: 0.422599256039
  y: 0.44187733531
  z: -0.581494688988
---
header: 
  seq: 286
  stamp: 
    secs: 1559008982
    nsecs: 801558549
  frame_id: "imu_link"
vector: 
  x: 0.439967811108
  y: 0.445581674576
  z: -0.593015909195
---
header: 
  seq: 287
  stamp: 
    secs: 1559008982
    nsecs: 854908292
  frame_id: "imu_link"
vector: 
  x: 0.422420829535
  y: 0.479801744223
  z: -0.57065308094
---
header: 
  seq: 288
  stamp: 
    secs: 1559008982
    nsecs: 906526023
  frame_id: "imu_link"
vector: 
  x: 0.405492544174
  y: 0.485226333141
  z: -0.55329823494
---
header: 
  seq: 289
  stamp: 
    secs: 1559008982
    nsecs: 957621600
  frame_id: "imu_link"
vector: 
  x: 0.419003486633
  y: 0.459724366665
  z: -0.518453836441
---
header: 
  seq: 290
  stamp: 
    secs: 1559008983
    nsecs:   9555282
  frame_id: "imu_link"
vector: 
  x: 0.420578211546
  y: 0.454259395599
  z: -0.521549880505
---
header: 
  seq: 291
  stamp: 
    secs: 1559008983
    nsecs:  63585212
  frame_id: "imu_link"
vector: 
  x: 0.439033508301
  y: 0.476155698299
  z: -0.550151765347
---
header: 
  seq: 292
  stamp: 
    secs: 1559008983
    nsecs: 114564670
  frame_id: "imu_link"
vector: 
  x: 0.465647190809
  y: 0.460100769997
  z: -0.541435003281
---
header: 
  seq: 293
  stamp: 
    secs: 1559008983
    nsecs: 166561048
  frame_id: "imu_link"
vector: 
  x: 0.447081357241
  y: 0.461913585663
  z: -0.549330115318
---
header: 
  seq: 294
  stamp: 
    secs: 1559008983
    nsecs: 218556888
  frame_id: "imu_link"
vector: 
  x: 0.439342856407
  y: 0.462669193745
  z: -0.552620947361
---
header: 
  seq: 295
  stamp: 
    secs: 1559008983
    nsecs: 271584490
  frame_id: "imu_link"
vector: 
  x: 0.467759221792
  y: 0.456912666559
  z: -0.544912457466
---
header: 
  seq: 296
  stamp: 
    secs: 1559008983
    nsecs: 319586409
  frame_id: "imu_link"
vector: 
  x: 0.430702447891
  y: 0.451542198658
  z: -0.518888473511
---
header: 
  seq: 297
  stamp: 
    secs: 1559008983
    nsecs: 371579110
  frame_id: "imu_link"
vector: 
  x: 0.439559280872
  y: 0.451319634914
  z: -0.521925926208
---
header: 
  seq: 298
  stamp: 
    secs: 1559008983
    nsecs: 424587497
  frame_id: "imu_link"
vector: 
  x: 0.456457406282
  y: 0.451244950294
  z: -0.540280163288
---
header: 
  seq: 299
  stamp: 
    secs: 1559008983
    nsecs: 478582110
  frame_id: "imu_link"
vector: 
  x: 0.464547455311
  y: 0.457884609699
  z: -0.585020244122
---
header: 
  seq: 300
  stamp: 
    secs: 1559008983
    nsecs: 524586760
  frame_id: "imu_link"
vector: 
  x: 0.41173774004
  y: 0.47153711319
  z: -0.572640299797
---
header: 
  seq: 301
  stamp: 
    secs: 1559008983
    nsecs: 576589175
  frame_id: "imu_link"
vector: 
  x: 0.393046408892
  y: 0.457802891731
  z: -0.535104513168
---
header: 
  seq: 302
  stamp: 
    secs: 1559008983
    nsecs: 629648792
  frame_id: "imu_link"
vector: 
  x: 0.40290749073
  y: 0.445169568062
  z: -0.510342240334
---
header: 
  seq: 303
  stamp: 
    secs: 1559008983
    nsecs: 678645014
  frame_id: "imu_link"
vector: 
  x: 0.428167998791
  y: 0.439682781696
  z: -0.5364767313
---
header: 
  seq: 304
  stamp: 
    secs: 1559008983
    nsecs: 729572831
  frame_id: "imu_link"
vector: 
  x: 0.446230351925
  y: 0.495294958353
  z: -0.560522079468
---
header: 
  seq: 305
  stamp: 
    secs: 1559008983
    nsecs: 781568134
  frame_id: "imu_link"
vector: 
  x: 0.442615330219
  y: 0.492724746466
  z: -0.566262423992
---
header: 
  seq: 306
  stamp: 
    secs: 1559008983
    nsecs: 834854405
  frame_id: "imu_link"
vector: 
  x: 0.441103249788
  y: 0.476837962866
  z: -0.551351964474
---
header: 
  seq: 307
  stamp: 
    secs: 1559008983
    nsecs: 883629912
  frame_id: "imu_link"
vector: 
  x: 0.461563289165
  y: 0.461599230766
  z: -0.562471568584
---
header: 
  seq: 308
  stamp: 
    secs: 1559008983
    nsecs: 939051724
  frame_id: "imu_link"
vector: 
  x: 0.44544890523
  y: 0.486109554768
  z: -0.564406633377
---
header: 
  seq: 309
  stamp: 
    secs: 1559008983
    nsecs: 990577954
  frame_id: "imu_link"
vector: 
  x: 0.445756614208
  y: 0.497835755348
  z: -0.558780133724
---
header: 
  seq: 310
  stamp: 
    secs: 1559008984
    nsecs:  39584124
  frame_id: "imu_link"
vector: 
  x: 0.428374499083
  y: 0.50121229887
  z: -0.565542340279
---
header: 
  seq: 311
  stamp: 
    secs: 1559008984
    nsecs:  91605512
  frame_id: "imu_link"
vector: 
  x: 0.408399373293
  y: 0.47641068697
  z: -0.552813470364
---
header: 
  seq: 312
  stamp: 
    secs: 1559008984
    nsecs: 143624624
  frame_id: "imu_link"
vector: 
  x: 0.381280839443
  y: 0.474514603615
  z: -0.554033875465
---
header: 
  seq: 313
  stamp: 
    secs: 1559008984
    nsecs: 196589280
  frame_id: "imu_link"
vector: 
  x: 0.394599676132
  y: 0.475499987602
  z: -0.54549652338
---
header: 
  seq: 314
  stamp: 
    secs: 1559008984
    nsecs: 248581397
  frame_id: "imu_link"
vector: 
  x: 0.406489819288
  y: 0.468453705311
  z: -0.542147040367
---
header: 
  seq: 315
  stamp: 
    secs: 1559008984
    nsecs: 299627645
  frame_id: "imu_link"
vector: 
  x: 0.401370763779
  y: 0.512111902237
  z: -0.51437664032
---
header: 
  seq: 316
  stamp: 
    secs: 1559008984
    nsecs: 351556258
  frame_id: "imu_link"
vector: 
  x: 0.425972431898
  y: 0.516440451145
  z: -0.536727011204
---
header: 
  seq: 317
  stamp: 
    secs: 1559008984
    nsecs: 404570048
  frame_id: "imu_link"
vector: 
  x: 0.444725215435
  y: 0.485992968082
  z: -0.547383904457
---
header: 
  seq: 318
  stamp: 
    secs: 1559008984
    nsecs: 453584602
  frame_id: "imu_link"
vector: 
  x: 0.441894292831
  y: 0.448522925377
  z: -0.542747497559
---
header: 
  seq: 319
  stamp: 
    secs: 1559008984
    nsecs: 508591413
  frame_id: "imu_link"
vector: 
  x: 0.422571659088
  y: 0.456429213285
  z: -0.544166445732
---
header: 
  seq: 320
  stamp: 
    secs: 1559008984
    nsecs: 560646115
  frame_id: "imu_link"
vector: 
  x: 0.446880042553
  y: 0.469220876694
  z: -0.559501171112
---
header: 
  seq: 321
  stamp: 
    secs: 1559008984
    nsecs: 613575577
  frame_id: "imu_link"
vector: 
  x: 0.442883908749
  y: 0.473719477654
  z: -0.565840363503
---
header: 
  seq: 322
  stamp: 
    secs: 1559008984
    nsecs: 661567095
  frame_id: "imu_link"
vector: 
  x: 0.434912979603
  y: 0.481163591146
  z: -0.565964698792
---
header: 
  seq: 323
  stamp: 
    secs: 1559008984
    nsecs: 713810464
  frame_id: "imu_link"
vector: 
  x: 0.44139868021
  y: 0.48746830225
  z: -0.55947047472
---
header: 
  seq: 324
  stamp: 
    secs: 1559008984
    nsecs: 766563477
  frame_id: "imu_link"
vector: 
  x: 0.451282322407
  y: 0.489711672068
  z: -0.574997186661
---
header: 
  seq: 325
  stamp: 
    secs: 1559008984
    nsecs: 818577202
  frame_id: "imu_link"
vector: 
  x: 0.441840678453
  y: 0.497560054064
  z: -0.580912947655
---
header: 
  seq: 326
  stamp: 
    secs: 1559008984
    nsecs: 866588266
  frame_id: "imu_link"
vector: 
  x: 0.428175985813
  y: 0.488195240498
  z: -0.533780992031
---
header: 
  seq: 327
  stamp: 
    secs: 1559008984
    nsecs: 918586461
  frame_id: "imu_link"
vector: 
  x: 0.421373188496
  y: 0.474081099033
  z: -0.536953926086
---
header: 
  seq: 328
  stamp: 
    secs: 1559008984
    nsecs: 971568527
  frame_id: "imu_link"
vector: 
  x: 0.404052078724
  y: 0.483928620815
  z: -0.520352125168
---
header: 
  seq: 329
  stamp: 
    secs: 1559008985
    nsecs:  19606235
  frame_id: "imu_link"
vector: 
  x: 0.386407405138
  y: 0.487019538879
  z: -0.522531032562
---
header: 
  seq: 330
  stamp: 
    secs: 1559008985
    nsecs:  74580782
  frame_id: "imu_link"
vector: 
  x: 0.418234169483
  y: 0.463122427464
  z: -0.52729678154
---
header: 
  seq: 331
  stamp: 
    secs: 1559008985
    nsecs: 126561198
  frame_id: "imu_link"
vector: 
  x: 0.424019515514
  y: 0.454350858927
  z: -0.552527427673
---
header: 
  seq: 332
  stamp: 
    secs: 1559008985
    nsecs: 176575922
  frame_id: "imu_link"
vector: 
  x: 0.415859758854
  y: 0.449706703424
  z: -0.572160720825
---
header: 
  seq: 333
  stamp: 
    secs: 1559008985
    nsecs: 231662684
  frame_id: "imu_link"
vector: 
  x: 0.414554655552
  y: 0.49338850379
  z: -0.542022705078
---
header: 
  seq: 334
  stamp: 
    secs: 1559008985
    nsecs: 283629964
  frame_id: "imu_link"
vector: 
  x: 0.419036626816
  y: 0.507409691811
  z: -0.567656815052
---
header: 
  seq: 335
  stamp: 
    secs: 1559008985
    nsecs: 336599379
  frame_id: "imu_link"
vector: 
  x: 0.427459806204
  y: 0.489862829447
  z: -0.57771384716
---
header: 
  seq: 336
  stamp: 
    secs: 1559008985
    nsecs: 389718283
  frame_id: "imu_link"
vector: 
  x: 0.438416421413
  y: 0.490288496017
  z: -0.582411170006
---
header: 
  seq: 337
  stamp: 
    secs: 1559008985
    nsecs: 439617249
  frame_id: "imu_link"
vector: 
  x: 0.421653836966
  y: 0.493660867214
  z: -0.568102538586
---
header: 
  seq: 338
  stamp: 
    secs: 1559008985
    nsecs: 491597737
  frame_id: "imu_link"
vector: 
  x: 0.414850056171
  y: 0.499677121639
  z: -0.560354173183
---
header: 
  seq: 339
  stamp: 
    secs: 1559008985
    nsecs: 544637466
  frame_id: "imu_link"
vector: 
  x: 0.426082402468
  y: 0.48650047183
  z: -0.557151079178
---
header: 
  seq: 340
  stamp: 
    secs: 1559008985
    nsecs: 603987493
  frame_id: "imu_link"
vector: 
  x: 0.420925080776
  y: 0.475160717964
  z: -0.542718291283
---
header: 
  seq: 341
  stamp: 
    secs: 1559008985
    nsecs: 648589953
  frame_id: "imu_link"
vector: 
  x: 0.428593754768
  y: 0.484592139721
  z: -0.549860596657
---
header: 
  seq: 342
  stamp: 
    secs: 1559008985
    nsecs: 701592004
  frame_id: "imu_link"
vector: 
  x: 0.421279549599
  y: 0.487511068583
  z: -0.561855077744
---
header: 
  seq: 343
  stamp: 
    secs: 1559008985
    nsecs: 753596034
  frame_id: "imu_link"
vector: 
  x: 0.431643635035
  y: 0.489387899637
  z: -0.566517710686
---
header: 
  seq: 344
  stamp: 
    secs: 1559008985
    nsecs: 805586175
  frame_id: "imu_link"
vector: 
  x: 0.435084462166
  y: 0.474393546581
  z: -0.560625731945
---
header: 
  seq: 345
  stamp: 
    secs: 1559008985
    nsecs: 856567345
  frame_id: "imu_link"
vector: 
  x: 0.444344103336
  y: 0.461399555206
  z: -0.548961281776
---
header: 
  seq: 346
  stamp: 
    secs: 1559008985
    nsecs: 910607736
  frame_id: "imu_link"
vector: 
  x: 0.438176095486
  y: 0.471452921629
  z: -0.534357726574
---
header: 
  seq: 347
  stamp: 
    secs: 1559008985
    nsecs: 958637656
  frame_id: "imu_link"
vector: 
  x: 0.449770092964
  y: 0.483848690987
  z: -0.546404480934
---
header: 
  seq: 348
  stamp: 
    secs: 1559008986
    nsecs:  13589530
  frame_id: "imu_link"
vector: 
  x: 0.454705268145
  y: 0.49881285429
  z: -0.548923969269
---
header: 
  seq: 349
  stamp: 
    secs: 1559008986
    nsecs:  65734668
  frame_id: "imu_link"
vector: 
  x: 0.44255810976
  y: 0.51082265377
  z: -0.552425980568
---
header: 
  seq: 350
  stamp: 
    secs: 1559008986
    nsecs: 118594774
  frame_id: "imu_link"
vector: 
  x: 0.434074759483
  y: 0.490522563457
  z: -0.562915563583
---
header: 
  seq: 351
  stamp: 
    secs: 1559008986
    nsecs: 171528695
  frame_id: "imu_link"
vector: 
  x: 0.407335460186
  y: 0.487162292004
  z: -0.538280129433
---
header: 
  seq: 352
  stamp: 
    secs: 1559008986
    nsecs: 221600779
  frame_id: "imu_link"
vector: 
  x: 0.412392824888
  y: 0.481123030186
  z: -0.538984060287
---
header: 
  seq: 353
  stamp: 
    secs: 1559008986
    nsecs: 275731611
  frame_id: "imu_link"
vector: 
  x: 0.434355646372
  y: 0.486165046692
  z: -0.573268175125
---
header: 
  seq: 354
  stamp: 
    secs: 1559008986
    nsecs: 323594643
  frame_id: "imu_link"
vector: 
  x: 0.451850235462
  y: 0.472510814667
  z: -0.589615166187
---
header: 
  seq: 355
  stamp: 
    secs: 1559008986
    nsecs: 381980982
  frame_id: "imu_link"
vector: 
  x: 0.4420812428
  y: 0.485792964697
  z: -0.573607087135
---
header: 
  seq: 356
  stamp: 
    secs: 1559008986
