
header: 
  seq: 0
  stamp: 
    secs: 1559011311
    nsecs: 211581800
  frame_id: "imu_link"
vector: 
  x: 0.754747390747
  y: -1.20594346523
  z: -0.857468724251
---
header: 
  seq: 1
  stamp: 
    secs: 1559011311
    nsecs: 263562912
  frame_id: "imu_link"
vector: 
  x: 0.751605153084
  y: -1.20738840103
  z: -0.828036248684
---
header: 
  seq: 2
  stamp: 
    secs: 1559011311
    nsecs: 316524219
  frame_id: "imu_link"
vector: 
  x: 0.755801677704
  y: -1.19548416138
  z: -0.848227977753
---
header: 
  seq: 3
  stamp: 
    secs: 1559011311
    nsecs: 369549932
  frame_id: "imu_link"
vector: 
  x: 0.771347045898
  y: -1.1977083683
  z: -0.856814742088
---
header: 
  seq: 4
  stamp: 
    secs: 1559011311
    nsecs: 422544803
  frame_id: "imu_link"
vector: 
  x: 0.770824849606
  y: -1.17554879189
  z: -0.836766958237
---
header: 
  seq: 5
  stamp: 
    secs: 1559011311
    nsecs: 475543779
  frame_id: "imu_link"
vector: 
  x: 0.794966101646
  y: -1.19600987434
  z: -0.843102455139
---
header: 
  seq: 6
  stamp: 
    secs: 1559011311
    nsecs: 526523898
  frame_id: "imu_link"
vector: 
  x: 0.787946462631
  y: -1.21419632435
  z: -0.854727327824
---
header: 
  seq: 7
  stamp: 
    secs: 1559011311
    nsecs: 576548801
  frame_id: "imu_link"
vector: 
  x: 0.778057456017
  y: -1.20598697662
  z: -0.859617829323
---
header: 
  seq: 8
  stamp: 
    secs: 1559011311
    nsecs: 626544395
  frame_id: "imu_link"
vector: 
  x: 0.765226960182
  y: -1.18651127815
  z: -0.862538695335
---
header: 
  seq: 9
  stamp: 
    secs: 1559011311
    nsecs: 676558109
  frame_id: "imu_link"
vector: 
  x: 0.76850104332
  y: -1.18621695042
  z: -0.862903535366
---
header: 
  seq: 10
  stamp: 
    secs: 1559011311
    nsecs: 727546676
  frame_id: "imu_link"
vector: 
  x: 0.762942790985
  y: -1.18648290634
  z: -0.863056957722
---
header: 
  seq: 11
  stamp: 
    secs: 1559011311
    nsecs: 777548542
  frame_id: "imu_link"
vector: 
  x: 0.757185697556
  y: -1.19529724121
  z: -0.872051239014
---
header: 
  seq: 12
  stamp: 
    secs: 1559011311
    nsecs: 828547128
  frame_id: "imu_link"
vector: 
  x: 0.753649234772
  y: -1.19168591499
  z: -0.859593033791
---
header: 
  seq: 13
  stamp: 
    secs: 1559011311
    nsecs: 878567694
  frame_id: "imu_link"
vector: 
  x: 0.753177881241
  y: -1.18859028816
  z: -0.85272371769
---
header: 
  seq: 14
  stamp: 
    secs: 1559011311
    nsecs: 928552611
  frame_id: "imu_link"
vector: 
  x: 0.749463617802
  y: -1.17897963524
  z: -0.840914487839
---
header: 
  seq: 15
  stamp: 
    secs: 1559011311
    nsecs: 979547612
  frame_id: "imu_link"
vector: 
  x: 0.761869728565
  y: -1.18304872513
  z: -0.853806912899
---
header: 
  seq: 16
  stamp: 
    secs: 1559011312
    nsecs:  29549220
  frame_id: "imu_link"
vector: 
  x: 0.737092494965
  y: -1.19009077549
  z: -0.847399532795
---
header: 
  seq: 17
  stamp: 
    secs: 1559011312
    nsecs:  79572165
  frame_id: "imu_link"
vector: 
  x: 0.735761940479
  y: -1.20437443256
  z: -0.838675558567
---
header: 
  seq: 18
  stamp: 
    secs: 1559011312
    nsecs: 130549529
  frame_id: "imu_link"
vector: 
  x: 0.745125412941
  y: -1.2175617218
  z: -0.843654334545
---
header: 
  seq: 19
  stamp: 
    secs: 1559011312
    nsecs: 180630987
  frame_id: "imu_link"
vector: 
  x: 0.749495625496
  y: -1.21496248245
  z: -0.828169345856
---
header: 
  seq: 20
  stamp: 
    secs: 1559011312
    nsecs: 230758584
  frame_id: "imu_link"
vector: 
  x: 0.727590322495
  y: -1.19268655777
  z: -0.841938972473
---
header: 
  seq: 21
  stamp: 
    secs: 1559011312
    nsecs: 281549426
  frame_id: "imu_link"
vector: 
  x: 0.731862306595
  y: -1.18185949326
  z: -0.854237914085
---
header: 
  seq: 22
  stamp: 
    secs: 1559011312
    nsecs: 331563000
  frame_id: "imu_link"
vector: 
  x: 0.726617693901
  y: -1.17692005634
  z: -0.841531157494
---
header: 
  seq: 23
  stamp: 
    secs: 1559011312
    nsecs: 381587003
  frame_id: "imu_link"
vector: 
  x: 0.738388538361
  y: -1.19921064377
  z: -0.854066371918
---
header: 
  seq: 24
  stamp: 
    secs: 1559011312
    nsecs: 431535251
  frame_id: "imu_link"
vector: 
  x: 0.757210850716
  y: -1.20780801773
  z: -0.859339475632
---
header: 
  seq: 25
  stamp: 
    secs: 1559011312
    nsecs: 485526056
  frame_id: "imu_link"
vector: 
  x: 0.753576278687
  y: -1.18985676765
  z: -0.842272162437
---
header: 
  seq: 26
  stamp: 
    secs: 1559011312
    nsecs: 538530384
  frame_id: "imu_link"
vector: 
  x: 0.749741315842
  y: -1.19650685787
  z: -0.854339361191
---
header: 
  seq: 27
  stamp: 
    secs: 1559011312
    nsecs: 591533500
  frame_id: "imu_link"
vector: 
  x: 0.748023629189
  y: -1.19855284691
  z: -0.841634750366
---
header: 
  seq: 28
  stamp: 
    secs: 1559011312
    nsecs: 641564628
  frame_id: "imu_link"
vector: 
  x: 0.757056951523
  y: -1.20916438103
  z: -0.877091050148
---
header: 
  seq: 29
  stamp: 
    secs: 1559011312
    nsecs: 694538724
  frame_id: "imu_link"
vector: 
  x: 0.765038967133
  y: -1.20388746262
  z: -0.869050323963
---
header: 
  seq: 30
  stamp: 
    secs: 1559011312
    nsecs: 747533706
  frame_id: "imu_link"
vector: 
  x: 0.771808505058
  y: -1.18491411209
  z: -0.856771349907
---
header: 
  seq: 31
  stamp: 
    secs: 1559011312
    nsecs: 797534747
  frame_id: "imu_link"
vector: 
  x: 0.760852694511
  y: -1.17764520645
  z: -0.851564288139
---
header: 
  seq: 32
  stamp: 
    secs: 1559011312
    nsecs: 851528638
  frame_id: "imu_link"
vector: 
  x: 0.761753797531
  y: -1.19284009933
  z: -0.857325077057
---
header: 
  seq: 33
  stamp: 
    secs: 1559011312
    nsecs: 904562354
  frame_id: "imu_link"
vector: 
  x: 0.79131513834
  y: -1.18790626526
  z: -0.869620323181
---
header: 
  seq: 34
  stamp: 
    secs: 1559011312
    nsecs: 957564229
  frame_id: "imu_link"
vector: 
  x: 0.783017754555
  y: -1.17889595032
  z: -0.874795913696
---
header: 
  seq: 35
  stamp: 
    secs: 1559011313
    nsecs:   7534926
  frame_id: "imu_link"
vector: 
  x: 0.76177084446
  y: -1.20172870159
  z: -0.869004368782
---
header: 
  seq: 36
  stamp: 
    secs: 1559011313
    nsecs:  60538121
  frame_id: "imu_link"
vector: 
  x: 0.753091812134
  y: -1.21698141098
  z: -0.847796320915
---
header: 
  seq: 37
  stamp: 
    secs: 1559011313
    nsecs: 114559705
  frame_id: "imu_link"
vector: 
  x: 0.766695559025
  y: -1.21394395828
  z: -0.829941272736
---
header: 
  seq: 38
  stamp: 
    secs: 1559011313
    nsecs: 164541865
  frame_id: "imu_link"
vector: 
  x: 0.769013762474
  y: -1.21324157715
  z: -0.831327080727
---
header: 
  seq: 39
  stamp: 
    secs: 1559011313
    nsecs: 214538230
  frame_id: "imu_link"
vector: 
  x: 0.748863220215
  y: -1.20338344574
  z: -0.852371931076
---
header: 
  seq: 40
  stamp: 
    secs: 1559011313
    nsecs: 267539387
  frame_id: "imu_link"
vector: 
  x: 0.744237303734
  y: -1.20203232765
  z: -0.849701225758
---
header: 
  seq: 41
  stamp: 
    secs: 1559011313
    nsecs: 321563470
  frame_id: "imu_link"
vector: 
  x: 0.752736389637
  y: -1.20938515663
  z: -0.857503652573
---
header: 
  seq: 42
  stamp: 
    secs: 1559011313
    nsecs: 371560596
  frame_id: "imu_link"
vector: 
  x: 0.745894193649
  y: -1.20920395851
  z: -0.849487185478
---
header: 
  seq: 43
  stamp: 
    secs: 1559011313
    nsecs: 421571262
  frame_id: "imu_link"
vector: 
  x: 0.742980957031
  y: -1.20447850227
  z: -0.848483502865
---
header: 
  seq: 44
  stamp: 
    secs: 1559011313
    nsecs: 472563858
  frame_id: "imu_link"
vector: 
  x: 0.734820127487
  y: -1.21100497246
  z: -0.848061263561
---
header: 
  seq: 45
  stamp: 
    secs: 1559011313
    nsecs: 522581627
  frame_id: "imu_link"
vector: 
  x: 0.738129734993
  y: -1.22858572006
  z: -0.847893357277
---
header: 
  seq: 46
  stamp: 
    secs: 1559011313
    nsecs: 572541097
  frame_id: "imu_link"
vector: 
  x: 0.761546552181
  y: -1.180580616
  z: -0.851537942886
---
header: 
  seq: 47
  stamp: 
    secs: 1559011313
    nsecs: 625570900
  frame_id: "imu_link"
vector: 
  x: 0.756605863571
  y: -1.18468356133
  z: -0.867181539536
---
header: 
  seq: 48
  stamp: 
    secs: 1559011313
    nsecs: 676563513
  frame_id: "imu_link"
vector: 
  x: 0.754523277283
  y: -1.20263600349
  z: -0.873775720596
---
header: 
  seq: 49
  stamp: 
    secs: 1559011313
    nsecs: 729608829
  frame_id: "imu_link"
vector: 
  x: 0.757062971592
  y: -1.20151424408
  z: -0.867630064487
---
header: 
  seq: 50
  stamp: 
    secs: 1559011313
    nsecs: 779570469
  frame_id: "imu_link"
vector: 
  x: 0.769902765751
  y: -1.17261505127
  z: -0.867719531059
---
header: 
  seq: 51
  stamp: 
    secs: 1559011313
    nsecs: 830599127
  frame_id: "imu_link"
vector: 
  x: 0.742628693581
  y: -1.16491496563
  z: -0.847223520279
---
header: 
  seq: 52
  stamp: 
    secs: 1559011313
    nsecs: 880587245
  frame_id: "imu_link"
vector: 
  x: 0.738090515137
  y: -1.18566083908
  z: -0.838600933552
---
header: 
  seq: 53
  stamp: 
    secs: 1559011313
    nsecs: 930576800
  frame_id: "imu_link"
vector: 
  x: 0.764020860195
  y: -1.18546950817
  z: -0.852833688259
---
header: 
  seq: 54
  stamp: 
    secs: 1559011313
    nsecs: 981574843
  frame_id: "imu_link"
vector: 
  x: 0.730539083481
  y: -1.19528543949
  z: -0.839741170406
---
header: 
  seq: 55
  stamp: 
    secs: 1559011314
    nsecs:  31549834
  frame_id: "imu_link"
vector: 
  x: 0.743477582932
  y: -1.18196368217
  z: -0.844391047955
---
header: 
  seq: 56
  stamp: 
    secs: 1559011314
    nsecs:  81566948
  frame_id: "imu_link"
vector: 
  x: 0.759351611137
  y: -1.15993070602
  z: -0.855269432068
---
header: 
  seq: 57
  stamp: 
    secs: 1559011314
    nsecs: 132569071
  frame_id: "imu_link"
vector: 
  x: 0.762513041496
  y: -1.17484819889
  z: -0.850915551186
---
header: 
  seq: 58
  stamp: 
    secs: 1559011314
    nsecs: 182576981
  frame_id: "imu_link"
vector: 
  x: 0.767156541348
  y: -1.19599306583
  z: -0.822340905666
---
header: 
  seq: 59
  stamp: 
    secs: 1559011314
    nsecs: 232626441
  frame_id: "imu_link"
vector: 
  x: 0.768438816071
  y: -1.18783605099
  z: -0.851763606071
---
header: 
  seq: 60
  stamp: 
    secs: 1559011314
    nsecs: 283611009
  frame_id: "imu_link"
vector: 
  x: 0.78043949604
  y: -1.17918729782
  z: -0.885266184807
---
header: 
  seq: 61
  stamp: 
    secs: 1559011314
    nsecs: 334587615
  frame_id: "imu_link"
vector: 
  x: 0.785367667675
  y: -1.17479610443
  z: -0.881381511688
---
header: 
  seq: 62
  stamp: 
    secs: 1559011314
    nsecs: 384613710
  frame_id: "imu_link"
vector: 
  x: 0.766362249851
  y: -1.18074309826
  z: -0.8439193964
---
header: 
  seq: 63
  stamp: 
    secs: 1559011314
    nsecs: 434600956
  frame_id: "imu_link"
vector: 
  x: 0.758233249187
  y: -1.21037888527
  z: -0.864966750145
---
header: 
  seq: 64
  stamp: 
    secs: 1559011314
    nsecs: 485576573
  frame_id: "imu_link"
vector: 
  x: 0.762054443359
  y: -1.20417356491
  z: -0.854963421822
---
header: 
  seq: 65
  stamp: 
    secs: 1559011314
    nsecs: 536570724
  frame_id: "imu_link"
vector: 
  x: 0.756697297096
  y: -1.18566501141
  z: -0.85077381134
---
header: 
  seq: 66
  stamp: 
    secs: 1559011314
    nsecs: 586587630
  frame_id: "imu_link"
vector: 
  x: 0.740564405918
  y: -1.18684363365
  z: -0.849021911621
---
header: 
  seq: 67
  stamp: 
    secs: 1559011314
    nsecs: 636587318
  frame_id: "imu_link"
vector: 
  x: 0.74775493145
  y: -1.19796454906
  z: -0.847994863987
---
header: 
  seq: 68
  stamp: 
    secs: 1559011314
    nsecs: 687578844
  frame_id: "imu_link"
vector: 
  x: 0.747181653976
  y: -1.19917440414
  z: -0.838910937309
---
header: 
  seq: 69
  stamp: 
    secs: 1559011314
    nsecs: 737585359
  frame_id: "imu_link"
vector: 
  x: 0.750468313694
  y: -1.20802223682
  z: -0.844050705433
---
header: 
  seq: 70
  stamp: 
    secs: 1559011314
    nsecs: 788595544
  frame_id: "imu_link"
vector: 
  x: 0.748418331146
  y: -1.1878888607
  z: -0.855143904686
---
header: 
  seq: 71
  stamp: 
    secs: 1559011314
    nsecs: 839918999
  frame_id: "imu_link"
vector: 
  x: 0.761108636856
  y: -1.18013072014
  z: -0.869291305542
---
header: 
  seq: 72
  stamp: 
    secs: 1559011314
    nsecs: 888605589
  frame_id: "imu_link"
vector: 
  x: 0.759731054306
  y: -1.18316578865
  z: -0.847816407681
---
header: 
  seq: 73
  stamp: 
    secs: 1559011314
    nsecs: 939576084
  frame_id: "imu_link"
vector: 
  x: 0.755730628967
  y: -1.18501400948
  z: -0.847780585289
---
header: 
  seq: 74
  stamp: 
    secs: 1559011314
    nsecs: 990589793
  frame_id: "imu_link"
vector: 
  x: 0.750619053841
  y: -1.19452106953
  z: -0.856723546982
---
header: 
  seq: 75
  stamp: 
    secs: 1559011315
    nsecs:  40569610
  frame_id: "imu_link"
vector: 
  x: 0.733060121536
  y: -1.19253265858
  z: -0.856569170952
---
header: 
  seq: 76
  stamp: 
    secs: 1559011315
    nsecs:  90580392
  frame_id: "imu_link"
vector: 
  x: 0.730642914772
  y: -1.18158888817
  z: -0.851454496384
---
header: 
  seq: 77
  stamp: 
    secs: 1559011315
    nsecs: 141553102
  frame_id: "imu_link"
vector: 
  x: 0.74009680748
  y: -1.17679357529
  z: -0.858251571655
---
header: 
  seq: 78
  stamp: 
    secs: 1559011315
    nsecs: 197731130
  frame_id: "imu_link"
vector: 
  x: 0.74758708477
  y: -1.19124424458
  z: -0.870048522949
---
header: 
  seq: 79
  stamp: 
    secs: 1559011315
    nsecs: 241594412
  frame_id: "imu_link"
vector: 
  x: 0.737682461739
  y: -1.21469461918
  z: -0.855470299721
---
header: 
  seq: 80
  stamp: 
    secs: 1559011315
    nsecs: 292592407
  frame_id: "imu_link"
vector: 
  x: 0.7465736866
  y: -1.20715284348
  z: -0.868881106377
---
header: 
  seq: 81
  stamp: 
    secs: 1559011315
    nsecs: 342578958
  frame_id: "imu_link"
vector: 
  x: 0.743354141712
  y: -1.2125235796
  z: -0.874519109726
---
header: 
  seq: 82
  stamp: 
    secs: 1559011315
    nsecs: 393588976
  frame_id: "imu_link"
vector: 
  x: 0.748972058296
  y: -1.18989515305
  z: -0.876884102821
---
header: 
  seq: 83
  stamp: 
    secs: 1559011315
    nsecs: 444584176
  frame_id: "imu_link"
vector: 
  x: 0.72155880928
  y: -1.19072818756
  z: -0.860345959663
---
header: 
  seq: 84
  stamp: 
    secs: 1559011315
    nsecs: 494560198
  frame_id: "imu_link"
vector: 
  x: 0.736307144165
  y: -1.19691443443
  z: -0.861986160278
---
header: 
  seq: 85
  stamp: 
    secs: 1559011315
    nsecs: 545573829
  frame_id: "imu_link"
vector: 
  x: 0.745944261551
  y: -1.20710790157
  z: -0.853688836098
---
header: 
  seq: 86
  stamp: 
    secs: 1559011315
    nsecs: 596579496
  frame_id: "imu_link"
vector: 
  x: 0.7290776968
  y: -1.2288184166
  z: -0.850239992142
---
header: 
  seq: 87
  stamp: 
    secs: 1559011315
    nsecs: 646593362
  frame_id: "imu_link"
vector: 
  x: 0.728971004486
  y: -1.22937095165
  z: -0.848793208599
---
header: 
  seq: 88
  stamp: 
    secs: 1559011315
    nsecs: 697584259
  frame_id: "imu_link"
vector: 
  x: 0.759812414646
  y: -1.22814869881
  z: -0.852403998375
---
header: 
  seq: 89
  stamp: 
    secs: 1559011315
    nsecs: 751795419
  frame_id: "imu_link"
vector: 
  x: 0.755752205849
  y: -1.21198248863
  z: -0.849697768688
---
header: 
  seq: 90
  stamp: 
    secs: 1559011315
    nsecs: 798585672
  frame_id: "imu_link"
vector: 
  x: 0.7574903965
  y: -1.20464468002
  z: -0.839594244957
---
header: 
  seq: 91
  stamp: 
    secs: 1559011315
    nsecs: 849586679
  frame_id: "imu_link"
vector: 
  x: 0.761750042439
  y: -1.19360423088
  z: -0.844344377518
---
header: 
  seq: 92
  stamp: 
    secs: 1559011315
    nsecs: 899586324
  frame_id: "imu_link"
vector: 
  x: 0.753910064697
  y: -1.19992828369
  z: -0.863617181778
---
header: 
  seq: 93
  stamp: 
    secs: 1559011315
    nsecs: 950567909
  frame_id: "imu_link"
vector: 
  x: 0.75328630209
  y: -1.19203734398
  z: -0.854398131371
---
header: 
  seq: 94
  stamp: 
    secs: 1559011316
    nsecs:   1584633
  frame_id: "imu_link"
vector: 
  x: 0.766214668751
  y: -1.19588494301
  z: -0.850742161274
---
header: 
  seq: 95
  stamp: 
    secs: 1559011316
    nsecs:  51597592
  frame_id: "imu_link"
vector: 
  x: 0.75834184885
  y: -1.18957519531
  z: -0.831089496613
---
header: 
  seq: 96
  stamp: 
    secs: 1559011316
    nsecs: 102602505
  frame_id: "imu_link"
vector: 
  x: 0.746111214161
  y: -1.16553270817
  z: -0.875470042229
---
header: 
  seq: 97
  stamp: 
    secs: 1559011316
    nsecs: 152596684
  frame_id: "imu_link"
vector: 
  x: 0.750026226044
  y: -1.16948771477
  z: -0.859336853027
---
header: 
  seq: 98
  stamp: 
    secs: 1559011316
    nsecs: 203593124
  frame_id: "imu_link"
vector: 
  x: 0.76206600666
  y: -1.17016816139
  z: -0.84362244606
---
header: 
  seq: 99
  stamp: 
    secs: 1559011316
    nsecs: 254594324
  frame_id: "imu_link"
vector: 
  x: 0.753160476685
  y: -1.17123568058
  z: -0.837055444717
---
header: 
  seq: 100
  stamp: 
    secs: 1559011316
    nsecs: 305595585
  frame_id: "imu_link"
vector: 
  x: 0.747264623642
  y: -1.15997409821
  z: -0.820717811584
---
header: 
  seq: 101
  stamp: 
    secs: 1559011316
    nsecs: 355602138
  frame_id: "imu_link"
vector: 
  x: 0.757492184639
  y: -1.18313467503
  z: -0.836479783058
---
header: 
  seq: 102
  stamp: 
    secs: 1559011316
    nsecs: 406599689
  frame_id: "imu_link"
vector: 
  x: 0.765284061432
  y: -1.201130867
  z: -0.852015197277
---
header: 
  seq: 103
  stamp: 
    secs: 1559011316
    nsecs: 457597709
  frame_id: "imu_link"
vector: 
  x: 0.765006542206
  y: -1.1839454174
  z: -0.849531173706
---
header: 
  seq: 104
  stamp: 
    secs: 1559011316
    nsecs: 507591728
  frame_id: "imu_link"
vector: 
  x: 0.743606805801
  y: -1.20143973827
  z: -0.835571348667
---
header: 
  seq: 105
  stamp: 
    secs: 1559011316
    nsecs: 558596712
  frame_id: "imu_link"
vector: 
  x: 0.745449185371
  y: -1.20062923431
  z: -0.833688020706
---
header: 
  seq: 106
  stamp: 
    secs: 1559011316
    nsecs: 609586463
  frame_id: "imu_link"
vector: 
  x: 0.75328284502
  y: -1.19250690937
  z: -0.850848436356
---
header: 
  seq: 107
  stamp: 
    secs: 1559011316
    nsecs: 660599018
  frame_id: "imu_link"
vector: 
  x: 0.749588012695
  y: -1.18134093285
  z: -0.858019769192
---
header: 
  seq: 108
  stamp: 
    secs: 1559011316
    nsecs: 710612307
  frame_id: "imu_link"
vector: 
  x: 0.76620644331
  y: -1.1812813282
  z: -0.84954726696
---
header: 
  seq: 109
  stamp: 
    secs: 1559011316
    nsecs: 761630029
  frame_id: "imu_link"
vector: 
  x: 0.775365114212
  y: -1.18350958824
  z: -0.857042908669
---
header: 
  seq: 110
  stamp: 
    secs: 1559011316
    nsecs: 812590260
  frame_id: "imu_link"
vector: 
  x: 0.765784680843
  y: -1.1935158968
  z: -0.860608458519
---
header: 
  seq: 111
  stamp: 
    secs: 1559011316
    nsecs: 863240908
  frame_id: "imu_link"
vector: 
  x: 0.754812538624
  y: -1.19808912277
  z: -0.862098455429
---
header: 
  seq: 112
  stamp: 
    secs: 1559011316
    nsecs: 913603841
  frame_id: "imu_link"
vector: 
  x: 0.771502137184
  y: -1.2038346529
  z: -0.854023337364
---
header: 
  seq: 113
  stamp: 
    secs: 1559011316
    nsecs: 963638604
  frame_id: "imu_link"
vector: 
  x: 0.77113878727
  y: -1.20978140831
  z: -0.859346628189
---
header: 
  seq: 114
  stamp: 
    secs: 1559011317
    nsecs:  14599781
  frame_id: "imu_link"
vector: 
  x: 0.760485887527
  y: -1.18798065186
  z: -0.852599382401
---
header: 
  seq: 115
  stamp: 
    secs: 1559011317
    nsecs:  65595330
  frame_id: "imu_link"
vector: 
  x: 0.749781429768
  y: -1.18046450615
  z: -0.866897702217
---
header: 
  seq: 116
  stamp: 
    secs: 1559011317
    nsecs: 116598624
  frame_id: "imu_link"
vector: 
  x: 0.75797522068
  y: -1.20941507816
  z: -0.880290985107
---
header: 
  seq: 117
  stamp: 
    secs: 1559011317
    nsecs: 166628104
  frame_id: "imu_link"
vector: 
  x: 0.761958956718
  y: -1.22010433674
  z: -0.861321568489
---
header: 
  seq: 118
  stamp: 
    secs: 1559011317
    nsecs: 217598365
  frame_id: "imu_link"
vector: 
  x: 0.746147155762
  y: -1.22514843941
  z: -0.844451904297
---
header: 
  seq: 119
  stamp: 
    secs: 1559011317
    nsecs: 270568675
  frame_id: "imu_link"
vector: 
  x: 0.732754528522
  y: -1.20406293869
  z: -0.855277657509
---
header: 
  seq: 120
  stamp: 
    secs: 1559011317
    nsecs: 320591696
  frame_id: "imu_link"
vector: 
  x: 0.772970438004
  y: -1.19736480713
  z: -0.874395132065
---
header: 
  seq: 121
  stamp: 
    secs: 1559011317
    nsecs: 372587811
  frame_id: "imu_link"
vector: 
  x: 0.771666824818
  y: -1.20622313023
  z: -0.850146830082
---
header: 
  seq: 122
  stamp: 
    secs: 1559011317
    nsecs: 426580482
  frame_id: "imu_link"
vector: 
  x: 0.774609804153
  y: -1.20208215714
  z: -0.848769783974
---
header: 
  seq: 123
  stamp: 
    secs: 1559011317
    nsecs: 479594626
  frame_id: "imu_link"
vector: 
  x: 0.769966363907
  y: -1.1616114378
  z: -0.839063763618
---
header: 
  seq: 124
  stamp: 
    secs: 1559011317
    nsecs: 535612115
  frame_id: "imu_link"
vector: 
  x: 0.777394652367
  y: -1.17528772354
  z: -0.852962374687
---
header: 
  seq: 125
  stamp: 
    secs: 1559011317
    nsecs: 585602211
  frame_id: "imu_link"
vector: 
  x: 0.770234465599
  y: -1.17395555973
  z: -0.867734611034
---
header: 
  seq: 126
  stamp: 
    secs: 1559011317
    nsecs: 638576121
  frame_id: "imu_link"
vector: 
  x: 0.753424704075
  y: -1.1741669178
  z: -0.873979091644
---
header: 
  seq: 127
  stamp: 
    secs: 1559011317
    nsecs: 691608662
  frame_id: "imu_link"
vector: 
  x: 0.761904120445
  y: -1.19229567051
  z: -0.865106582642
---
header: 
  seq: 128
  stamp: 
    secs: 1559011317
    nsecs: 744590936
  frame_id: "imu_link"
vector: 
  x: 0.784383535385
  y: -1.17190694809
  z: -0.872876524925
---
header: 
  seq: 129
  stamp: 
    secs: 1559011317
    nsecs: 797616724
  frame_id: "imu_link"
vector: 
  x: 0.783596038818
  y: -1.16423761845
  z: -0.885053753853
---
header: 
  seq: 130
  stamp: 
    secs: 1559011317
    nsecs: 856231072
  frame_id: "imu_link"
vector: 
  x: 0.75895357132
  y: -1.16691637039
  z: -0.870869159698
---
header: 
  seq: 131
  stamp: 
    secs: 1559011317
    nsecs: 900624447
  frame_id: "imu_link"
vector: 
  x: 0.748490571976
  y: -1.17043530941
  z: -0.857498526573
---
header: 
  seq: 132
  stamp: 
    secs: 1559011317
    nsecs: 954763036
  frame_id: "imu_link"
vector: 
  x: 0.744094371796
  y: -1.17191386223
  z: -0.851880550385
---
header: 
  seq: 133
  stamp: 
    secs: 1559011318
    nsecs:   4601975
  frame_id: "imu_link"
vector: 
  x: 0.762940526009
  y: -1.17137646675
  z: -0.849501609802
---
header: 
  seq: 134
  stamp: 
    secs: 1559011318
    nsecs:  57719565
  frame_id: "imu_link"
vector: 
  x: 0.747756659985
  y: -1.21050965786
  z: -0.848067820072
---
header: 
  seq: 135
  stamp: 
    secs: 1559011318
    nsecs: 110976332
  frame_id: "imu_link"
vector: 
  x: 0.754098415375
  y: -1.19598209858
  z: -0.838985741138
---
header: 
  seq: 136
  stamp: 
    secs: 1559011318
    nsecs: 163662248
  frame_id: "imu_link"
vector: 
  x: 0.760273635387
  y: -1.20621299744
  z: -0.844041883945
---
header: 
  seq: 137
  stamp: 
    secs: 1559011318
    nsecs: 213633857
  frame_id: "imu_link"
vector: 
  x: 0.741847991943
  y: -1.20570039749
  z: -0.850852310658
---
header: 
  seq: 138
  stamp: 
    secs: 1559011318
    nsecs: 266614674
  frame_id: "imu_link"
vector: 
  x: 0.72387945652
  y: -1.20284318924
  z: -0.822403788567
---
header: 
  seq: 139
  stamp: 
    secs: 1559011318
    nsecs: 319659975
  frame_id: "imu_link"
vector: 
  x: 0.730086565018
  y: -1.20085430145
  z: -0.810339152813
---
header: 
  seq: 140
  stamp: 
    secs: 1559011318
    nsecs: 369638532
  frame_id: "imu_link"
vector: 
  x: 0.757009506226
  y: -1.19980192184
  z: -0.831912755966
---
header: 
  seq: 141
  stamp: 
    secs: 1559011318
    nsecs: 428173639
  frame_id: "imu_link"
vector: 
  x: 0.756507396698
  y: -1.20010781288
  z: -0.844914376736
---
header: 
  seq: 142
  stamp: 
    secs: 1559011318
    nsecs: 481200753
  frame_id: "imu_link"
vector: 
  x: 0.761398553848
  y: -1.19253838062
  z: -0.864358186722
---
header: 
  seq: 143
  stamp: 
    secs: 1559011318
    nsecs: 529642807
  frame_id: "imu_link"
vector: 
  x: 0.763461709023
  y: -1.18934559822
  z: -0.872559666634
---
header: 
  seq: 144
  stamp: 
    secs: 1559011318
    nsecs: 578609931
  frame_id: "imu_link"
vector: 
  x: 0.761066436768
  y: -1.21724367142
  z: -0.843324124813
---
header: 
  seq: 145
  stamp: 
    secs: 1559011318
    nsecs: 631613643
  frame_id: "imu_link"
vector: 
  x: 0.770126521587
  y: -1.20674133301
  z: -0.845878720284
---
header: 
  seq: 146
  stamp: 
    secs: 1559011318
    nsecs: 685655255
  frame_id: "imu_link"
vector: 
  x: 0.780865192413
  y: -1.18573462963
  z: -0.846960425377
---
header: 
  seq: 147
  stamp: 
    secs: 1559011318
    nsecs: 738608822
  frame_id: "imu_link"
vector: 
  x: 0.795911550522
  y: -1.18548858166
  z: -0.874080777168
---
header: 
  seq: 148
  stamp: 
    secs: 1559011318
    nsecs: 791631419
  frame_id: "imu_link"
vector: 
  x: 0.764261364937
  y: -1.18161845207
  z: -0.855136215687
---
header: 
  seq: 149
  stamp: 
    secs: 1559011318
    nsecs: 844620349
  frame_id: "imu_link"
vector: 
  x: 0.757663428783
  y: -1.17625248432
  z: -0.850873231888
---
header: 
  seq: 150
  stamp: 
    secs: 1559011318
    nsecs: 897602235
  frame_id: "imu_link"
vector: 
  x: 0.768782794476
  y: -1.18206214905
  z: -0.866850018501
---
header: 
  seq: 151
  stamp: 
    secs: 1559011318
    nsecs: 950605816
  frame_id: "imu_link"
vector: 
  x: 0.77489978075
  y: -1.17713415623
  z: -0.867591798306
---
header: 
  seq: 152
  stamp: 
    secs: 1559011319
    nsecs:   4226078
  frame_id: "imu_link"
vector: 
  x: 0.772483825684
  y: -1.18148505688
  z: -0.847267568111
---
header: 
  seq: 153
  stamp: 
    secs: 1559011319
    nsecs:  56835086
  frame_id: "imu_link"
vector: 
  x: 0.771460771561
  y: -1.19949960709
  z: -0.838660955429
---
header: 
  seq: 154
  stamp: 
    secs: 1559011319
    nsecs: 106617150
  frame_id: "imu_link"
vector: 
  x: 0.790312767029
  y: -1.18362927437
  z: -0.88026714325
---
header: 
  seq: 155
  stamp: 
    secs: 1559011319
    nsecs: 159633191
  frame_id: "imu_link"
vector: 
  x: 0.824064850807
  y: -1.1594016552
  z: -0.897043406963
---
header: 
  seq: 156
  stamp: 
    secs: 1559011319
    nsecs: 212637138
  frame_id: "imu_link"
vector: 
  x: 0.807229876518
  y: -1.16586768627
  z: -0.877542555332
---
