
header: 
  seq: 0
  stamp: 
    secs: 1559006719
    nsecs: 128758967
  frame_id: "imu_link"
vector: 
  x: 0.444595694542
  y: 0.482503652573
  z: -0.541538894176
---
header: 
  seq: 1
  stamp: 
    secs: 1559006719
    nsecs: 179778448
  frame_id: "imu_link"
vector: 
  x: 0.434818267822
  y: 0.479591846466
  z: -0.540331244469
---
header: 
  seq: 2
  stamp: 
    secs: 1559006719
    nsecs: 231725829
  frame_id: "imu_link"
vector: 
  x: 0.435931414366
  y: 0.438824594021
  z: -0.564816713333
---
header: 
  seq: 3
  stamp: 
    secs: 1559006719
    nsecs: 282766244
  frame_id: "imu_link"
vector: 
  x: 0.43479719758
  y: 0.444891750813
  z: -0.558995902538
---
header: 
  seq: 4
  stamp: 
    secs: 1559006719
    nsecs: 336758758
  frame_id: "imu_link"
vector: 
  x: 0.423843979836
  y: 0.454646378756
  z: -0.565631508827
---
header: 
  seq: 5
  stamp: 
    secs: 1559006719
    nsecs: 388771452
  frame_id: "imu_link"
vector: 
  x: 0.420549333096
  y: 0.471856027842
  z: -0.569046497345
---
header: 
  seq: 6
  stamp: 
    secs: 1559006719
    nsecs: 439788472
  frame_id: "imu_link"
vector: 
  x: 0.396590948105
  y: 0.465331584215
  z: -0.551558852196
---
header: 
  seq: 7
  stamp: 
    secs: 1559006719
    nsecs: 493757971
  frame_id: "imu_link"
vector: 
  x: 0.415171265602
  y: 0.479167580605
  z: -0.580640792847
---
header: 
  seq: 8
  stamp: 
    secs: 1559006719
    nsecs: 544759192
  frame_id: "imu_link"
vector: 
  x: 0.42230117321
  y: 0.469804078341
  z: -0.574940741062
---
header: 
  seq: 9
  stamp: 
    secs: 1559006719
    nsecs: 593775208
  frame_id: "imu_link"
vector: 
  x: 0.434646606445
  y: 0.469457238913
  z: -0.554581940174
---
header: 
  seq: 10
  stamp: 
    secs: 1559006719
    nsecs: 644764028
  frame_id: "imu_link"
vector: 
  x: 0.437544107437
  y: 0.474286913872
  z: -0.546251416206
---
header: 
  seq: 11
  stamp: 
    secs: 1559006719
    nsecs: 698806602
  frame_id: "imu_link"
vector: 
  x: 0.446117460728
  y: 0.476224303246
  z: -0.560479998589
---
header: 
  seq: 12
  stamp: 
    secs: 1559006719
    nsecs: 749790346
  frame_id: "imu_link"
vector: 
  x: 0.44256862998
  y: 0.468388140202
  z: -0.566245019436
---
header: 
  seq: 13
  stamp: 
    secs: 1559006719
    nsecs: 801788646
  frame_id: "imu_link"
vector: 
  x: 0.411261707544
  y: 0.453341454268
  z: -0.511219322681
---
header: 
  seq: 14
  stamp: 
    secs: 1559006719
    nsecs: 852767580
  frame_id: "imu_link"
vector: 
  x: 0.431621521711
  y: 0.426607966423
  z: -0.536839306355
---
header: 
  seq: 15
  stamp: 
    secs: 1559006719
    nsecs: 903731597
  frame_id: "imu_link"
vector: 
  x: 0.422432392836
  y: 0.464317023754
  z: -0.538388490677
---
header: 
  seq: 16
  stamp: 
    secs: 1559006719
    nsecs: 957791484
  frame_id: "imu_link"
vector: 
  x: 0.410926401615
  y: 0.498191297054
  z: -0.548321962357
---
header: 
  seq: 17
  stamp: 
    secs: 1559006720
    nsecs:   9762254
  frame_id: "imu_link"
vector: 
  x: 0.435043543577
  y: 0.48609021306
  z: -0.561219036579
---
header: 
  seq: 18
  stamp: 
    secs: 1559006720
    nsecs:  63799201
  frame_id: "imu_link"
vector: 
  x: 0.43443018198
  y: 0.489110291004
  z: -0.557508707047
---
header: 
  seq: 19
  stamp: 
    secs: 1559006720
    nsecs: 114800131
  frame_id: "imu_link"
vector: 
  x: 0.420859992504
  y: 0.489546120167
  z: -0.556052982807
---
header: 
  seq: 20
  stamp: 
    secs: 1559006720
    nsecs: 166764737
  frame_id: "imu_link"
vector: 
  x: 0.441579461098
  y: 0.484056591988
  z: -0.537008285522
---
header: 
  seq: 21
  stamp: 
    secs: 1559006720
    nsecs: 217764967
  frame_id: "imu_link"
vector: 
  x: 0.424097001553
  y: 0.48026996851
  z: -0.529869198799
---
header: 
  seq: 22
  stamp: 
    secs: 1559006720
    nsecs: 271796479
  frame_id: "imu_link"
vector: 
  x: 0.419321835041
  y: 0.486500293016
  z: -0.535507142544
---
header: 
  seq: 23
  stamp: 
    secs: 1559006720
    nsecs: 322770961
  frame_id: "imu_link"
vector: 
  x: 0.423277080059
  y: 0.470558136702
  z: -0.555748999119
---
header: 
  seq: 24
  stamp: 
    secs: 1559006720
    nsecs: 374764008
  frame_id: "imu_link"
vector: 
  x: 0.42971777916
  y: 0.465418279171
  z: -0.573476791382
---
header: 
  seq: 25
  stamp: 
    secs: 1559006720
    nsecs: 426773078
  frame_id: "imu_link"
vector: 
  x: 0.407501637936
  y: 0.472121030092
  z: -0.535450279713
---
header: 
  seq: 26
  stamp: 
    secs: 1559006720
    nsecs: 479792696
  frame_id: "imu_link"
vector: 
  x: 0.430067121983
  y: 0.483730196953
  z: -0.546856164932
---
header: 
  seq: 27
  stamp: 
    secs: 1559006720
    nsecs: 527771317
  frame_id: "imu_link"
vector: 
  x: 0.424623697996
  y: 0.442310422659
  z: -0.542350172997
---
header: 
  seq: 28
  stamp: 
    secs: 1559006720
    nsecs: 579797359
  frame_id: "imu_link"
vector: 
  x: 0.412517100573
  y: 0.445734202862
  z: -0.540666639805
---
header: 
  seq: 29
  stamp: 
    secs: 1559006720
    nsecs: 633761312
  frame_id: "imu_link"
vector: 
  x: 0.424476087093
  y: 0.471067845821
  z: -0.54858738184
---
header: 
  seq: 30
  stamp: 
    secs: 1559006720
    nsecs: 684770311
  frame_id: "imu_link"
vector: 
  x: 0.437084197998
  y: 0.491521298885
  z: -0.552286863327
---
header: 
  seq: 31
  stamp: 
    secs: 1559006720
    nsecs: 736805957
  frame_id: "imu_link"
vector: 
  x: 0.439439892769
  y: 0.477712213993
  z: -0.5252430439
---
header: 
  seq: 32
  stamp: 
    secs: 1559006720
    nsecs: 787747195
  frame_id: "imu_link"
vector: 
  x: 0.432785719633
  y: 0.476835101843
  z: -0.551678419113
---
header: 
  seq: 33
  stamp: 
    secs: 1559006720
    nsecs: 841767024
  frame_id: "imu_link"
vector: 
  x: 0.423111319542
  y: 0.450622439384
  z: -0.580690264702
---
header: 
  seq: 34
  stamp: 
    secs: 1559006720
    nsecs: 892773545
  frame_id: "imu_link"
vector: 
  x: 0.407627761364
  y: 0.462620675564
  z: -0.57221019268
---
header: 
  seq: 35
  stamp: 
    secs: 1559006720
    nsecs: 944784810
  frame_id: "imu_link"
vector: 
  x: 0.409150630236
  y: 0.461389988661
  z: -0.58013600111
---
header: 
  seq: 36
  stamp: 
    secs: 1559006720
    nsecs: 998795512
  frame_id: "imu_link"
vector: 
  x: 0.413143187761
  y: 0.462242543697
  z: -0.556286871433
---
header: 
  seq: 37
  stamp: 
    secs: 1559006721
    nsecs:  49773552
  frame_id: "imu_link"
vector: 
  x: 0.421298891306
  y: 0.447473287582
  z: -0.54701590538
---
header: 
  seq: 38
  stamp: 
    secs: 1559006721
    nsecs: 101743044
  frame_id: "imu_link"
vector: 
  x: 0.425224453211
  y: 0.453402876854
  z: -0.51894646883
---
header: 
  seq: 39
  stamp: 
    secs: 1559006721
    nsecs: 152753237
  frame_id: "imu_link"
vector: 
  x: 0.398401230574
  y: 0.450280725956
  z: -0.51285803318
---
header: 
  seq: 40
  stamp: 
    secs: 1559006721
    nsecs: 206800500
  frame_id: "imu_link"
vector: 
  x: 0.411340713501
  y: 0.465496838093
  z: -0.519040882587
---
header: 
  seq: 41
  stamp: 
    secs: 1559006721
    nsecs: 254782842
  frame_id: "imu_link"
vector: 
  x: 0.449160993099
  y: 0.457686960697
  z: -0.531030833721
---
header: 
  seq: 42
  stamp: 
    secs: 1559006721
    nsecs: 309811025
  frame_id: "imu_link"
vector: 
  x: 0.431508600712
  y: 0.47511613369
  z: -0.521334648132
---
header: 
  seq: 43
  stamp: 
    secs: 1559006721
    nsecs: 361811138
  frame_id: "imu_link"
vector: 
  x: 0.419022679329
  y: 0.474781960249
  z: -0.559104681015
---
header: 
  seq: 44
  stamp: 
    secs: 1559006721
    nsecs: 414789045
  frame_id: "imu_link"
vector: 
  x: 0.410399317741
  y: 0.46583199501
  z: -0.583760142326
---
header: 
  seq: 45
  stamp: 
    secs: 1559006721
    nsecs: 466772102
  frame_id: "imu_link"
vector: 
  x: 0.440938949585
  y: 0.492193758488
  z: -0.560244321823
---
header: 
  seq: 46
  stamp: 
    secs: 1559006721
    nsecs: 518771641
  frame_id: "imu_link"
vector: 
  x: 0.436833500862
  y: 0.499923408031
  z: -0.557079672813
---
header: 
  seq: 47
  stamp: 
    secs: 1559006721
    nsecs: 571781498
  frame_id: "imu_link"
vector: 
  x: 0.442192614079
  y: 0.486996918917
  z: -0.555797457695
---
header: 
  seq: 48
  stamp: 
    secs: 1559006721
    nsecs: 619804043
  frame_id: "imu_link"
vector: 
  x: 0.441020488739
  y: 0.481421530247
  z: -0.563801646233
---
header: 
  seq: 49
  stamp: 
    secs: 1559006721
    nsecs: 674755831
  frame_id: "imu_link"
vector: 
  x: 0.436513245106
  y: 0.488853275776
  z: -0.574499905109
---
header: 
  seq: 50
  stamp: 
    secs: 1559006721
    nsecs: 726810395
  frame_id: "imu_link"
vector: 
  x: 0.44187143445
  y: 0.466396987438
  z: -0.580747246742
---
header: 
  seq: 51
  stamp: 
    secs: 1559006721
    nsecs: 776784348
  frame_id: "imu_link"
vector: 
  x: 0.440813362598
  y: 0.439646184444
  z: -0.574623227119
---
header: 
  seq: 52
  stamp: 
    secs: 1559006721
    nsecs: 828775280
  frame_id: "imu_link"
vector: 
  x: 0.453306615353
  y: 0.470714092255
  z: -0.579610168934
---
header: 
  seq: 53
  stamp: 
    secs: 1559006721
    nsecs: 879779111
  frame_id: "imu_link"
vector: 
  x: 0.438518047333
  y: 0.482168644667
  z: -0.574153184891
---
header: 
  seq: 54
  stamp: 
    secs: 1559006721
    nsecs: 931778920
  frame_id: "imu_link"
vector: 
  x: 0.428843975067
  y: 0.478868067265
  z: -0.562855422497
---
header: 
  seq: 55
  stamp: 
    secs: 1559006721
    nsecs: 984754139
  frame_id: "imu_link"
vector: 
  x: 0.428401887417
  y: 0.485594689846
  z: -0.567263185978
---
header: 
  seq: 56
  stamp: 
    secs: 1559006722
    nsecs:  36797869
  frame_id: "imu_link"
vector: 
  x: 0.432228714228
  y: 0.481534034014
  z: -0.566228449345
---
header: 
  seq: 57
  stamp: 
    secs: 1559006722
    nsecs:  87753918
  frame_id: "imu_link"
vector: 
  x: 0.422782182693
  y: 0.461567401886
  z: -0.568621337414
---
header: 
  seq: 58
  stamp: 
    secs: 1559006722
    nsecs: 141784519
  frame_id: "imu_link"
vector: 
  x: 0.432317376137
  y: 0.45454788208
  z: -0.5695515275
---
header: 
  seq: 59
  stamp: 
    secs: 1559006722
    nsecs: 189785503
  frame_id: "imu_link"
vector: 
  x: 0.426280736923
  y: 0.467449963093
  z: -0.560953140259
---
header: 
  seq: 60
  stamp: 
    secs: 1559006722
    nsecs: 244781829
  frame_id: "imu_link"
vector: 
  x: 0.438090026379
  y: 0.492144286633
  z: -0.526632249355
---
header: 
  seq: 61
  stamp: 
    secs: 1559006722
    nsecs: 296795920
  frame_id: "imu_link"
vector: 
  x: 0.439191102982
  y: 0.468036741018
  z: -0.550947666168
---
header: 
  seq: 62
  stamp: 
    secs: 1559006722
    nsecs: 346755204
  frame_id: "imu_link"
vector: 
  x: 0.411516606808
  y: 0.464200973511
  z: -0.544220685959
---
header: 
  seq: 63
  stamp: 
    secs: 1559006722
    nsecs: 397798268
  frame_id: "imu_link"
vector: 
  x: 0.413843512535
  y: 0.440348863602
  z: -0.536304712296
---
header: 
  seq: 64
  stamp: 
    secs: 1559006722
    nsecs: 449789528
  frame_id: "imu_link"
vector: 
  x: 0.436150610447
  y: 0.47118127346
  z: -0.538167476654
---
header: 
  seq: 65
  stamp: 
    secs: 1559006722
    nsecs: 503777399
  frame_id: "imu_link"
vector: 
  x: 0.434887826443
  y: 0.49940007925
  z: -0.547979414463
---
header: 
  seq: 66
  stamp: 
    secs: 1559006722
    nsecs: 554781892
  frame_id: "imu_link"
vector: 
  x: 0.411018788815
  y: 0.509528577328
  z: -0.543247640133
---
header: 
  seq: 67
  stamp: 
    secs: 1559006722
    nsecs: 603783727
  frame_id: "imu_link"
vector: 
  x: 0.407218158245
  y: 0.506913661957
  z: -0.534819960594
---
header: 
  seq: 68
  stamp: 
    secs: 1559006722
    nsecs: 654820434
  frame_id: "imu_link"
vector: 
  x: 0.42285835743
  y: 0.532385706902
  z: -0.510226011276
---
header: 
  seq: 69
  stamp: 
    secs: 1559006722
    nsecs: 708827225
  frame_id: "imu_link"
vector: 
  x: 0.425654917955
  y: 0.50986713171
  z: -0.526363432407
---
header: 
  seq: 70
  stamp: 
    secs: 1559006722
    nsecs: 759777854
  frame_id: "imu_link"
vector: 
  x: 0.412943422794
  y: 0.498340785503
  z: -0.534057855606
---
header: 
  seq: 71
  stamp: 
    secs: 1559006722
    nsecs: 811842971
  frame_id: "imu_link"
vector: 
  x: 0.423381268978
  y: 0.481447905302
  z: -0.533913314342
---
header: 
  seq: 72
  stamp: 
    secs: 1559006722
    nsecs: 862789606
  frame_id: "imu_link"
vector: 
  x: 0.404783368111
  y: 0.495976448059
  z: -0.501011431217
---
header: 
  seq: 73
  stamp: 
    secs: 1559006722
    nsecs: 914439976
  frame_id: "imu_link"
vector: 
  x: 0.40075469017
  y: 0.501015722752
  z: -0.514535784721
---
header: 
  seq: 74
  stamp: 
    secs: 1559006722
    nsecs: 968765158
  frame_id: "imu_link"
vector: 
  x: 0.41946798563
  y: 0.472777724266
  z: -0.550928294659
---
header: 
  seq: 75
  stamp: 
    secs: 1559006723
    nsecs:  19918862
  frame_id: "imu_link"
vector: 
  x: 0.413801074028
  y: 0.475388765335
  z: -0.535040259361
---
header: 
  seq: 76
  stamp: 
    secs: 1559006723
    nsecs:  73799000
  frame_id: "imu_link"
vector: 
  x: 0.432671248913
  y: 0.468628048897
  z: -0.546686589718
---
header: 
  seq: 77
  stamp: 
    secs: 1559006723
    nsecs: 126258887
  frame_id: "imu_link"
vector: 
  x: 0.44326210022
  y: 0.435606837273
  z: -0.542711317539
---
header: 
  seq: 78
  stamp: 
    secs: 1559006723
    nsecs: 173769694
  frame_id: "imu_link"
vector: 
  x: 0.426173567772
  y: 0.468313843012
  z: -0.536294579506
---
header: 
  seq: 79
  stamp: 
    secs: 1559006723
    nsecs: 224774672
  frame_id: "imu_link"
vector: 
  x: 0.437194406986
  y: 0.481451243162
  z: -0.546649336815
---
header: 
  seq: 80
  stamp: 
    secs: 1559006723
    nsecs: 278804556
  frame_id: "imu_link"
vector: 
  x: 0.438879966736
  y: 0.487001895905
  z: -0.560527563095
---
header: 
  seq: 81
  stamp: 
    secs: 1559006723
    nsecs: 327275204
  frame_id: "imu_link"
vector: 
  x: 0.439477920532
  y: 0.498298943043
  z: -0.548180937767
---
header: 
  seq: 82
  stamp: 
    secs: 1559006723
    nsecs: 381790604
  frame_id: "imu_link"
vector: 
  x: 0.422394156456
  y: 0.487894833088
  z: -0.528536140919
---
header: 
  seq: 83
  stamp: 
    secs: 1559006723
    nsecs: 433766200
  frame_id: "imu_link"
vector: 
  x: 0.436338126659
  y: 0.457091808319
  z: -0.544126033783
---
header: 
  seq: 84
  stamp: 
    secs: 1559006723
    nsecs: 483792155
  frame_id: "imu_link"
vector: 
  x: 0.445548474789
  y: 0.436194181442
  z: -0.559484481812
---
header: 
  seq: 85
  stamp: 
    secs: 1559006723
    nsecs: 538807624
  frame_id: "imu_link"
vector: 
  x: 0.429116338491
  y: 0.443170130253
  z: -0.555744826794
---
header: 
  seq: 86
  stamp: 
    secs: 1559006723
    nsecs: 589797722
  frame_id: "imu_link"
vector: 
  x: 0.428419291973
  y: 0.471558272839
  z: -0.5462038517
---
header: 
  seq: 87
  stamp: 
    secs: 1559006723
    nsecs: 643796274
  frame_id: "imu_link"
vector: 
  x: 0.424766540527
  y: 0.490684211254
  z: -0.533879339695
---
header: 
  seq: 88
  stamp: 
    secs: 1559006723
    nsecs: 694842186
  frame_id: "imu_link"
vector: 
  x: 0.419598639011
  y: 0.490805447102
  z: -0.537164866924
---
header: 
  seq: 89
  stamp: 
    secs: 1559006723
    nsecs: 743819009
  frame_id: "imu_link"
vector: 
  x: 0.415079593658
  y: 0.482876718044
  z: -0.543105244637
---
header: 
  seq: 90
  stamp: 
    secs: 1559006723
    nsecs: 794797489
  frame_id: "imu_link"
vector: 
  x: 0.408571690321
  y: 0.470730274916
  z: -0.54097878933
---
header: 
  seq: 91
  stamp: 
    secs: 1559006723
    nsecs: 851634505
  frame_id: "imu_link"
vector: 
  x: 0.423610568047
  y: 0.466271042824
  z: -0.549209237099
---
header: 
  seq: 92
  stamp: 
    secs: 1559006723
    nsecs: 898066068
  frame_id: "imu_link"
vector: 
  x: 0.433165729046
  y: 0.45682311058
  z: -0.543502092361
---
header: 
  seq: 93
  stamp: 
    secs: 1559006723
    nsecs: 951917032
  frame_id: "imu_link"
vector: 
  x: 0.419245302677
  y: 0.469178020954
  z: -0.558309435844
---
header: 
  seq: 94
  stamp: 
    secs: 1559006724
    nsecs:   3803185
  frame_id: "imu_link"
vector: 
  x: 0.42097568512
  y: 0.464495360851
  z: -0.574389576912
---
header: 
  seq: 95
  stamp: 
    secs: 1559006724
    nsecs:  55594564
  frame_id: "imu_link"
vector: 
  x: 0.438269585371
  y: 0.456155329943
  z: -0.572117090225
---
header: 
  seq: 96
  stamp: 
    secs: 1559006724
    nsecs: 108834648
  frame_id: "imu_link"
vector: 
  x: 0.407953202724
  y: 0.467929065228
  z: -0.575920939445
---
header: 
  seq: 97
  stamp: 
    secs: 1559006724
    nsecs: 160125211
  frame_id: "imu_link"
vector: 
  x: 0.419157683849
  y: 0.47177118063
  z: -0.589829683304
---
header: 
  seq: 98
  stamp: 
    secs: 1559006724
    nsecs: 213811190
  frame_id: "imu_link"
vector: 
  x: 0.427961945534
  y: 0.474188476801
  z: -0.587419688702
---
header: 
  seq: 99
  stamp: 
    secs: 1559006724
    nsecs: 265233169
  frame_id: "imu_link"
vector: 
  x: 0.431601524353
  y: 0.491640746593
  z: -0.586423397064
---
header: 
  seq: 100
  stamp: 
    secs: 1559006724
    nsecs: 316839522
  frame_id: "imu_link"
vector: 
  x: 0.433696389198
  y: 0.482424378395
  z: -0.585850000381
---
header: 
  seq: 101
  stamp: 
    secs: 1559006724
    nsecs: 369331933
  frame_id: "imu_link"
vector: 
  x: 0.419828295708
  y: 0.486805617809
  z: -0.5676907897
---
header: 
  seq: 102
  stamp: 
    secs: 1559006724
    nsecs: 418779331
  frame_id: "imu_link"
vector: 
  x: 0.410534739494
  y: 0.488807439804
  z: -0.551142156124
---
header: 
  seq: 103
  stamp: 
    secs: 1559006724
    nsecs: 473836288
  frame_id: "imu_link"
vector: 
  x: 0.412499278784
  y: 0.492935180664
  z: -0.556210637093
---
header: 
  seq: 104
  stamp: 
    secs: 1559006724
    nsecs: 524796208
  frame_id: "imu_link"
vector: 
  x: 0.446375727654
  y: 0.466892361641
  z: -0.591605722904
---
header: 
  seq: 105
  stamp: 
    secs: 1559006724
    nsecs: 579593250
  frame_id: "imu_link"
vector: 
  x: 0.436199128628
  y: 0.464276254177
  z: -0.57974845171
---
header: 
  seq: 106
  stamp: 
    secs: 1559006724
    nsecs: 629800424
  frame_id: "imu_link"
vector: 
  x: 0.427885383368
  y: 0.487924516201
  z: -0.565168499947
---
header: 
  seq: 107
  stamp: 
    secs: 1559006724
    nsecs: 679170351
  frame_id: "imu_link"
vector: 
  x: 0.409640520811
  y: 0.49379709363
  z: -0.565691590309
---
header: 
  seq: 108
  stamp: 
    secs: 1559006724
    nsecs: 729792452
  frame_id: "imu_link"
vector: 
  x: 0.426424980164
  y: 0.507678151131
  z: -0.568237900734
---
header: 
  seq: 109
  stamp: 
    secs: 1559006724
    nsecs: 783775147
  frame_id: "imu_link"
vector: 
  x: 0.434593945742
  y: 0.488685250282
  z: -0.587695598602
---
header: 
  seq: 110
  stamp: 
    secs: 1559006724
    nsecs: 831801280
  frame_id: "imu_link"
vector: 
  x: 0.420199334621
  y: 0.481167256832
  z: -0.568453729153
---
header: 
  seq: 111
  stamp: 
    secs: 1559006724
    nsecs: 886810796
  frame_id: "imu_link"
vector: 
  x: 0.430571138859
  y: 0.491848230362
  z: -0.541335582733
---
header: 
  seq: 112
  stamp: 
    secs: 1559006724
    nsecs: 940226642
  frame_id: "imu_link"
vector: 
  x: 0.414876878262
  y: 0.499894469976
  z: -0.522163510323
---
header: 
  seq: 113
  stamp: 
    secs: 1559006724
    nsecs: 988782518
  frame_id: "imu_link"
vector: 
  x: 0.426093488932
  y: 0.49481678009
  z: -0.541363477707
---
header: 
  seq: 114
  stamp: 
    secs: 1559006725
    nsecs:  43796471
  frame_id: "imu_link"
vector: 
  x: 0.452778816223
  y: 0.471444368362
  z: -0.561351597309
---
header: 
  seq: 115
  stamp: 
    secs: 1559006725
    nsecs:  94816593
  frame_id: "imu_link"
vector: 
  x: 0.455831766129
  y: 0.434179961681
  z: -0.557532072067
---
header: 
  seq: 116
  stamp: 
    secs: 1559006725
    nsecs: 148817889
  frame_id: "imu_link"
vector: 
  x: 0.453646659851
  y: 0.443368852139
  z: -0.547574162483
---
header: 
  seq: 117
  stamp: 
    secs: 1559006725
    nsecs: 199814416
  frame_id: "imu_link"
vector: 
  x: 0.438559830189
  y: 0.463413953781
  z: -0.542826116085
---
header: 
  seq: 118
  stamp: 
    secs: 1559006725
    nsecs: 248796721
  frame_id: "imu_link"
vector: 
  x: 0.433305561543
  y: 0.459907233715
  z: -0.549093782902
---
header: 
  seq: 119
  stamp: 
    secs: 1559006725
    nsecs: 299813556
  frame_id: "imu_link"
vector: 
  x: 0.433687448502
  y: 0.469454526901
  z: -0.552293300629
---
header: 
  seq: 120
  stamp: 
    secs: 1559006725
    nsecs: 354387446
  frame_id: "imu_link"
vector: 
  x: 0.441051363945
  y: 0.48195463419
  z: -0.57206505537
---
header: 
  seq: 121
  stamp: 
    secs: 1559006725
    nsecs: 401808468
  frame_id: "imu_link"
vector: 
  x: 0.444035023451
  y: 0.487019330263
  z: -0.580075979233
---
header: 
  seq: 122
  stamp: 
    secs: 1559006725
    nsecs: 475031712
  frame_id: "imu_link"
vector: 
  x: 0.457577943802
  y: 0.482907891273
  z: -0.572118222713
---
header: 
  seq: 123
  stamp: 
    secs: 1559006725
    nsecs: 508818898
  frame_id: "imu_link"
vector: 
  x: 0.461351275444
  y: 0.471940338612
  z: -0.571056127548
---
header: 
  seq: 124
  stamp: 
    secs: 1559006725
    nsecs: 558837698
  frame_id: "imu_link"
vector: 
  x: 0.439364284277
  y: 0.490853607655
  z: -0.544895589352
---
header: 
  seq: 125
  stamp: 
    secs: 1559006725
    nsecs: 613930199
  frame_id: "imu_link"
vector: 
  x: 0.426618218422
  y: 0.44619679451
  z: -0.585614979267
---
header: 
  seq: 126
  stamp: 
    secs: 1559006725
    nsecs: 664812792
  frame_id: "imu_link"
vector: 
  x: 0.413440436125
  y: 0.454791218042
  z: -0.576635539532
---
header: 
  seq: 127
  stamp: 
    secs: 1559006725
    nsecs: 718854262
  frame_id: "imu_link"
vector: 
  x: 0.40487653017
  y: 0.466777086258
  z: -0.547636985779
---
header: 
  seq: 128
  stamp: 
    secs: 1559006725
    nsecs: 769818227
  frame_id: "imu_link"
vector: 
  x: 0.41861051321
  y: 0.480655193329
  z: -0.561046004295
---
header: 
  seq: 129
  stamp: 
    secs: 1559006725
    nsecs: 821851730
  frame_id: "imu_link"
vector: 
  x: 0.411241829395
  y: 0.481516212225
  z: -0.539028942585
---
header: 
  seq: 130
  stamp: 
    secs: 1559006725
    nsecs: 872830925
  frame_id: "imu_link"
vector: 
  x: 0.421030163765
  y: 0.512089550495
  z: -0.539293646812
---
header: 
  seq: 131
  stamp: 
    secs: 1559006725
    nsecs: 927536495
  frame_id: "imu_link"
vector: 
  x: 0.421614706516
  y: 0.50768995285
  z: -0.548444986343
---
header: 
  seq: 132
  stamp: 
    secs: 1559006725
    nsecs: 978833989
  frame_id: "imu_link"
vector: 
  x: 0.415590465069
  y: 0.493023335934
  z: -0.570309519768
---
header: 
  seq: 133
  stamp: 
    secs: 1559006726
    nsecs:  29811368
  frame_id: "imu_link"
vector: 
  x: 0.429751485586
  y: 0.493337661028
  z: -0.534140944481
---
header: 
  seq: 134
  stamp: 
    secs: 1559006726
    nsecs:  83832647
  frame_id: "imu_link"
vector: 
  x: 0.435753643513
  y: 0.47609692812
  z: -0.537298977375
---
header: 
  seq: 135
  stamp: 
    secs: 1559006726
    nsecs: 138045444
  frame_id: "imu_link"
vector: 
  x: 0.431622684002
  y: 0.45996171236
  z: -0.572512626648
---
header: 
  seq: 136
  stamp: 
    secs: 1559006726
    nsecs: 183829482
  frame_id: "imu_link"
vector: 
  x: 0.430845677853
  y: 0.479557812214
  z: -0.543558835983
---
header: 
  seq: 137
  stamp: 
    secs: 1559006726
    nsecs: 234816109
  frame_id: "imu_link"
vector: 
  x: 0.432600617409
  y: 0.501675724983
  z: -0.549869418144
---
header: 
  seq: 138
  stamp: 
    secs: 1559006726
    nsecs: 288822886
  frame_id: "imu_link"
vector: 
  x: 0.426397800446
  y: 0.519837975502
  z: -0.552816808224
---
header: 
  seq: 139
  stamp: 
    secs: 1559006726
    nsecs: 339827137
  frame_id: "imu_link"
vector: 
  x: 0.406228005886
  y: 0.502068042755
  z: -0.544993400574
---
header: 
  seq: 140
  stamp: 
    secs: 1559006726
    nsecs: 390689971
  frame_id: "imu_link"
vector: 
  x: 0.425901591778
  y: 0.485335528851
  z: -0.561561465263
---
header: 
  seq: 141
  stamp: 
    secs: 1559006726
    nsecs: 439836963
  frame_id: "imu_link"
vector: 
  x: 0.462400376797
  y: 0.505863130093
  z: -0.584775805473
---
header: 
  seq: 142
  stamp: 
    secs: 1559006726
    nsecs: 493814700
  frame_id: "imu_link"
vector: 
  x: 0.466942727566
  y: 0.505919039249
  z: -0.585335075855
---
header: 
  seq: 143
  stamp: 
    secs: 1559006726
    nsecs: 542021863
  frame_id: "imu_link"
vector: 
  x: 0.45211777091
  y: 0.505377411842
  z: -0.577045559883
---
header: 
  seq: 144
  stamp: 
    secs: 1559006726
    nsecs: 597091166
  frame_id: "imu_link"
vector: 
  x: 0.444675683975
  y: 0.449938356876
  z: -0.549637556076
---
header: 
  seq: 145
  stamp: 
    secs: 1559006726
    nsecs: 648824579
  frame_id: "imu_link"
vector: 
  x: 0.438692599535
  y: 0.434771001339
  z: -0.535531878471
---
header: 
  seq: 146
  stamp: 
    secs: 1559006726
    nsecs: 698818264
  frame_id: "imu_link"
vector: 
  x: 0.421794861555
  y: 0.426749765873
  z: -0.52880614996
---
header: 
  seq: 147
  stamp: 
    secs: 1559006726
    nsecs: 753826965
  frame_id: "imu_link"
vector: 
  x: 0.431937038898
  y: 0.454976558685
  z: -0.550488233566
---
header: 
  seq: 148
  stamp: 
    secs: 1559006726
    nsecs: 804819955
  frame_id: "imu_link"
vector: 
  x: 0.446281194687
  y: 0.467985928059
  z: -0.552918553352
---
header: 
  seq: 149
  stamp: 
    secs: 1559006726
    nsecs: 858827618
  frame_id: "imu_link"
vector: 
  x: 0.456582486629
  y: 0.458321273327
  z: -0.545035481453
---
header: 
  seq: 150
  stamp: 
    secs: 1559006726
    nsecs: 906813209
  frame_id: "imu_link"
vector: 
  x: 0.478545367718
  y: 0.462375104427
  z: -0.568902254105
---
header: 
  seq: 151
  stamp: 
    secs: 1559006726
    nsecs: 961817129
  frame_id: "imu_link"
vector: 
  x: 0.45182326436
  y: 0.451977193356
  z: -0.561008274555
---
header: 
  seq: 152
  stamp: 
    secs: 1559006727
    nsecs:  13834969
  frame_id: "imu_link"
vector: 
  x: 0.434541851282
  y: 0.456608742476
  z: -0.593589007854
---
header: 
  seq: 153
  stamp: 
    secs: 1559006727
    nsecs:  63846169
  frame_id: "imu_link"
vector: 
  x: 0.424289822578
  y: 0.467783778906
  z: -0.563741207123
---
header: 
  seq: 154
  stamp: 
    secs: 1559006727
    nsecs: 118861962
  frame_id: "imu_link"
vector: 
  x: 0.420161098242
  y: 0.476905435324
  z: -0.510439515114
---
header: 
  seq: 155
  stamp: 
    secs: 1559006727
    nsecs: 169847747
  frame_id: "imu_link"
vector: 
  x: 0.424655377865
  y: 0.469768434763
  z: -0.509382724762
---
header: 
  seq: 156
  stamp: 
    secs: 1559006727
    nsecs: 223866131
  frame_id: "imu_link"
vector: 
  x: 0.436319708824
  y: 0.467240929604
  z: -0.517482638359
---
header: 
  seq: 157
  stamp: 
    secs: 1559006727
    nsecs: 275787477
  frame_id: "imu_link"
vector: 
  x: 0.434957712889
  y: 0.464865237474
  z: -0.539428532124
---
header: 
  seq: 158
  stamp: 
    secs: 1559006727
    nsecs: 323827708
  frame_id: "imu_link"
vector: 
  x: 0.441277623177
  y: 0.456603944302
  z: -0.552060008049
---
header: 
  seq: 159
  stamp: 
    secs: 1559006727
    nsecs: 374827973
  frame_id: "imu_link"
vector: 
  x: 0.461635351181
  y: 0.486140698195
  z: -0.562764286995
---
header: 
  seq: 160
  stamp: 
    secs: 1559006727
    nsecs: 428831850
  frame_id: "imu_link"
vector: 
  x: 0.459566712379
  y: 0.480917930603
  z: -0.576231122017
---
header: 
  seq: 161
  stamp: 
    secs: 1559006727
    nsecs: 476845328
  frame_id: "imu_link"
vector: 
  x: 0.448810577393
  y: 0.455488234758
  z: -0.57296359539
---
header: 
  seq: 162
  stamp: 
    secs: 1559006727
    nsecs: 531851515
  frame_id: "imu_link"
vector: 
  x: 0.415904760361
  y: 0.491644322872
  z: -0.570761561394
---
header: 
  seq: 163
  stamp: 
    secs: 1559006727
    nsecs: 583866729
  frame_id: "imu_link"
vector: 
  x: 0.422957777977
  y: 0.466917514801
  z: -0.552411556244
---
header: 
  seq: 164
  stamp: 
    secs: 1559006727
    nsecs: 633876549
  frame_id: "imu_link"
vector: 
  x: 0.422345608473
  y: 0.449589908123
  z: -0.536630988121
---
header: 
  seq: 165
  stamp: 
    secs: 1559006727
    nsecs: 688813566
  frame_id: "imu_link"
vector: 
  x: 0.428190529346
  y: 0.469431102276
  z: -0.538993299007
---
header: 
  seq: 166
  stamp: 
    secs: 1559006727
    nsecs: 739841088
  frame_id: "imu_link"
vector: 
  x: 0.447763800621
  y: 0.475747108459
  z: -0.522256612778
---
header: 
  seq: 167
  stamp: 
    secs: 1559006727
    nsecs: 793837325
  frame_id: "imu_link"
vector: 
  x: 0.45729419589
  y: 0.468980133533
  z: -0.550443887711
---
header: 
  seq: 168
  stamp: 
    secs: 1559006727
    nsecs: 849003169
  frame_id: "imu_link"
vector: 
  x: 0.454310297966
  y: 0.473238646984
  z: -0.580179870129
---
header: 
  seq: 169
  stamp: 
    secs: 1559006727
    nsecs: 893848366
  frame_id: "imu_link"
vector: 
  x: 0.447670519352
  y: 0.446032434702
  z: -0.568028211594
---
header: 
  seq: 170
  stamp: 
    secs: 1559006727
    nsecs: 944852732
  frame_id: "imu_link"
vector: 
  x: 0.42560505867
  y: 0.455308616161
  z: -0.560323476791
---
header: 
  seq: 171
  stamp: 
    secs: 1559006727
    nsecs: 998796931
  frame_id: "imu_link"
vector: 
  x: 0.409460961819
  y: 0.45874863863
  z: -0.557138383389
---
header: 
  seq: 172
  stamp: 
    secs: 1559006728
    nsecs:  46948261
  frame_id: "imu_link"
vector: 
  x: 0.41313713789
  y: 0.468013525009
  z: -0.564402878284
---
header: 
  seq: 173
  stamp: 
    secs: 1559006728
    nsecs: 101840642
  frame_id: "imu_link"
vector: 
  x: 0.434035599232
  y: 0.47547018528
  z: -0.565541684628
---
header: 
  seq: 174
  stamp: 
    secs: 1559006728
    nsecs: 153861795
  frame_id: "imu_link"
vector: 
  x: 0.430759429932
  y: 0.475882142782
  z: -0.568170666695
---
header: 
  seq: 175
  stamp: 
    secs: 1559006728
    nsecs: 203840138
  frame_id: "imu_link"
vector: 
  x: 0.425636649132
  y: 0.47626927495
  z: -0.56038236618
---
header: 
  seq: 176
  stamp: 
    secs: 1559006728
    nsecs: 259322925
  frame_id: "imu_link"
vector: 
  x: 0.407167494297
  y: 0.455610513687
  z: -0.559569597244
---
header: 
  seq: 177
  stamp: 
    secs: 1559006728
    nsecs: 309882623
  frame_id: "imu_link"
vector: 
  x: 0.412015855312
  y: 0.459600359201
  z: -0.548487782478
---
header: 
  seq: 178
  stamp: 
    secs: 1559006728
    nsecs: 363842256
  frame_id: "imu_link"
vector: 
  x: 0.449750125408
  y: 0.463508039713
  z: -0.54316008091
---
header: 
  seq: 179
  stamp: 
    secs: 1559006728
    nsecs: 411870060
  frame_id: "imu_link"
vector: 
  x: 0.433289557695
  y: 0.480932444334
  z: -0.513875842094
---
header: 
  seq: 180
  stamp: 
    secs: 1559006728
    nsecs: 470136368
  frame_id: "imu_link"
vector: 
  x: 0.400873214006
  y: 0.456348150969
  z: -0.50610601902
---
header: 
  seq: 181
  stamp: 
    secs: 1559006728
    nsecs: 517867794
  frame_id: "imu_link"
vector: 
  x: 0.413183242083
  y: 0.468970119953
  z: -0.51664185524
---
header: 
  seq: 182
  stamp: 
    secs: 1559006728
    nsecs: 568847118
  frame_id: "imu_link"
vector: 
  x: 0.446836143732
  y: 0.499141871929
  z: -0.557500481606
---
header: 
  seq: 183
  stamp: 
    secs: 1559006728
    nsecs: 622830678
  frame_id: "imu_link"
vector: 
  x: 0.432123303413
  y: 0.472509652376
  z: -0.562406897545
---
header: 
  seq: 184
  stamp: 
    secs: 1559006728
    nsecs: 674882144
  frame_id: "imu_link"
vector: 
  x: 0.405133038759
  y: 0.457238256931
  z: -0.55799973011
---
header: 
  seq: 185
  stamp: 
    secs: 1559006728
    nsecs: 728837266
  frame_id: "imu_link"
vector: 
  x: 0.408060997725
  y: 0.442715466022
  z: -0.590595781803
---
header: 
  seq: 186
  stamp: 
    secs: 1559006728
    nsecs: 779845629
  frame_id: "imu_link"
vector: 
  x: 0.426935374737
  y: 0.461986482143
  z: -0.596778213978
---
header: 
  seq: 187
  stamp: 
    secs: 1559006728
    nsecs: 828877549
  frame_id: "imu_link"
vector: 
  x: 0.419344246387
  y: 0.466991752386
  z: -0.537543773651
---
header: 
  seq: 188
  stamp: 
    secs: 1559006728
    nsecs: 879921475
  frame_id: "imu_link"
vector: 
  x: 0.427841424942
  y: 0.473764657974
  z: -0.529637813568
---
header: 
  seq: 189
  stamp: 
    secs: 1559006728
    nsecs: 933847461
  frame_id: "imu_link"
vector: 
  x: 0.445544540882
  y: 0.493972808123
  z: -0.526342511177
---
header: 
  seq: 190
  stamp: 
    secs: 1559006728
    nsecs: 981848022
  frame_id: "imu_link"
vector: 
  x: 0.438672333956
  y: 0.501371383667
  z: -0.525007367134
---
header: 
  seq: 191
  stamp: 
    secs: 1559006729
    nsecs:  38318904
  frame_id: "imu_link"
vector: 
  x: 0.446831583977
  y: 0.450746804476
  z: -0.56191110611
---
header: 
  seq: 192
  stamp: 
    secs: 1559006729
    nsecs:  88830701
  frame_id: "imu_link"
vector: 
  x: 0.44978749752
  y: 0.450800180435
  z: -0.548752903938
---
header: 
  seq: 193
  stamp: 
    secs: 1559006729
    nsecs: 138828335
  frame_id: "imu_link"
vector: 
  x: 0.454326510429
  y: 0.474062502384
  z: -0.552171826363
---
header: 
  seq: 194
  stamp: 
    secs: 1559006729
    nsecs: 195229056
  frame_id: "imu_link"
vector: 
  x: 0.439717233181
  y: 0.490795999765
  z: -0.545386910439
---
header: 
  seq: 195
  stamp: 
    secs: 1559006729
    nsecs: 245138639
  frame_id: "imu_link"
vector: 
  x: 0.433121085167
  y: 0.461005628109
  z: -0.525123357773
---
header: 
  seq: 196
  stamp: 
    secs: 1559006729
    nsecs: 298875761
  frame_id: "imu_link"
vector: 
  x: 0.437097281218
  y: 0.462872952223
  z: -0.533545255661
---
header: 
  seq: 197
  stamp: 
    secs: 1559006729
    nsecs: 349822448
  frame_id: "imu_link"
vector: 
  x: 0.417673528194
  y: 0.470687448978
  z: -0.537026762962
---
header: 
  seq: 198
  stamp: 
    secs: 1559006729
    nsecs: 399265208
  frame_id: "imu_link"
vector: 
  x: 0.423029899597
  y: 0.47537279129
  z: -0.556193232536
---
header: 
  seq: 199
  stamp: 
    secs: 1559006729
    nsecs: 449847251
  frame_id: "imu_link"
vector: 
  x: 0.425903230906
  y: 0.484870493412
  z: -0.546389222145
---
header: 
  seq: 200
  stamp: 
    secs: 1559006729
    nsecs: 503856897
  frame_id: "imu_link"
vector: 
  x: 0.427091032267
  y: 0.505249738693
  z: -0.542336344719
---
header: 
  seq: 201
  stamp: 
    secs: 1559006729
    nsecs: 551846375
  frame_id: "imu_link"
vector: 
  x: 0.417693674564
  y: 0.48130685091
  z: -0.549263477325
---
header: 
  seq: 202
  stamp: 
    secs: 1559006729
    nsecs: 606855923
  frame_id: "imu_link"
vector: 
  x: 0.42105525732
  y: 0.45255702734
  z: -0.510088205338
---
header: 
  seq: 203
  stamp: 
    secs: 1559006729
    nsecs: 658847686
  frame_id: "imu_link"
vector: 
  x: 0.405035436153
  y: 0.465224921703
  z: -0.526301562786
---
header: 
  seq: 204
  stamp: 
    secs: 1559006729
    nsecs: 708862575
  frame_id: "imu_link"
vector: 
  x: 0.407980173826
  y: 0.455016076565
  z: -0.543074131012
---
header: 
  seq: 205
  stamp: 
    secs: 1559006729
    nsecs: 763893803
  frame_id: "imu_link"
vector: 
  x: 0.428894102573
  y: 0.440318405628
  z: -0.54383212328
---
header: 
  seq: 206
  stamp: 
    secs: 1559006729
    nsecs: 814873799
  frame_id: "imu_link"
vector: 
  x: 0.431641757488
  y: 0.461596190929
  z: -0.532827973366
---
header: 
  seq: 207
  stamp: 
    secs: 1559006729
    nsecs: 869043867
  frame_id: "imu_link"
vector: 
  x: 0.433023899794
  y: 0.470758259296
  z: -0.545772135258
---
header: 
  seq: 208
  stamp: 
    secs: 1559006729
    nsecs: 916870690
  frame_id: "imu_link"
vector: 
  x: 0.433496415615
  y: 0.450642257929
  z: -0.533039331436
---
header: 
  seq: 209
  stamp: 
    secs: 1559006729
    nsecs: 971857022
  frame_id: "imu_link"
vector: 
  x: 0.416260898113
  y: 0.501700639725
  z: -0.534771502018
---
header: 
  seq: 210
  stamp: 
    secs: 1559006730
    nsecs:  23832473
  frame_id: "imu_link"
vector: 
  x: 0.41618129611
  y: 0.511036515236
  z: -0.555617392063
---
header: 
  seq: 211
  stamp: 
    secs: 1559006730
    nsecs:  74559901
  frame_id: "imu_link"
vector: 
  x: 0.416150063276
  y: 0.483469456434
  z: -0.563795924187
---
header: 
  seq: 212
  stamp: 
    secs: 1559006730
    nsecs: 128960982
  frame_id: "imu_link"
vector: 
  x: 0.393351614475
  y: 0.469439774752
  z: -0.521813988686
---
header: 
  seq: 213
  stamp: 
    secs: 1559006730
    nsecs: 179890018
  frame_id: "imu_link"
vector: 
  x: 0.399688392878
  y: 0.464399605989
  z: -0.550260901451
---
header: 
  seq: 214
  stamp: 
    secs: 1559006730
    nsecs: 233866222
  frame_id: "imu_link"
vector: 
  x: 0.422168791294
  y: 0.486968100071
  z: -0.561421513557
---
header: 
  seq: 215
  stamp: 
    secs: 1559006730
    nsecs: 285183924
  frame_id: "imu_link"
vector: 
  x: 0.443054080009
  y: 0.49103847146
  z: -0.539508640766
---
header: 
  seq: 216
  stamp: 
    secs: 1559006730
    nsecs: 336849444
  frame_id: "imu_link"
vector: 
  x: 0.42707708478
  y: 0.483892440796
  z: -0.530982851982
---
header: 
  seq: 217
  stamp: 
    secs: 1559006730
    nsecs: 388837218
  frame_id: "imu_link"
vector: 
  x: 0.431136906147
  y: 0.479975253344
  z: -0.545009315014
---
header: 
  seq: 218
  stamp: 
    secs: 1559006730
    nsecs: 441852530
  frame_id: "imu_link"
vector: 
  x: 0.41174775362
  y: 0.46894556284
  z: -0.550807714462
---
header: 
  seq: 219
  stamp: 
    secs: 1559006730
    nsecs: 493870378
  frame_id: "imu_link"
vector: 
  x: 0.417296648026
  y: 0.440257251263
  z: -0.562726438046
---
header: 
  seq: 220
  stamp: 
    secs: 1559006730
    nsecs: 545677684
  frame_id: "imu_link"
vector: 
  x: 0.437676906586
  y: 0.462140917778
  z: -0.567173659801
---
header: 
  seq: 221
  stamp: 
    secs: 1559006730
    nsecs: 598854314
  frame_id: "imu_link"
vector: 
  x: 0.456586182117
  y: 0.472167313099
  z: -0.559970200062
---
header: 
  seq: 222
  stamp: 
    secs: 1559006730
    nsecs: 650889928
  frame_id: "imu_link"
vector: 
  x: 0.460625648499
  y: 0.484089374542
  z: -0.548562824726
---
header: 
  seq: 223
  stamp: 
    secs: 1559006730
    nsecs: 698890415
  frame_id: "imu_link"
vector: 
  x: 0.430193543434
  y: 0.49057996273
  z: -0.575633525848
---
header: 
  seq: 224
  stamp: 
    secs: 1559006730
    nsecs: 749962452
  frame_id: "imu_link"
vector: 
  x: 0.438895791769
  y: 0.4758425951
  z: -0.56419301033
---
header: 
  seq: 225
  stamp: 
    secs: 1559006730
    nsecs: 803861357
  frame_id: "imu_link"
vector: 
  x: 0.435899198055
  y: 0.494025945663
  z: -0.540459275246
---
header: 
  seq: 226
  stamp: 
    secs: 1559006730
    nsecs: 851919423
  frame_id: "imu_link"
vector: 
  x: 0.438344538212
  y: 0.508653104305
  z: -0.55796867609
---
header: 
  seq: 227
  stamp: 
    secs: 1559006730
    nsecs: 906863143
  frame_id: "imu_link"
vector: 
  x: 0.428650259972
  y: 0.478803664446
  z: -0.571535468102
---
header: 
  seq: 228
  stamp: 
    secs: 1559006730
    nsecs: 958835436
  frame_id: "imu_link"
vector: 
  x: 0.42140173912
  y: 0.500795185566
  z: -0.588898897171
---
header: 
  seq: 229
  stamp: 
    secs: 1559006731
    nsecs:   8871211
  frame_id: "imu_link"
vector: 
  x: 0.414745807648
  y: 0.486173391342
  z: -0.568951249123
---
header: 
  seq: 230
  stamp: 
    secs: 1559006731
    nsecs:  63859571
  frame_id: "imu_link"
vector: 
  x: 0.41363120079
  y: 0.458536267281
  z: -0.550375044346
---
header: 
  seq: 231
  stamp: 
    secs: 1559006731
    nsecs: 114909284
  frame_id: "imu_link"
vector: 
  x: 0.418556034565
  y: 0.452645719051
  z: -0.553025901318
---
header: 
  seq: 232
  stamp: 
    secs: 1559006731
    nsecs: 168874590
  frame_id: "imu_link"
vector: 
  x: 0.413959741592
  y: 0.464726775885
  z: -0.571061611176
---
header: 
  seq: 233
  stamp: 
    secs: 1559006731
    nsecs: 220863881
  frame_id: "imu_link"
vector: 
  x: 0.42225253582
  y: 0.471467077732
  z: -0.570619344711
---
header: 
  seq: 234
  stamp: 
    secs: 1559006731
    nsecs: 268848061
  frame_id: "imu_link"
vector: 
  x: 0.412913203239
  y: 0.462660551071
  z: -0.544801592827
---
header: 
  seq: 235
  stamp: 
    secs: 1559006731
    nsecs: 319874967
  frame_id: "imu_link"
vector: 
  x: 0.414513856173
  y: 0.440076470375
  z: -0.524676442146
---
header: 
  seq: 236
  stamp: 
    secs: 1559006731
    nsecs: 373889529
  frame_id: "imu_link"
vector: 
  x: 0.418723315001
  y: 0.438340097666
  z: -0.506234884262
---
header: 
  seq: 237
  stamp: 
    secs: 1559006731
    nsecs: 421851874
  frame_id: "imu_link"
vector: 
  x: 0.410077929497
  y: 0.444092869759
  z: -0.525736927986
---
header: 
  seq: 238
  stamp: 
    secs: 1559006731
    nsecs: 476867817
  frame_id: "imu_link"
vector: 
  x: 0.4108902812
  y: 0.466437458992
  z: -0.558531463146
---
header: 
  seq: 239
  stamp: 
    secs: 1559006731
    nsecs: 528881657
  frame_id: "imu_link"
vector: 
  x: 0.396235108376
  y: 0.487809658051
  z: -0.556379973888
---
header: 
  seq: 240
  stamp: 
    secs: 1559006731
    nsecs: 579020572
  frame_id: "imu_link"
vector: 
  x: 0.397162109613
  y: 0.481581687927
  z: -0.53855496645
---
header: 
  seq: 241
  stamp: 
    secs: 1559006731
    nsecs: 633843022
  frame_id: "imu_link"
vector: 
  x: 0.416305601597
  y: 0.465854883194
  z: -0.548363924026
---
header: 
  seq: 242
  stamp: 
    secs: 1559006731
    nsecs: 687490499
  frame_id: "imu_link"
vector: 
  x: 0.409177303314
  y: 0.462917685509
  z: -0.561236381531
---
header: 
  seq: 243
  stamp: 
    secs: 1559006731
    nsecs: 738910519
  frame_id: "imu_link"
vector: 
  x: 0.409666121006
  y: 0.462320804596
  z: -0.55770534277
---
header: 
  seq: 244
  stamp: 
    secs: 1559006731
    nsecs: 791142863
  frame_id: "imu_link"
vector: 
  x: 0.423939406872
  y: 0.462831318378
  z: -0.556056141853
---
header: 
  seq: 245
  stamp: 
    secs: 1559006731
    nsecs: 838872013
  frame_id: "imu_link"
vector: 
  x: 0.428984820843
  y: 0.48210772872
  z: -0.555109381676
---
header: 
  seq: 246
  stamp: 
    secs: 1559006731
    nsecs: 890886974
  frame_id: "imu_link"
vector: 
  x: 0.431925535202
  y: 0.512143433094
  z: -0.554983019829
---
header: 
  seq: 247
  stamp: 
    secs: 1559006731
    nsecs: 943894574
  frame_id: "imu_link"
vector: 
  x: 0.429561138153
  y: 0.508265733719
  z: -0.545813560486
---
header: 
  seq: 248
  stamp: 
    secs: 1559006731
    nsecs: 991877419
  frame_id: "imu_link"
vector: 
  x: 0.402152657509
  y: 0.47509008646
  z: -0.525314688683
---
header: 
  seq: 249
  stamp: 
    secs: 1559006732
    nsecs:  46916546
  frame_id: "imu_link"
vector: 
  x: 0.407890558243
  y: 0.468659698963
  z: -0.555143177509
---
header: 
  seq: 250
  stamp: 
    secs: 1559006732
    nsecs:  98874478
  frame_id: "imu_link"
vector: 
  x: 0.4091604352
  y: 0.505794942379
  z: -0.554996967316
---
header: 
  seq: 251
  stamp: 
    secs: 1559006732
    nsecs: 148876869
  frame_id: "imu_link"
vector: 
  x: 0.433032214642
  y: 0.505691945553
  z: -0.563520908356
---
header: 
  seq: 252
  stamp: 
    secs: 1559006732
    nsecs: 203851347
  frame_id: "imu_link"
vector: 
  x: 0.444531828165
  y: 0.488060534
  z: -0.543588519096
---
header: 
  seq: 253
  stamp: 
    secs: 1559006732
    nsecs: 255874289
  frame_id: "imu_link"
vector: 
  x: 0.442069351673
  y: 0.489634275436
  z: -0.558327496052
---
header: 
  seq: 254
  stamp: 
    secs: 1559006732
    nsecs: 308878786
  frame_id: "imu_link"
vector: 
  x: 0.458401978016
  y: 0.491759240627
  z: -0.556313335896
---
header: 
  seq: 255
  stamp: 
    secs: 1559006732
    nsecs: 356891897
  frame_id: "imu_link"
vector: 
  x: 0.433404326439
  y: 0.492025822401
  z: -0.528355121613
---
header: 
  seq: 256
  stamp: 
    secs: 1559006732
    nsecs: 411873668
  frame_id: "imu_link"
vector: 
  x: 0.426844328642
  y: 0.452867418528
  z: -0.521304965019
---
header: 
  seq: 257
  stamp: 
    secs: 1559006732
    nsecs: 463871580
  frame_id: "imu_link"
vector: 
  x: 0.416798114777
  y: 0.45145958662
  z: -0.504841208458
---
header: 
  seq: 258
  stamp: 
    secs: 1559006732
    nsecs: 513883652
  frame_id: "imu_link"
vector: 
  x: 0.412743926048
  y: 0.466554641724
  z: -0.516119003296
---
header: 
  seq: 259
  stamp: 
    secs: 1559006732
    nsecs: 568868764
  frame_id: "imu_link"
vector: 
  x: 0.451125860214
  y: 0.445347487926
  z: -0.547706902027
---
header: 
  seq: 260
  stamp: 
    secs: 1559006732
    nsecs: 620880150
  frame_id: "imu_link"
vector: 
  x: 0.462137520313
  y: 0.457877576351
  z: -0.533724248409
---
header: 
  seq: 261
  stamp: 
    secs: 1559006732
    nsecs: 674071242
  frame_id: "imu_link"
vector: 
  x: 0.466240108013
  y: 0.463381290436
  z: -0.5113915205
---
header: 
  seq: 262
  stamp: 
    secs: 1559006732
    nsecs: 725889831
  frame_id: "imu_link"
vector: 
  x: 0.45068949461
  y: 0.45640450716
  z: -0.509784936905
---
header: 
  seq: 263
  stamp: 
    secs: 1559006732
    nsecs: 773866824
  frame_id: "imu_link"
vector: 
  x: 0.438843548298
  y: 0.469575196505
  z: -0.550981342793
---
header: 
  seq: 264
  stamp: 
    secs: 1559006732
    nsecs: 825889298
  frame_id: "imu_link"
vector: 
  x: 0.443058162928
  y: 0.482786357403
  z: -0.553295493126
---
header: 
  seq: 265
  stamp: 
    secs: 1559006732
    nsecs: 878870325
  frame_id: "imu_link"
vector: 
  x: 0.441205143929
  y: 0.496556282043
  z: -0.545191287994
---
header: 
  seq: 266
  stamp: 
    secs: 1559006732
    nsecs: 927877527
  frame_id: "imu_link"
vector: 
  x: 0.426394164562
  y: 0.485006392002
  z: -0.541841089725
---
header: 
  seq: 267
  stamp: 
    secs: 1559006732
    nsecs: 982882127
  frame_id: "imu_link"
vector: 
  x: 0.442382216454
  y: 0.464510500431
  z: -0.552502036095
---
header: 
  seq: 268
  stamp: 
    secs: 1559006733
    nsecs:  34577069
  frame_id: "imu_link"
vector: 
  x: 0.437365055084
  y: 0.439833015203
  z: -0.535821437836
---
header: 
  seq: 269
  stamp: 
    secs: 1559006733
    nsecs:  83861327
  frame_id: "imu_link"
vector: 
  x: 0.425462722778
  y: 0.43004822731
  z: -0.520834445953
---
header: 
  seq: 270
  stamp: 
    secs: 1559006733
    nsecs: 140895378
  frame_id: "imu_link"
vector: 
  x: 0.417680054903
  y: 0.453062266111
  z: -0.554377555847
---
header: 
  seq: 271
  stamp: 
    secs: 1559006733
    nsecs: 191233311
  frame_id: "imu_link"
vector: 
  x: 0.416908204556
  y: 0.472649663687
  z: -0.580408871174
---
header: 
  seq: 272
  stamp: 
    secs: 1559006733
    nsecs: 243870680
  frame_id: "imu_link"
vector: 
  x: 0.434153318405
  y: 0.474170267582
  z: -0.601608991623
---
header: 
  seq: 273
  stamp: 
    secs: 1559006733
    nsecs: 295898584
  frame_id: "imu_link"
vector: 
  x: 0.430501520634
  y: 0.467920392752
  z: -0.565163493156
---
header: 
  seq: 274
  stamp: 
    secs: 1559006733
    nsecs: 343885191
  frame_id: "imu_link"
vector: 
  x: 0.421330869198
  y: 0.469545841217
  z: -0.510426640511
---
header: 
  seq: 275
  stamp: 
    secs: 1559006733
    nsecs: 395893363
  frame_id: "imu_link"
vector: 
  x: 0.386428952217
  y: 0.481455206871
  z: -0.500344216824
---
header: 
  seq: 276
  stamp: 
    secs: 1559006733
    nsecs: 448888235
  frame_id: "imu_link"
vector: 
  x: 0.386144697666
  y: 0.478165209293
  z: -0.514259934425
---
header: 
  seq: 277
  stamp: 
    secs: 1559006733
    nsecs: 503939056
  frame_id: "imu_link"
vector: 
  x: 0.399241507053
  y: 0.477628409863
  z: -0.519669473171
---
header: 
  seq: 278
  stamp: 
    secs: 1559006733
    nsecs: 553244706
  frame_id: "imu_link"
vector: 
  x: 0.442062497139
  y: 0.498249232769
  z: -0.541398763657
---
header: 
  seq: 279
  stamp: 
    secs: 1559006733
    nsecs: 604877581
  frame_id: "imu_link"
vector: 
  x: 0.44761672616
  y: 0.502347171307
  z: -0.557493209839
---
header: 
  seq: 280
  stamp: 
    secs: 1559006733
    nsecs: 654893280
  frame_id: "imu_link"
vector: 
  x: 0.443089604378
  y: 0.496416032314
  z: -0.546926617622
---
header: 
  seq: 281
  stamp: 
    secs: 1559006733
    nsecs: 708919060
  frame_id: "imu_link"
vector: 
  x: 0.451841950417
  y: 0.47357583046
  z: -0.544490456581
---
header: 
  seq: 282
  stamp: 
    secs: 1559006733
    nsecs: 760897768
  frame_id: "imu_link"
vector: 
  x: 0.448509454727
  y: 0.468948125839
  z: -0.533223986626
---
header: 
  seq: 283
  stamp: 
    secs: 1559006733
    nsecs: 813905737
  frame_id: "imu_link"
vector: 
  x: 0.43992626667
  y: 0.490426898003
  z: -0.54604113102
---
header: 
  seq: 284
  stamp: 
    secs: 1559006733
    nsecs: 862970929
  frame_id: "imu_link"
vector: 
  x: 0.429327309132
  y: 0.499510854483
  z: -0.533150553703
---
header: 
  seq: 285
  stamp: 
    secs: 1559006733
    nsecs: 917910106
  frame_id: "imu_link"
vector: 
  x: 0.430501103401
  y: 0.472191512585
  z: -0.56894749403
---
header: 
  seq: 286
  stamp: 
    secs: 1559006733
    nsecs: 969894642
  frame_id: "imu_link"
vector: 
  x: 0.443135499954
  y: 0.475342154503
  z: -0.569745361805
---
header: 
  seq: 287
  stamp: 
    secs: 1559006734
    nsecs:  19890452
  frame_id: "imu_link"
vector: 
  x: 0.438048303127
  y: 0.484192162752
  z: -0.561477065086
---
header: 
  seq: 288
  stamp: 
    secs: 1559006734
    nsecs:  86630272
  frame_id: "imu_link"
vector: 
  x: 0.445849061012
  y: 0.477358072996
  z: -0.516113698483
---
header: 
  seq: 289
  stamp: 
    secs: 1559006734
    nsecs: 125891111
  frame_id: "imu_link"
vector: 
  x: 0.445721924305
  y: 0.487447112799
  z: -0.502695202827
---
header: 
  seq: 290
  stamp: 
    secs: 1559006734
    nsecs: 179899621
  frame_id: "imu_link"
vector: 
  x: 0.432436287403
  y: 0.474304944277
  z: -0.514593243599
---
header: 
  seq: 291
  stamp: 
    secs: 1559006734
    nsecs: 230878924
  frame_id: "imu_link"
vector: 
  x: 0.40160292387
  y: 0.45072054863
  z: -0.511108517647
---
header: 
  seq: 292
  stamp: 
    secs: 1559006734
    nsecs: 282892881
  frame_id: "imu_link"
vector: 
  x: 0.406905919313
  y: 0.468708068132
  z: -0.517216205597
---
header: 
  seq: 293
  stamp: 
    secs: 1559006734
    nsecs: 333869401
  frame_id: "imu_link"
vector: 
  x: 0.426260232925
  y: 0.48251003027
  z: -0.530276536942
---
header: 
  seq: 294
  stamp: 
    secs: 1559006734
    nsecs: 384941520
  frame_id: "imu_link"
vector: 
  x: 0.427436232567
  y: 0.494495481253
  z: -0.571842908859
---
header: 
  seq: 295
  stamp: 
    secs: 1559006734
    nsecs: 442855581
  frame_id: "imu_link"
vector: 
  x: 0.412572383881
  y: 0.495000481606
  z: -0.574136376381
---
header: 
  seq: 296
  stamp: 
    secs: 1559006734
    nsecs: 490939496
  frame_id: "imu_link"
vector: 
  x: 0.400512754917
  y: 0.491800457239
  z: -0.55380666256
---
header: 
  seq: 297
  stamp: 
    secs: 1559006734
    nsecs: 544895712
  frame_id: "imu_link"
vector: 
  x: 0.41659489274
  y: 0.458755552769
  z: -0.54540258646
---
header: 
  seq: 298
  stamp: 
    secs: 1559006734
    nsecs: 595915142
  frame_id: "imu_link"
vector: 
  x: 0.439613223076
  y: 0.469781398773
  z: -0.550686717033
---
header: 
  seq: 299
  stamp: 
    secs: 1559006734
    nsecs: 647903587
  frame_id: "imu_link"
vector: 
  x: 0.459282279015
  y: 0.483169823885
  z: -0.575996518135
---
header: 
  seq: 300
  stamp: 
    secs: 1559006734
    nsecs: 698899997
  frame_id: "imu_link"
vector: 
  x: 0.435475707054
  y: 0.478963375092
  z: -0.572858333588
---
header: 
  seq: 301
  stamp: 
    secs: 1559006734
    nsecs: 753680257
  frame_id: "imu_link"
vector: 
  x: 0.431048184633
  y: 0.486354798079
  z: -0.553278326988
---
header: 
  seq: 302
  stamp: 
    secs: 1559006734
    nsecs: 800899858
  frame_id: "imu_link"
vector: 
  x: 0.4505443573
  y: 0.489846915007
  z: -0.56335067749
---
header: 
  seq: 303
  stamp: 
    secs: 1559006734
    nsecs: 859833280
  frame_id: "imu_link"
vector: 
  x: 0.443606108427
  y: 0.482894420624
  z: -0.573072314262
---
header: 
  seq: 304
  stamp: 
    secs: 1559006734
    nsecs: 907922135
  frame_id: "imu_link"
vector: 
  x: 0.437969833612
  y: 0.479562699795
  z: -0.56240862608
---
header: 
  seq: 305
  stamp: 
    secs: 1559006734
    nsecs: 963978509
  frame_id: "imu_link"
vector: 
  x: 0.417935431004
  y: 0.478362798691
  z: -0.530874848366
---
header: 
  seq: 306
  stamp: 
    secs: 1559006735
    nsecs:  12917586
  frame_id: "imu_link"
vector: 
  x: 0.409262657166
  y: 0.460598349571
  z: -0.530855417252
---
header: 
  seq: 307
  stamp: 
    secs: 1559006735
    nsecs:  81005864
  frame_id: "imu_link"
vector: 
  x: 0.427483022213
  y: 0.461939573288
  z: -0.554190278053
---
header: 
  seq: 308
  stamp: 
    secs: 1559006735
    nsecs: 117934820
  frame_id: "imu_link"
vector: 
  x: 0.444284141064
  y: 0.478843837976
  z: -0.5545784235
---
header: 
  seq: 309
  stamp: 
    secs: 1559006735
    nsecs: 165893767
  frame_id: "imu_link"
vector: 
  x: 0.431227654219
  y: 0.469267100096
  z: -0.554763436317
---
header: 
  seq: 310
  stamp: 
    secs: 1559006735
    nsecs: 220998611
  frame_id: "imu_link"
vector: 
  x: 0.428413927555
  y: 0.495929121971
  z: -0.545755147934
---
header: 
  seq: 311
  stamp: 
    secs: 1559006735
    nsecs: 272911171
  frame_id: "imu_link"
vector: 
  x: 0.441446125507
  y: 0.493533432484
  z: -0.559298932552
---
header: 
  seq: 312
  stamp: 
    secs: 1559006735
    nsecs: 328007969
  frame_id: "imu_link"
vector: 
  x: 0.423130750656
  y: 0.47416895628
  z: -0.574798583984
---
header: 
  seq: 313
  stamp: 
    secs: 1559006735
    nsecs: 373927091
  frame_id: "imu_link"
vector: 
  x: 0.422337949276
  y: 0.44220238924
  z: -0.550080657005
---
header: 
  seq: 314
  stamp: 
    secs: 1559006735
    nsecs: 425891739
  frame_id: "imu_link"
vector: 
  x: 0.450476467609
  y: 0.464104950428
  z: -0.552927613258
---
header: 
  seq: 315
  stamp: 
    secs: 1559006735
    nsecs: 479874008
  frame_id: "imu_link"
vector: 
  x: 0.430226802826
  y: 0.479817867279
  z: -0.545039236546
---
header: 
  seq: 316
  stamp: 
    secs: 1559006735
    nsecs: 530918990
  frame_id: "imu_link"
vector: 
  x: 0.409147709608
  y: 0.469712078571
  z: -0.541972756386
---
header: 
  seq: 317
  stamp: 
    secs: 1559006735
    nsecs: 580809930
  frame_id: "imu_link"
vector: 
  x: 0.413222432137
  y: 0.468272715807
  z: -0.518084645271
---
header: 
  seq: 318
  stamp: 
    secs: 1559006735
    nsecs: 630913006
  frame_id: "imu_link"
vector: 
  x: 0.449938863516
  y: 0.450607955456
  z: -0.530635535717
---
header: 
  seq: 319
  stamp: 
    secs: 1559006735
    nsecs: 684916282
  frame_id: "imu_link"
vector: 
  x: 0.464437603951
  y: 0.450748562813
  z: -0.552722215652
---
header: 
  seq: 320
  stamp: 
    secs: 1559006735
    nsecs: 736683850
  frame_id: "imu_link"
vector: 
  x: 0.450141966343
  y: 0.457856804132
  z: -0.563038051128
---
header: 
  seq: 321
  stamp: 
    secs: 1559006735
    nsecs: 784947427
  frame_id: "imu_link"
vector: 
  x: 0.419113814831
  y: 0.466881811619
  z: -0.510230541229
---
header: 
  seq: 322
  stamp: 
    secs: 1559006735
    nsecs: 835913887
  frame_id: "imu_link"
vector: 
  x: 0.434898346663
  y: 0.44099521637
  z: -0.518414139748
---
header: 
  seq: 323
  stamp: 
    secs: 1559006735
    nsecs: 889906944
  frame_id: "imu_link"
vector: 
  x: 0.423786997795
  y: 0.42913210392
  z: -0.53077173233
---
header: 
  seq: 324
  stamp: 
    secs: 1559006735
    nsecs: 937914313
  frame_id: "imu_link"
vector: 
  x: 0.426071286201
  y: 0.44036334753
  z: -0.535575568676
---
header: 
  seq: 325
  stamp: 
    secs: 1559006735
    nsecs: 992910998
  frame_id: "imu_link"
vector: 
  x: 0.447560548782
  y: 0.44004535675
  z: -0.556896686554
---
header: 
  seq: 326
  stamp: 
    secs: 1559006736
    nsecs:  44913696
  frame_id: "imu_link"
vector: 
  x: 0.414706468582
  y: 0.444439291954
  z: -0.546595335007
---
header: 
  seq: 327
  stamp: 
    secs: 1559006736
    nsecs:  94914154
  frame_id: "imu_link"
vector: 
  x: 0.398840516806
  y: 0.469500333071
  z: -0.534167766571
---
header: 
  seq: 328
  stamp: 
    secs: 1559006736
    nsecs: 149921753
  frame_id: "imu_link"
vector: 
  x: 0.44402474165
  y: 0.472524106503
  z: -0.538572371006
---
header: 
  seq: 329
  stamp: 
    secs: 1559006736
    nsecs: 201915563
  frame_id: "imu_link"
vector: 
  x: 0.451772034168
  y: 0.460269719362
  z: -0.547659099102
---
header: 
  seq: 330
  stamp: 
    secs: 1559006736
    nsecs: 254898721
  frame_id: "imu_link"
vector: 
  x: 0.441345512867
  y: 0.453756928444
  z: -0.551903128624
---
header: 
  seq: 331
  stamp: 
    secs: 1559006736
    nsecs: 302918862
  frame_id: "imu_link"
vector: 
  x: 0.429914027452
  y: 0.451445937157
  z: -0.535573840141
---
header: 
  seq: 332
  stamp: 
    secs: 1559006736
    nsecs: 357958930
  frame_id: "imu_link"
vector: 
  x: 0.415043532848
  y: 0.502946853638
  z: -0.54076820612
---
header: 
  seq: 333
  stamp: 
    secs: 1559006736
    nsecs: 409932739
  frame_id: "imu_link"
vector: 
  x: 0.401422351599
  y: 0.478430986404
  z: -0.540006399155
---
header: 
  seq: 334
  stamp: 
    secs: 1559006736
    nsecs: 459931910
  frame_id: "imu_link"
vector: 
  x: 0.409346997738
  y: 0.462826251984
  z: -0.52271091938
---
header: 
  seq: 335
  stamp: 
    secs: 1559006736
    nsecs: 514912529
  frame_id: "imu_link"
vector: 
  x: 0.463360965252
  y: 0.462738573551
  z: -0.602079093456
---
header: 
  seq: 336
  stamp: 
    secs: 1559006736
    nsecs: 566978103
  frame_id: "imu_link"
vector: 
  x: 0.435651957989
  y: 0.470250546932
  z: -0.583441615105
---
header: 
  seq: 337
  stamp: 
    secs: 1559006736
    nsecs: 619923192
  frame_id: "imu_link"
vector: 
  x: 0.431351840496
  y: 0.466501265764
  z: -0.558966994286
---
header: 
  seq: 338
  stamp: 
    secs: 1559006736
    nsecs: 671939573
  frame_id: "imu_link"
vector: 
  x: 0.457532167435
  y: 0.457326173782
  z: -0.565619587898
---
header: 
  seq: 339
  stamp: 
    secs: 1559006736
    nsecs: 720767191
  frame_id: "imu_link"
vector: 
  x: 0.446160972118
  y: 0.46679058671
  z: -0.543930768967
---
header: 
  seq: 340
  stamp: 
    secs: 1559006736
    nsecs: 771951808
  frame_id: "imu_link"
vector: 
  x: 0.435366511345
  y: 0.457419216633
  z: -0.523236274719
---
header: 
  seq: 341
  stamp: 
    secs: 1559006736
    nsecs: 824934225
  frame_id: "imu_link"
vector: 
  x: 0.445047974586
  y: 0.470011472702
  z: -0.53276515007
---
header: 
  seq: 342
  stamp: 
    secs: 1559006736
    nsecs: 872920826
  frame_id: "imu_link"
vector: 
  x: 0.442181557417
  y: 0.482384711504
  z: -0.536503612995
---
header: 
  seq: 343
  stamp: 
    secs: 1559006736
    nsecs: 927927288
  frame_id: "imu_link"
vector: 
  x: 0.42268371582
  y: 0.489954203367
  z: -0.529929637909
---
header: 
  seq: 344
  stamp: 
    secs: 1559006736
    nsecs: 979973251
  frame_id: "imu_link"
vector: 
  x: 0.411715149879
  y: 0.481882542372
  z: -0.53553211689
---
header: 
  seq: 345
  stamp: 
    secs: 1559006737
    nsecs:  29947537
  frame_id: "imu_link"
vector: 
  x: 0.424214422703
  y: 0.47073996067
  z: -0.563473939896
---
header: 
  seq: 346
  stamp: 
    secs: 1559006737
    nsecs:  84964576
  frame_id: "imu_link"
vector: 
  x: 0.426635801792
  y: 0.469930142164
  z: -0.534538626671
---
header: 
  seq: 347
  stamp: 
    secs: 1559006737
    nsecs: 136920933
  frame_id: "imu_link"
vector: 
  x: 0.417489588261
  y: 0.473206341267
  z: -0.545767128468
---
header: 
  seq: 348
  stamp: 
    secs: 1559006737
    nsecs: 191924099
  frame_id: "imu_link"
vector: 
  x: 0.416689217091
  y: 0.474577814341
  z: -0.560162901878
---
header: 
  seq: 349
  stamp: 
    secs: 1559006737
    nsecs: 241934231
  frame_id: "imu_link"
vector: 
  x: 0.402094662189
  y: 0.508314669132
  z: -0.547929644585
---
header: 
  seq: 350
  stamp: 
    secs: 1559006737
    nsecs: 293926278
  frame_id: "imu_link"
vector: 
  x: 0.431339919567
  y: 0.490906715393
  z: -0.54510051012
---
header: 
  seq: 351
  stamp: 
    secs: 1559006737
    nsecs: 344909973
  frame_id: "imu_link"
vector: 
  x: 0.422118365765
  y: 0.492449402809
  z: -0.505636096001
---
header: 
  seq: 352
  stamp: 
    secs: 1559006737
    nsecs: 394920573
  frame_id: "imu_link"
vector: 
  x: 0.425526410341
  y: 0.475476771593
  z: -0.525489449501
---
header: 
  seq: 353
  stamp: 
    secs: 1559006737
    nsecs: 449926213
  frame_id: "imu_link"
vector: 
  x: 0.429690420628
  y: 0.476741492748
  z: -0.549505710602
---
header: 
  seq: 354
  stamp: 
    secs: 1559006737
    nsecs: 501952581
  frame_id: "imu_link"
vector: 
  x: 0.425194740295
  y: 0.451945006847
  z: -0.552666425705
---
header: 
  seq: 355
  stamp: 
    secs: 1559006737
    nsecs: 554932997
  frame_id: "imu_link"
vector: 
  x: 0.406798541546
  y: 0.457944333553
  z: -0.528387308121
---
header: 
  seq: 356
  stamp: 
    secs: 1559006737
    nsecs: 606931343
