
header: 
  seq: 0
  stamp: 
    secs: 1556851580
    nsecs: 833659489
  frame_id: "imu_link"
vector: 
  x: 1.03588175774
  y: 0.634221732616
  z: -1.29455900192
---
header: 
  seq: 1
  stamp: 
    secs: 1556851580
    nsecs: 883692755
  frame_id: "imu_link"
vector: 
  x: 1.03630030155
  y: 0.649971961975
  z: -1.29467105865
---
header: 
  seq: 2
  stamp: 
    secs: 1556851580
    nsecs: 934692951
  frame_id: "imu_link"
vector: 
  x: 1.04400372505
  y: 0.642300188541
  z: -1.32386493683
---
header: 
  seq: 3
  stamp: 
    secs: 1556851580
    nsecs: 984693658
  frame_id: "imu_link"
vector: 
  x: 1.03979730606
  y: 0.628174781799
  z: -1.32486248016
---
header: 
  seq: 4
  stamp: 
    secs: 1556851581
    nsecs:  35652833
  frame_id: "imu_link"
vector: 
  x: 1.04497981071
  y: 0.622681081295
  z: -1.32527804375
---
header: 
  seq: 5
  stamp: 
    secs: 1556851581
    nsecs:  85663056
  frame_id: "imu_link"
vector: 
  x: 1.02274680138
  y: 0.627532720566
  z: -1.31648719311
---
header: 
  seq: 6
  stamp: 
    secs: 1556851581
    nsecs: 135680745
  frame_id: "imu_link"
vector: 
  x: 1.01166820526
  y: 0.653054714203
  z: -1.32397031784
---
header: 
  seq: 7
  stamp: 
    secs: 1556851581
    nsecs: 185698253
  frame_id: "imu_link"
vector: 
  x: 1.01234412193
  y: 0.640048384666
  z: -1.3249065876
---
header: 
  seq: 8
  stamp: 
    secs: 1556851581
    nsecs: 236700653
  frame_id: "imu_link"
vector: 
  x: 1.00910973549
  y: 0.626695990562
  z: -1.31636810303
---
header: 
  seq: 9
  stamp: 
    secs: 1556851581
    nsecs: 286675037
  frame_id: "imu_link"
vector: 
  x: 1.00119161606
  y: 0.629415035248
  z: -1.29613208771
---
header: 
  seq: 10
  stamp: 
    secs: 1556851581
    nsecs: 337680601
  frame_id: "imu_link"
vector: 
  x: 1.01414728165
  y: 0.659157752991
  z: -1.30392515659
---
header: 
  seq: 11
  stamp: 
    secs: 1556851581
    nsecs: 387661224
  frame_id: "imu_link"
vector: 
  x: 1.02031886578
  y: 0.667430996895
  z: -1.31646883488
---
header: 
  seq: 12
  stamp: 
    secs: 1556851581
    nsecs: 437670055
  frame_id: "imu_link"
vector: 
  x: 1.04030036926
  y: 0.64713293314
  z: -1.33067500591
---
header: 
  seq: 13
  stamp: 
    secs: 1556851581
    nsecs: 488660882
  frame_id: "imu_link"
vector: 
  x: 1.05554437637
  y: 0.639748573303
  z: -1.31879508495
---
header: 
  seq: 14
  stamp: 
    secs: 1556851581
    nsecs: 538662611
  frame_id: "imu_link"
vector: 
  x: 1.04043483734
  y: 0.653252005577
  z: -1.32062220573
---
header: 
  seq: 15
  stamp: 
    secs: 1556851581
    nsecs: 588676970
  frame_id: "imu_link"
vector: 
  x: 1.02092862129
  y: 0.656621456146
  z: -1.31456542015
---
header: 
  seq: 16
  stamp: 
    secs: 1556851581
    nsecs: 638701308
  frame_id: "imu_link"
vector: 
  x: 1.04397535324
  y: 0.643162846565
  z: -1.32094562054
---
header: 
  seq: 17
  stamp: 
    secs: 1556851581
    nsecs: 692673092
  frame_id: "imu_link"
vector: 
  x: 1.0467376709
  y: 0.637110471725
  z: -1.32363009453
---
header: 
  seq: 18
  stamp: 
    secs: 1556851581
    nsecs: 742703970
  frame_id: "imu_link"
vector: 
  x: 1.01579463482
  y: 0.655814111233
  z: -1.29989433289
---
header: 
  seq: 19
  stamp: 
    secs: 1556851581
    nsecs: 792702948
  frame_id: "imu_link"
vector: 
  x: 1.02456498146
  y: 0.641404867172
  z: -1.32380247116
---
header: 
  seq: 20
  stamp: 
    secs: 1556851581
    nsecs: 842672149
  frame_id: "imu_link"
vector: 
  x: 1.02820241451
  y: 0.635428786278
  z: -1.33371806145
---
header: 
  seq: 21
  stamp: 
    secs: 1556851581
    nsecs: 893676159
  frame_id: "imu_link"
vector: 
  x: 1.03316688538
  y: 0.641590237617
  z: -1.3290040493
---
header: 
  seq: 22
  stamp: 
    secs: 1556851581
    nsecs: 943678733
  frame_id: "imu_link"
vector: 
  x: 1.03049302101
  y: 0.664947032928
  z: -1.3120341301
---
header: 
  seq: 23
  stamp: 
    secs: 1556851581
    nsecs: 993704047
  frame_id: "imu_link"
vector: 
  x: 1.03051710129
  y: 0.654964327812
  z: -1.29309499264
---
header: 
  seq: 24
  stamp: 
    secs: 1556851582
    nsecs:  44699056
  frame_id: "imu_link"
vector: 
  x: 1.02369022369
  y: 0.641484856606
  z: -1.30298352242
---
header: 
  seq: 25
  stamp: 
    secs: 1556851582
    nsecs:  94656244
  frame_id: "imu_link"
vector: 
  x: 1.02443146706
  y: 0.642982244492
  z: -1.33392965794
---
header: 
  seq: 26
  stamp: 
    secs: 1556851582
    nsecs: 144710167
  frame_id: "imu_link"
vector: 
  x: 1.03167784214
  y: 0.644001960754
  z: -1.34695005417
---
header: 
  seq: 27
  stamp: 
    secs: 1556851582
    nsecs: 195673848
  frame_id: "imu_link"
vector: 
  x: 1.0323548317
  y: 0.654011845589
  z: -1.32043433189
---
header: 
  seq: 28
  stamp: 
    secs: 1556851582
    nsecs: 245705238
  frame_id: "imu_link"
vector: 
  x: 1.03139793873
  y: 0.657720446587
  z: -1.31448638439
---
header: 
  seq: 29
  stamp: 
    secs: 1556851582
    nsecs: 295713613
  frame_id: "imu_link"
vector: 
  x: 1.03460896015
  y: 0.642079591751
  z: -1.33876943588
---
header: 
  seq: 30
  stamp: 
    secs: 1556851582
    nsecs: 345680024
  frame_id: "imu_link"
vector: 
  x: 1.03595995903
  y: 0.619252085686
  z: -1.34898638725
---
header: 
  seq: 31
  stamp: 
    secs: 1556851582
    nsecs: 396677301
  frame_id: "imu_link"
vector: 
  x: 1.02477538586
  y: 0.622443437576
  z: -1.32463598251
---
header: 
  seq: 32
  stamp: 
    secs: 1556851582
    nsecs: 446678313
  frame_id: "imu_link"
vector: 
  x: 1.03172492981
  y: 0.619879961014
  z: -1.32518267632
---
header: 
  seq: 33
  stamp: 
    secs: 1556851582
    nsecs: 496681912
  frame_id: "imu_link"
vector: 
  x: 1.03816497326
  y: 0.618613123894
  z: -1.33434128761
---
header: 
  seq: 34
  stamp: 
    secs: 1556851582
    nsecs: 546688288
  frame_id: "imu_link"
vector: 
  x: 1.03384244442
  y: 0.634703397751
  z: -1.32033765316
---
header: 
  seq: 35
  stamp: 
    secs: 1556851582
    nsecs: 597677686
  frame_id: "imu_link"
vector: 
  x: 1.04170918465
  y: 0.644185721874
  z: -1.32842516899
---
header: 
  seq: 36
  stamp: 
    secs: 1556851582
    nsecs: 650715129
  frame_id: "imu_link"
vector: 
  x: 1.05613708496
  y: 0.638508558273
  z: -1.31784844398
---
header: 
  seq: 37
  stamp: 
    secs: 1556851582
    nsecs: 701674343
  frame_id: "imu_link"
vector: 
  x: 1.07503700256
  y: 0.636983156204
  z: -1.31363034248
---
header: 
  seq: 38
  stamp: 
    secs: 1556851582
    nsecs: 751701067
  frame_id: "imu_link"
vector: 
  x: 1.07367539406
  y: 0.6515365839
  z: -1.32055222988
---
header: 
  seq: 39
  stamp: 
    secs: 1556851582
    nsecs: 801680863
  frame_id: "imu_link"
vector: 
  x: 1.02998816967
  y: 0.673131644726
  z: -1.31575608253
---
header: 
  seq: 40
  stamp: 
    secs: 1556851582
    nsecs: 851684013
  frame_id: "imu_link"
vector: 
  x: 1.02346777916
  y: 0.657251954079
  z: -1.31251811981
---
header: 
  seq: 41
  stamp: 
    secs: 1556851582
    nsecs: 902649567
  frame_id: "imu_link"
vector: 
  x: 1.02072429657
  y: 0.650570690632
  z: -1.31115579605
---
header: 
  seq: 42
  stamp: 
    secs: 1556851582
    nsecs: 952684151
  frame_id: "imu_link"
vector: 
  x: 1.01957011223
  y: 0.647759616375
  z: -1.31058251858
---
header: 
  seq: 43
  stamp: 
    secs: 1556851583
    nsecs:   2686120
  frame_id: "imu_link"
vector: 
  x: 1.04603135586
  y: 0.635696291924
  z: -1.31913089752
---
header: 
  seq: 44
  stamp: 
    secs: 1556851583
    nsecs:  52693554
  frame_id: "imu_link"
vector: 
  x: 1.06840610504
  y: 0.643261432648
  z: -1.32286655903
---
header: 
  seq: 45
  stamp: 
    secs: 1556851583
    nsecs: 102725247
  frame_id: "imu_link"
vector: 
  x: 1.091786623
  y: 0.638334155083
  z: -1.34229528904
---
header: 
  seq: 46
  stamp: 
    secs: 1556851583
    nsecs: 153726272
  frame_id: "imu_link"
vector: 
  x: 1.07730436325
  y: 0.62715691328
  z: -1.34154129028
---
header: 
  seq: 47
  stamp: 
    secs: 1556851583
    nsecs: 203683771
  frame_id: "imu_link"
vector: 
  x: 1.04337573051
  y: 0.613538384438
  z: -1.32336699963
---
header: 
  seq: 48
  stamp: 
    secs: 1556851583
    nsecs: 253686003
  frame_id: "imu_link"
vector: 
  x: 1.03651642799
  y: 0.644751608372
  z: -1.32892656326
---
header: 
  seq: 49
  stamp: 
    secs: 1556851583
    nsecs: 303727190
  frame_id: "imu_link"
vector: 
  x: 1.03314888477
  y: 0.653824329376
  z: -1.31805944443
---
header: 
  seq: 50
  stamp: 
    secs: 1556851583
    nsecs: 354722926
  frame_id: "imu_link"
vector: 
  x: 1.04228007793
  y: 0.648953437805
  z: -1.34027266502
---
header: 
  seq: 51
  stamp: 
    secs: 1556851583
    nsecs: 407658667
  frame_id: "imu_link"
vector: 
  x: 1.05657243729
  y: 0.630858659744
  z: -1.35854721069
---
header: 
  seq: 52
  stamp: 
    secs: 1556851583
    nsecs: 457692228
  frame_id: "imu_link"
vector: 
  x: 1.05564033985
  y: 0.629128277302
  z: -1.33519077301
---
header: 
  seq: 53
  stamp: 
    secs: 1556851583
    nsecs: 507728524
  frame_id: "imu_link"
vector: 
  x: 1.06551456451
  y: 0.623861610889
  z: -1.32962357998
---
header: 
  seq: 54
  stamp: 
    secs: 1556851583
    nsecs: 558695678
  frame_id: "imu_link"
vector: 
  x: 1.05634963512
  y: 0.613371968269
  z: -1.32741379738
---
header: 
  seq: 55
  stamp: 
    secs: 1556851583
    nsecs: 608687155
  frame_id: "imu_link"
vector: 
  x: 1.05194401741
  y: 0.608329534531
  z: -1.3263515234
---
header: 
  seq: 56
  stamp: 
    secs: 1556851583
    nsecs: 658713481
  frame_id: "imu_link"
vector: 
  x: 1.04477739334
  y: 0.605448365211
  z: -1.31682682037
---
header: 
  seq: 57
  stamp: 
    secs: 1556851583
    nsecs: 708718004
  frame_id: "imu_link"
vector: 
  x: 1.01572370529
  y: 0.604391515255
  z: -1.29511141777
---
header: 
  seq: 58
  stamp: 
    secs: 1556851583
    nsecs: 762714675
  frame_id: "imu_link"
vector: 
  x: 1.03475344181
  y: 0.605317354202
  z: -1.29490351677
---
header: 
  seq: 59
  stamp: 
    secs: 1556851583
    nsecs: 812696381
  frame_id: "imu_link"
vector: 
  x: 1.04632401466
  y: 0.604754686356
  z: -1.32148790359
---
header: 
  seq: 60
  stamp: 
    secs: 1556851583
    nsecs: 862725379
  frame_id: "imu_link"
vector: 
  x: 1.02797043324
  y: 0.627745389938
  z: -1.29817986488
---
header: 
  seq: 61
  stamp: 
    secs: 1556851583
    nsecs: 915699687
  frame_id: "imu_link"
vector: 
  x: 1.02603721619
  y: 0.622487306595
  z: -1.29619455338
---
header: 
  seq: 62
  stamp: 
    secs: 1556851583
    nsecs: 966675497
  frame_id: "imu_link"
vector: 
  x: 1.03573048115
  y: 0.635899424553
  z: -1.32203423977
---
header: 
  seq: 63
  stamp: 
    secs: 1556851584
    nsecs:  16727616
  frame_id: "imu_link"
vector: 
  x: 1.02939987183
  y: 0.657645225525
  z: -1.32408809662
---
header: 
  seq: 64
  stamp: 
    secs: 1556851584
    nsecs:  66665502
  frame_id: "imu_link"
vector: 
  x: 1.02427077293
  y: 0.630389332771
  z: -1.34687376022
---
header: 
  seq: 65
  stamp: 
    secs: 1556851584
    nsecs: 116698716
  frame_id: "imu_link"
vector: 
  x: 1.02809429169
  y: 0.614521801472
  z: -1.3434677124
---
header: 
  seq: 66
  stamp: 
    secs: 1556851584
    nsecs: 169696895
  frame_id: "imu_link"
vector: 
  x: 1.04350590706
  y: 0.624827623367
  z: -1.34204077721
---
header: 
  seq: 67
  stamp: 
    secs: 1556851584
    nsecs: 219700400
  frame_id: "imu_link"
vector: 
  x: 1.05683600903
  y: 0.638428926468
  z: -1.32365584373
---
header: 
  seq: 68
  stamp: 
    secs: 1556851584
    nsecs: 269735447
  frame_id: "imu_link"
vector: 
  x: 1.04530787468
  y: 0.644753813744
  z: -1.33036327362
---
header: 
  seq: 69
  stamp: 
    secs: 1556851584
    nsecs: 322775284
  frame_id: "imu_link"
vector: 
  x: 1.04036390781
  y: 0.629266858101
  z: -1.3275924921
---
header: 
  seq: 70
  stamp: 
    secs: 1556851584
    nsecs: 376709918
  frame_id: "imu_link"
vector: 
  x: 1.03479146957
  y: 0.631054878235
  z: -1.31754112244
---
header: 
  seq: 71
  stamp: 
    secs: 1556851584
    nsecs: 426707197
  frame_id: "imu_link"
vector: 
  x: 1.03293192387
  y: 0.62745565176
  z: -1.31528782845
---
header: 
  seq: 72
  stamp: 
    secs: 1556851584
    nsecs: 479706095
  frame_id: "imu_link"
vector: 
  x: 1.04199361801
  y: 0.623144745827
  z: -1.30339252949
---
header: 
  seq: 73
  stamp: 
    secs: 1556851584
    nsecs: 529706092
  frame_id: "imu_link"
vector: 
  x: 1.03898227215
  y: 0.636365175247
  z: -1.31619000435
---
header: 
  seq: 74
  stamp: 
    secs: 1556851584
    nsecs: 582683307
  frame_id: "imu_link"
vector: 
  x: 1.01699316502
  y: 0.64079618454
  z: -1.32160604
---
header: 
  seq: 75
  stamp: 
    secs: 1556851584
    nsecs: 632742720
  frame_id: "imu_link"
vector: 
  x: 1.01049828529
  y: 0.629979133606
  z: -1.2995339632
---
header: 
  seq: 76
  stamp: 
    secs: 1556851584
    nsecs: 685706386
  frame_id: "imu_link"
vector: 
  x: 1.00484132767
  y: 0.66312277317
  z: -1.29677605629
---
header: 
  seq: 77
  stamp: 
    secs: 1556851584
    nsecs: 739738387
  frame_id: "imu_link"
vector: 
  x: 1.0128531456
  y: 0.669261276722
  z: -1.30449938774
---
header: 
  seq: 78
  stamp: 
    secs: 1556851584
    nsecs: 792674772
  frame_id: "imu_link"
vector: 
  x: 1.04317748547
  y: 0.631766796112
  z: -1.30915117264
---
header: 
  seq: 79
  stamp: 
    secs: 1556851584
    nsecs: 845739390
  frame_id: "imu_link"
vector: 
  x: 1.02567350864
  y: 0.631149291992
  z: -1.31862711906
---
header: 
  seq: 80
  stamp: 
    secs: 1556851584
    nsecs: 898737376
  frame_id: "imu_link"
vector: 
  x: 1.02166950703
  y: 0.647641003132
  z: -1.31374692917
---
header: 
  seq: 81
  stamp: 
    secs: 1556851584
    nsecs: 951712420
  frame_id: "imu_link"
vector: 
  x: 1.01997494698
  y: 0.654620468616
  z: -1.31168150902
---
header: 
  seq: 82
  stamp: 
    secs: 1556851585
    nsecs:   4736147
  frame_id: "imu_link"
vector: 
  x: 1.03665626049
  y: 0.67885351181
  z: -1.32307600975
---
header: 
  seq: 83
  stamp: 
    secs: 1556851585
    nsecs:  57725430
  frame_id: "imu_link"
vector: 
  x: 1.02981853485
  y: 0.675731182098
  z: -1.3245203495
---
header: 
  seq: 84
  stamp: 
    secs: 1556851585
    nsecs: 110716947
  frame_id: "imu_link"
vector: 
  x: 1.04063737392
  y: 0.667860090733
  z: -1.30735051632
---
header: 
  seq: 85
  stamp: 
    secs: 1556851585
    nsecs: 160718597
  frame_id: "imu_link"
vector: 
  x: 1.03846812248
  y: 0.645218253136
  z: -1.32736349106
---
header: 
  seq: 86
  stamp: 
    secs: 1556851585
    nsecs: 213710140
  frame_id: "imu_link"
vector: 
  x: 1.03398919106
  y: 0.621628165245
  z: -1.31744432449
---
header: 
  seq: 87
  stamp: 
    secs: 1556851585
    nsecs: 266742557
  frame_id: "imu_link"
vector: 
  x: 1.04590344429
  y: 0.620509386063
  z: -1.31324636936
---
header: 
  seq: 88
  stamp: 
    secs: 1556851585
    nsecs: 319686658
  frame_id: "imu_link"
vector: 
  x: 1.03199243546
  y: 0.618488311768
  z: -1.31450557709
---
header: 
  seq: 89
  stamp: 
    secs: 1556851585
    nsecs: 372715831
  frame_id: "imu_link"
vector: 
  x: 1.04165458679
  y: 0.626693785191
  z: -1.32089316845
---
header: 
  seq: 90
  stamp: 
    secs: 1556851585
    nsecs: 426724135
  frame_id: "imu_link"
vector: 
  x: 1.02843284607
  y: 0.629577875137
  z: -1.3147059679
---
header: 
  seq: 91
  stamp: 
    secs: 1556851585
    nsecs: 479708658
  frame_id: "imu_link"
vector: 
  x: 1.0193362236
  y: 0.622897207737
  z: -1.30319690704
---
header: 
  seq: 92
  stamp: 
    secs: 1556851585
    nsecs: 528718016
  frame_id: "imu_link"
vector: 
  x: 1.04076910019
  y: 0.662362098694
  z: -1.32184624672
---
header: 
  seq: 93
  stamp: 
    secs: 1556851585
    nsecs: 581714445
  frame_id: "imu_link"
vector: 
  x: 1.038377285
  y: 0.645708441734
  z: -1.30628585815
---
header: 
  seq: 94
  stamp: 
    secs: 1556851585
    nsecs: 632714128
  frame_id: "imu_link"
vector: 
  x: 1.04086637497
  y: 0.630246520042
  z: -1.30853354931
---
header: 
  seq: 95
  stamp: 
    secs: 1556851585
    nsecs: 685678892
  frame_id: "imu_link"
vector: 
  x: 1.0316003561
  y: 0.630893945694
  z: -1.3183658123
---
header: 
  seq: 96
  stamp: 
    secs: 1556851585
    nsecs: 738711446
  frame_id: "imu_link"
vector: 
  x: 1.04624688625
  y: 0.635444045067
  z: -1.33317089081
---
header: 
  seq: 97
  stamp: 
    secs: 1556851585
    nsecs: 791722343
  frame_id: "imu_link"
vector: 
  x: 1.03387737274
  y: 0.641182363033
  z: -1.32879257202
---
header: 
  seq: 98
  stamp: 
    secs: 1556851585
    nsecs: 844714259
  frame_id: "imu_link"
vector: 
  x: 1.02864253521
  y: 0.667877137661
  z: -1.32693958282
---
header: 
  seq: 99
  stamp: 
    secs: 1556851585
    nsecs: 894744983
  frame_id: "imu_link"
vector: 
  x: 1.03678333759
  y: 0.633738517761
  z: -1.3295712471
---
header: 
  seq: 100
  stamp: 
    secs: 1556851585
    nsecs: 947738282
  frame_id: "imu_link"
vector: 
  x: 1.0228703022
  y: 0.624657988548
  z: -1.30948805809
---
header: 
  seq: 101
  stamp: 
    secs: 1556851585
    nsecs: 997751264
  frame_id: "imu_link"
vector: 
  x: 1.02738809586
  y: 0.637193083763
  z: -1.30987918377
---
header: 
  seq: 102
  stamp: 
    secs: 1556851586
    nsecs:  50694914
  frame_id: "imu_link"
vector: 
  x: 1.03975868225
  y: 0.658968925476
  z: -1.3189740181
---
header: 
  seq: 103
  stamp: 
    secs: 1556851586
    nsecs: 103742504
  frame_id: "imu_link"
vector: 
  x: 1.03933644295
  y: 0.633375763893
  z: -1.32953381538
---
header: 
  seq: 104
  stamp: 
    secs: 1556851586
    nsecs: 153725720
  frame_id: "imu_link"
vector: 
  x: 1.05875229836
  y: 0.64112919569
  z: -1.34510052204
---
header: 
  seq: 105
  stamp: 
    secs: 1556851586
    nsecs: 207711420
  frame_id: "imu_link"
vector: 
  x: 1.06678938866
  y: 0.637051701546
  z: -1.33384132385
---
header: 
  seq: 106
  stamp: 
    secs: 1556851586
    nsecs: 257687403
  frame_id: "imu_link"
vector: 
  x: 1.05283784866
  y: 0.605154752731
  z: -1.31440663338
---
header: 
  seq: 107
  stamp: 
    secs: 1556851586
    nsecs: 310696386
  frame_id: "imu_link"
vector: 
  x: 1.03666687012
  y: 0.587919831276
  z: -1.32085132599
---
header: 
  seq: 108
  stamp: 
    secs: 1556851586
    nsecs: 363696520
  frame_id: "imu_link"
vector: 
  x: 1.01934325695
  y: 0.629133462906
  z: -1.31466186047
---
header: 
  seq: 109
  stamp: 
    secs: 1556851586
    nsecs: 416699048
  frame_id: "imu_link"
vector: 
  x: 1.01208555698
  y: 0.63831114769
  z: -1.31206882
---
header: 
  seq: 110
  stamp: 
    secs: 1556851586
    nsecs: 466730573
  frame_id: "imu_link"
vector: 
  x: 1.02578961849
  y: 0.642362535
  z: -1.28896343708
---
header: 
  seq: 111
  stamp: 
    secs: 1556851586
    nsecs: 519735701
  frame_id: "imu_link"
vector: 
  x: 1.02863562107
  y: 0.64469575882
  z: -1.30124521255
---
header: 
  seq: 112
  stamp: 
    secs: 1556851586
    nsecs: 570752249
  frame_id: "imu_link"
vector: 
  x: 1.02632701397
  y: 0.621594548225
  z: -1.29750025272
---
header: 
  seq: 113
  stamp: 
    secs: 1556851586
    nsecs: 620731835
  frame_id: "imu_link"
vector: 
  x: 1.02534997463
  y: 0.61990660429
  z: -1.29591536522
---
header: 
  seq: 114
  stamp: 
    secs: 1556851586
    nsecs: 670727371
  frame_id: "imu_link"
vector: 
  x: 1.02139878273
  y: 0.616749167442
  z: -1.31137633324
---
header: 
  seq: 115
  stamp: 
    secs: 1556851586
    nsecs: 723755622
  frame_id: "imu_link"
vector: 
  x: 1.01635932922
  y: 0.593201696873
  z: -1.30178785324
---
header: 
  seq: 116
  stamp: 
    secs: 1556851586
    nsecs: 773726298
  frame_id: "imu_link"
vector: 
  x: 1.01421749592
  y: 0.583193480968
  z: -1.29771256447
---
header: 
  seq: 117
  stamp: 
    secs: 1556851586
    nsecs: 823727805
  frame_id: "imu_link"
vector: 
  x: 1.01682114601
  y: 0.603079319
  z: -1.30489563942
---
header: 
  seq: 118
  stamp: 
    secs: 1556851586
    nsecs: 876714757
  frame_id: "imu_link"
vector: 
  x: 1.02121448517
  y: 0.666697621346
  z: -1.29144120216
---
header: 
  seq: 119
  stamp: 
    secs: 1556851586
    nsecs: 929768546
  frame_id: "imu_link"
vector: 
  x: 1.02668726444
  y: 0.671162188053
  z: -1.3022415638
---
header: 
  seq: 120
  stamp: 
    secs: 1556851586
    nsecs: 982735683
  frame_id: "imu_link"
vector: 
  x: 1.03604543209
  y: 0.648313105106
  z: -1.32468903065
---
header: 
  seq: 121
  stamp: 
    secs: 1556851587
    nsecs:  33727225
  frame_id: "imu_link"
vector: 
  x: 1.02341151237
  y: 0.650005817413
  z: -1.33431088924
---
header: 
  seq: 122
  stamp: 
    secs: 1556851587
    nsecs:  82762970
  frame_id: "imu_link"
vector: 
  x: 1.0312153101
  y: 0.64697009325
  z: -1.34705591202
---
header: 
  seq: 123
  stamp: 
    secs: 1556851587
    nsecs: 136868309
  frame_id: "imu_link"
vector: 
  x: 1.03442084789
  y: 0.630270838737
  z: -1.33466887474
---
header: 
  seq: 124
  stamp: 
    secs: 1556851587
    nsecs: 189699697
  frame_id: "imu_link"
vector: 
  x: 1.03226721287
  y: 0.639608263969
  z: -1.3204754591
---
header: 
  seq: 125
  stamp: 
    secs: 1556851587
    nsecs: 239763230
  frame_id: "imu_link"
vector: 
  x: 1.0205770731
  y: 0.625374495983
  z: -1.30312216282
---
header: 
  seq: 126
  stamp: 
    secs: 1556851587
    nsecs: 292738285
  frame_id: "imu_link"
vector: 
  x: 1.02654004097
  y: 0.628658533096
  z: -1.32505941391
---
header: 
  seq: 127
  stamp: 
    secs: 1556851587
    nsecs: 346739648
  frame_id: "imu_link"
vector: 
  x: 1.04985010624
  y: 0.614258050919
  z: -1.35203099251
---
header: 
  seq: 128
  stamp: 
    secs: 1556851587
    nsecs: 396761495
  frame_id: "imu_link"
vector: 
  x: 1.07021641731
  y: 0.625924766064
  z: -1.35938608646
---
header: 
  seq: 129
  stamp: 
    secs: 1556851587
    nsecs: 449758995
  frame_id: "imu_link"
vector: 
  x: 1.05426239967
  y: 0.613799333572
  z: -1.3308750391
---
header: 
  seq: 130
  stamp: 
    secs: 1556851587
    nsecs: 499772020
  frame_id: "imu_link"
vector: 
  x: 1.06488919258
  y: 0.60930788517
  z: -1.3278208971
---
