
header: 
  seq: 0
  stamp: 
    secs: 1568012129
    nsecs: 809708491
  frame_id: "imu_link"
orientation: 
  x: 0.0310180332
  y: 0.5088434494
  z: 0.8602804511
  w: -0.002014158
orientation_covariance: [0.002741552146694444, 0.0, 0.0, 0.0, 0.002741552146694444, 0.0, 0.0, 0.0, 0.007615422629706791]
angular_velocity: 
  x: 0.00275969443781
  y: 0.000585037519637
  z: -0.000720149447528
angular_velocity_covariance: [1.0966208586777776e-06, 0.0, 0.0, 0.0, 1.0966208586777776e-06, 0.0, 0.0, 0.0, 1.0966208586777776e-06]
linear_acceleration: 
  x: 0.28161216159
  y: 0.565128987757
  z: 10.0516044193
linear_acceleration_covariance: [0.0015387262937311438, 0.0, 0.0, 0.0, 0.0015387262937311438, 0.0, 0.0, 0.0, 0.0015387262937311438]
---
header: 
  seq: 1
  stamp: 
    secs: 1568012129
    nsecs: 861512398
  frame_id: "imu_link"
orientation: 
  x: 0.0310180332
  y: 0.5090112959
  z: 0.8601797432
  w: -0.0020477273
orientation_covariance: [0.002741552146694444, 0.0, 0.0, 0.0, 0.002741552146694444, 0.0, 0.0, 0.0, 0.007615422629706791]
angular_velocity: 
  x: -0.000431772501375
  y: 0.00154553497989
  z: -0.000608524441835
angular_velocity_covariance: [1.0966208586777776e-06, 0.0, 0.0, 0.0, 1.0966208586777776e-06, 0.0, 0.0, 0.0, 1.0966208586777776e-06]
linear_acceleration: 
  x: 0.282164260781
  y: 0.564344157522
  z: 10.0500273792
linear_acceleration_covariance: [0.0015387262937311438, 0.0, 0.0, 0.0, 0.0015387262937311438, 0.0, 0.0, 0.0, 0.0015387262937311438]
---
header: 
  seq: 2
  stamp: 
    secs: 1568012129
    nsecs: 915036929
  frame_id: "imu_link"
orientation: 
  x: 0.0310180332
  y: 0.5091791424
  z: 0.8600790353
  w: -0.0020477273
orientation_covariance: [0.002741552146694444, 0.0, 0.0, 0.0, 0.002741552146694444, 0.0, 0.0, 0.0, 0.007615422629706791]
angular_velocity: 
  x: -0.000339202946434
  y: -0.000410211462065
  z: 0.000939205370308
angular_velocity_covariance: [1.0966208586777776e-06, 0.0, 0.0, 0.0, 1.0966208586777776e-06, 0.0, 0.0, 0.0, 1.0966208586777776e-06]
linear_acceleration: 
  x: 0.276114166962
  y: 0.564546767422
  z: 10.0365249236
linear_acceleration_covariance: [0.0015387262937311438, 0.0, 0.0, 0.0, 0.0015387262937311438, 0.0, 0.0, 0.0, 0.0015387262937311438]
---
header: 
  seq: 3
  stamp: 
    secs: 1568012129
    nsecs: 967700835
  frame_id: "imu_link"
orientation: 
  x: 0.0310180332
  y: 0.5093469889
  z: 0.8599783274
  w: -0.0020477273
orientation_covariance: [0.002741552146694444, 0.0, 0.0, 0.0, 0.002741552146694444, 0.0, 0.0, 0.0, 0.007615422629706791]
angular_velocity: 
  x: -3.81555855238e-05
  y: 0.000759572293965
  z: -0.000308757768175
angular_velocity_covariance: [1.0966208586777776e-06, 0.0, 0.0, 0.0, 1.0966208586777776e-06, 0.0, 0.0, 0.0, 1.0966208586777776e-06]
linear_acceleration: 
  x: 0.278186625854
  y: 0.560197413106
  z: 10.0502062429
linear_acceleration_covariance: [0.0015387262937311438, 0.0, 0.0, 0.0, 0.0015387262937311438, 0.0, 0.0, 0.0, 0.0015387262937311438]
---
header: 
  seq: 4
  stamp: 
    secs: 1568012130
    nsecs:  20619950
  frame_id: "imu_link"
orientation: 
  x: 0.0309844639
  y: 0.5095148354
  z: 0.8598776195
  w: -0.0020477273
orientation_covariance: [0.002741552146694444, 0.0, 0.0, 0.0, 0.002741552146694444, 0.0, 0.0, 0.0, 0.007615422629706791]
angular_velocity: 
  x: -0.000921288459934
  y: -0.000524760158303
  z: 0.001593854969
angular_velocity_covariance: [1.0966208586777776e-06, 0.0, 0.0, 0.0, 1.0966208586777776e-06, 0.0, 0.0, 0.0, 1.0966208586777776e-06]
linear_acceleration: 
  x: 0.277167767668
  y: 0.558038408441
  z: 10.0541096801
linear_acceleration_covariance: [0.0015387262937311438, 0.0, 0.0, 0.0, 0.0015387262937311438, 0.0, 0.0, 0.0, 0.0015387262937311438]
---
header: 
  seq: 5
  stamp: 
    secs: 1568012130
    nsecs:  73761304
  frame_id: "imu_link"
orientation: 
  x: 0.0309844639
  y: 0.5096826819
  z: 0.8597769116
  w: -0.0020477273
orientation_covariance: [0.002741552146694444, 0.0, 0.0, 0.0, 0.002741552146694444, 0.0, 0.0, 0.0, 0.007615422629706791]
angular_velocity: 
  x: -0.00105488532484
  y: -0.000380466761492
  z: 0.000772934782757
angular_velocity_covariance: [1.0966208586777776e-06, 0.0, 0.0, 0.0, 1.0966208586777776e-06, 0.0, 0.0, 0.0, 1.0966208586777776e-06]
linear_acceleration: 
  x: 0.281373055604
  y: 0.5637203996
  z: 10.0483088849
linear_acceleration_covariance: [0.0015387262937311438, 0.0, 0.0, 0.0, 0.0015387262937311438, 0.0, 0.0, 0.0, 0.0015387262937311438]
---
header: 
  seq: 6
  stamp: 
    secs: 1568012130
    nsecs: 125610002
  frame_id: "imu_link"
orientation: 
  x: 0.0310180332
  y: 0.5098505284
  z: 0.8596762037
  w: -0.0020812966
orientation_covariance: [0.002741552146694444, 0.0, 0.0, 0.0, 0.002741552146694444, 0.0, 0.0, 0.0, 0.007615422629706791]
angular_velocity: 
  x: -0.000412324630976
  y: 0.00099261982533
  z: 0.000172978895932
angular_velocity_covariance: [1.0966208586777776e-06, 0.0, 0.0, 0.0, 1.0966208586777776e-06, 0.0, 0.0, 0.0, 1.0966208586777776e-06]
linear_acceleration: 
  x: 0.27937389941
  y: 0.567429081393
  z: 10.0443189384
linear_acceleration_covariance: [0.0015387262937311438, 0.0, 0.0, 0.0, 0.0015387262937311438, 0.0, 0.0, 0.0, 0.0015387262937311438]
---
header: 
  seq: 7
  stamp: 
    secs: 1568012130
    nsecs: 176167085
  frame_id: "imu_link"
orientation: 
  x: 0.0310180332
  y: 0.5100183749
  z: 0.8595754958
  w: -0.0020812966
orientation_covariance: [0.002741552146694444, 0.0, 0.0, 0.0, 0.002741552146694444, 0.0, 0.0, 0.0, 0.007615422629706791]
angular_velocity: 
  x: -0.00114771332864
  y: -0.00100595097517
  z: 0.000247182635958
angular_velocity_covariance: [1.0966208586777776e-06, 0.0, 0.0, 0.0, 1.0966208586777776e-06, 0.0, 0.0, 0.0, 1.0966208586777776e-06]
linear_acceleration: 
  x: 0.284695879884
  y: 0.563752694435
  z: 10.0496088615
linear_acceleration_covariance: [0.0015387262937311438, 0.0, 0.0, 0.0, 0.0015387262937311438, 0.0, 0.0, 0.0, 0.0015387262937311438]
---
header: 
  seq: 8
  stamp: 
    secs: 1568012130
    nsecs: 228718491
  frame_id: "imu_link"
orientation: 
  x: 0.0310180332
  y: 0.5101862214
  z: 0.8594747879
  w: -0.0020812966
orientation_covariance: [0.002741552146694444, 0.0, 0.0, 0.0, 0.002741552146694444, 0.0, 0.0, 0.0, 0.007615422629706791]
angular_velocity: 
  x: -0.00305913361288
  y: 0.000995258409397
  z: -0.000861909785431
angular_velocity_covariance: [1.0966208586777776e-06, 0.0, 0.0, 0.0, 1.0966208586777776e-06, 0.0, 0.0, 0.0, 1.0966208586777776e-06]
linear_acceleration: 
  x: 0.281373092137
  y: 0.567414943269
  z: 10.0493692076
linear_acceleration_covariance: [0.0015387262937311438, 0.0, 0.0, 0.0, 0.0015387262937311438, 0.0, 0.0, 0.0, 0.0015387262937311438]
---
header: 
  seq: 9
  stamp: 
    secs: 1568012130
    nsecs: 282605002
  frame_id: "imu_link"
orientation: 
  x: 0.0310180332
  y: 0.5103204986
  z: 0.85937408
  w: -0.0020812966
orientation_covariance: [0.002741552146694444, 0.0, 0.0, 0.0, 0.002741552146694444, 0.0, 0.0, 0.0, 0.007615422629706791]
angular_velocity: 
  x: -0.00153436296711
  y: -2.29339838639e-05
  z: -0.00022941162728
angular_velocity_covariance: [1.0966208586777776e-06, 0.0, 0.0, 0.0, 1.0966208586777776e-06, 0.0, 0.0, 0.0, 1.0966208586777776e-06]
linear_acceleration: 
  x: 0.280438532967
  y: 0.566151608803
  z: 10.0442382744
linear_acceleration_covariance: [0.0015387262937311438, 0.0, 0.0, 0.0, 0.0015387262937311438, 0.0, 0.0, 0.0, 0.0015387262937311438]
---
header: 
  seq: 10
  stamp: 
    secs: 1568012130
    nsecs: 334436512
  frame_id: "imu_link"
orientation: 
  x: 0.0310180332
  y: 0.5105219144
  z: 0.8592733721
  w: -0.0021148659
orientation_covariance: [0.002741552146694444, 0.0, 0.0, 0.0, 0.002741552146694444, 0.0, 0.0, 0.0, 0.007615422629706791]
angular_velocity: 
  x: -0.000996244351163
  y: -0.00040995366339
  z: -0.00115846402103
angular_velocity_covariance: [1.0966208586777776e-06, 0.0, 0.0, 0.0, 1.0966208586777776e-06, 0.0, 0.0, 0.0, 1.0966208586777776e-06]
linear_acceleration: 
  x: 0.281678450025
  y: 0.561319402873
  z: 10.0465974048
linear_acceleration_covariance: [0.0015387262937311438, 0.0, 0.0, 0.0, 0.0015387262937311438, 0.0, 0.0, 0.0, 0.0015387262937311438]
---
header: 
  seq: 11
  stamp: 
    secs: 1568012130
    nsecs: 387500001
  frame_id: "imu_link"
orientation: 
  x: 0.0310180332
  y: 0.5106897609
  z: 0.8591726642
  w: -0.0021148659
orientation_covariance: [0.002741552146694444, 0.0, 0.0, 0.0, 0.002741552146694444, 0.0, 0.0, 0.0, 0.007615422629706791]
angular_velocity: 
  x: 9.43382716629e-05
  y: 0.00187328363537
  z: 0.000811561801759
angular_velocity_covariance: [1.0966208586777776e-06, 0.0, 0.0, 0.0, 1.0966208586777776e-06, 0.0, 0.0, 0.0, 1.0966208586777776e-06]
linear_acceleration: 
  x: 0.284986405529
  y: 0.552005959877
  z: 10.0539799162
linear_acceleration_covariance: [0.0015387262937311438, 0.0, 0.0, 0.0, 0.0015387262937311438, 0.0, 0.0, 0.0, 0.0015387262937311438]
---
header: 
  seq: 12
  stamp: 
    secs: 1568012130
    nsecs: 440397970
  frame_id: "imu_link"
orientation: 
  x: 0.0310180332
  y: 0.5108240381
  z: 0.8590719563
  w: -0.0021148659
orientation_covariance: [0.002741552146694444, 0.0, 0.0, 0.0, 0.002741552146694444, 0.0, 0.0, 0.0, 0.007615422629706791]
angular_velocity: 
  x: 0.000962980714933
  y: -0.00285854140674
  z: 0.00196373761571
angular_velocity_covariance: [1.0966208586777776e-06, 0.0, 0.0, 0.0, 1.0966208586777776e-06, 0.0, 0.0, 0.0, 1.0966208586777776e-06]
linear_acceleration: 
  x: 0.284534551842
  y: 0.556645785039
  z: 10.0449572363
linear_acceleration_covariance: [0.0015387262937311438, 0.0, 0.0, 0.0, 0.0015387262937311438, 0.0, 0.0, 0.0, 0.0015387262937311438]
---
header: 
  seq: 13
  stamp: 
    secs: 1568012130
    nsecs: 493373283
  frame_id: "imu_link"
orientation: 
  x: 0.0310180332
  y: 0.5109918846
  z: 0.8590048177
  w: -0.0021148659
orientation_covariance: [0.002741552146694444, 0.0, 0.0, 0.0, 0.002741552146694444, 0.0, 0.0, 0.0, 0.007615422629706791]
angular_velocity: 
  x: -0.00179243302952
  y: 0.000159482858974
  z: -0.00100711324733
angular_velocity_covariance: [1.0966208586777776e-06, 0.0, 0.0, 0.0, 1.0966208586777776e-06, 0.0, 0.0, 0.0, 1.0966208586777776e-06]
linear_acceleration: 
  x: 0.281834462571
  y: 0.567939295937
  z: 10.0406504791
linear_acceleration_covariance: [0.0015387262937311438, 0.0, 0.0, 0.0, 0.0015387262937311438, 0.0, 0.0, 0.0, 0.0015387262937311438]
---
header: 
  seq: 14
  stamp: 
    secs: 1568012130
    nsecs: 544063960
  frame_id: "imu_link"
orientation: 
  x: 0.0310180332
  y: 0.5111261618
  z: 0.8589041098
  w: -0.0021148659
orientation_covariance: [0.002741552146694444, 0.0, 0.0, 0.0, 0.002741552146694444, 0.0, 0.0, 0.0, 0.007615422629706791]
angular_velocity: 
  x: 0.00136020588572
  y: 0.000501468129303
  z: -0.000734707693048
angular_velocity_covariance: [1.0966208586777776e-06, 0.0, 0.0, 0.0, 1.0966208586777776e-06, 0.0, 0.0, 0.0, 1.0966208586777776e-06]
linear_acceleration: 
  x: 0.276126460188
  y: 0.567072888366
  z: 10.0468592706
linear_acceleration_covariance: [0.0015387262937311438, 0.0, 0.0, 0.0, 0.0015387262937311438, 0.0, 0.0, 0.0, 0.0015387262937311438]
---
header: 
  seq: 15
  stamp: 
    secs: 1568012130
    nsecs: 597139481
  frame_id: "imu_link"
orientation: 
  x: 0.0310180332
  y: 0.511260439
  z: 0.8588369712
  w: -0.0021148659
orientation_covariance: [0.002741552146694444, 0.0, 0.0, 0.0, 0.002741552146694444, 0.0, 0.0, 0.0, 0.007615422629706791]
angular_velocity: 
  x: -0.00228776616804
  y: -0.00131892415804
  z: -0.000673410450248
angular_velocity_covariance: [1.0966208586777776e-06, 0.0, 0.0, 0.0, 1.0966208586777776e-06, 0.0, 0.0, 0.0, 1.0966208586777776e-06]
linear_acceleration: 
  x: 0.272577389404
  y: 0.563273386485
  z: 10.0413507363
linear_acceleration_covariance: [0.0015387262937311438, 0.0, 0.0, 0.0, 0.0015387262937311438, 0.0, 0.0, 0.0, 0.0015387262937311438]
---
header: 
  seq: 16
  stamp: 
    secs: 1568012130
    nsecs: 650289272
  frame_id: "imu_link"
orientation: 
  x: 0.0310180332
  y: 0.5114282855
  z: 0.8587362633
  w: -0.0021148659
orientation_covariance: [0.002741552146694444, 0.0, 0.0, 0.0, 0.002741552146694444, 0.0, 0.0, 0.0, 0.007615422629706791]
angular_velocity: 
  x: -0.000305655894208
  y: -0.000676104300109
  z: 0.000629290011312
angular_velocity_covariance: [1.0966208586777776e-06, 0.0, 0.0, 0.0, 1.0966208586777776e-06, 0.0, 0.0, 0.0, 1.0966208586777776e-06]
linear_acceleration: 
  x: 0.283158623847
  y: 0.564129126532
  z: 10.0452576806
linear_acceleration_covariance: [0.0015387262937311438, 0.0, 0.0, 0.0, 0.0015387262937311438, 0.0, 0.0, 0.0, 0.0015387262937311438]
---
header: 
  seq: 17
  stamp: 
    secs: 1568012130
    nsecs: 701993647
  frame_id: "imu_link"
orientation: 
  x: 0.0309844639
  y: 0.5116297013
  z: 0.8586355554
  w: -0.0021148659
orientation_covariance: [0.002741552146694444, 0.0, 0.0, 0.0, 0.002741552146694444, 0.0, 0.0, 0.0, 0.007615422629706791]
angular_velocity: 
  x: -2.81042980219e-05
  y: -7.3618893824e-06
  z: -0.000612207289335
angular_velocity_covariance: [1.0966208586777776e-06, 0.0, 0.0, 0.0, 1.0966208586777776e-06, 0.0, 0.0, 0.0, 1.0966208586777776e-06]
linear_acceleration: 
  x: 0.281501686952
  y: 0.567396603895
  z: 10.0392102171
linear_acceleration_covariance: [0.0015387262937311438, 0.0, 0.0, 0.0, 0.0015387262937311438, 0.0, 0.0, 0.0, 0.0015387262937311438]
---
header: 
  seq: 18
  stamp: 
    secs: 1568012130
    nsecs: 755235991
  frame_id: "imu_link"
orientation: 
  x: 0.0309844639
  y: 0.5117639785
  z: 0.8585348475
  w: -0.0021484352
orientation_covariance: [0.002741552146694444, 0.0, 0.0, 0.0, 0.002741552146694444, 0.0, 0.0, 0.0, 0.007615422629706791]
angular_velocity: 
  x: -0.00118747895304
  y: 0.000522209186775
  z: -0.00152549144176
angular_velocity_covariance: [1.0966208586777776e-06, 0.0, 0.0, 0.0, 1.0966208586777776e-06, 0.0, 0.0, 0.0, 1.0966208586777776e-06]
linear_acceleration: 
  x: 0.282512690626
  y: 0.565019536033
  z: 10.0454038111
linear_acceleration_covariance: [0.0015387262937311438, 0.0, 0.0, 0.0, 0.0015387262937311438, 0.0, 0.0, 0.0, 0.0015387262937311438]
---
header: 
  seq: 19
  stamp: 
    secs: 1568012130
    nsecs: 808344741
  frame_id: "imu_link"
orientation: 
  x: 0.0309844639
  y: 0.511931825
  z: 0.8584341396
  w: -0.0021148659
orientation_covariance: [0.002741552146694444, 0.0, 0.0, 0.0, 0.002741552146694444, 0.0, 0.0, 0.0, 0.007615422629706791]
angular_velocity: 
  x: -0.00123840124584
  y: -0.00169968220278
  z: -0.000270237623466
angular_velocity_covariance: [1.0966208586777776e-06, 0.0, 0.0, 0.0, 1.0966208586777776e-06, 0.0, 0.0, 0.0, 1.0966208586777776e-06]
linear_acceleration: 
  x: 0.287251427852
  y: 0.56477363498
  z: 10.0530972882
linear_acceleration_covariance: [0.0015387262937311438, 0.0, 0.0, 0.0, 0.0015387262937311438, 0.0, 0.0, 0.0, 0.0015387262937311438]
---
header: 
  seq: 20
  stamp: 
    secs: 1568012130
    nsecs: 860123751
  frame_id: "imu_link"
orientation: 
  x: 0.0309844639
  y: 0.5120996715
  z: 0.8583334317
  w: -0.0021148659
orientation_covariance: [0.002741552146694444, 0.0, 0.0, 0.0, 0.002741552146694444, 0.0, 0.0, 0.0, 0.007615422629706791]
angular_velocity: 
  x: -0.000941850196159
  y: -0.000765896326275
  z: -0.000244495710577
angular_velocity_covariance: [1.0966208586777776e-06, 0.0, 0.0, 0.0, 1.0966208586777776e-06, 0.0, 0.0, 0.0, 1.0966208586777776e-06]
linear_acceleration: 
  x: 0.284732047176
  y: 0.571208636464
  z: 10.0484631986
linear_acceleration_covariance: [0.0015387262937311438, 0.0, 0.0, 0.0, 0.0015387262937311438, 0.0, 0.0, 0.0, 0.0015387262937311438]
---
header: 
  seq: 21
  stamp: 
    secs: 1568012130
    nsecs: 913171303
  frame_id: "imu_link"
orientation: 
  x: 0.0309844639
  y: 0.512267518
  z: 0.8582327238
  w: -0.0020812966
orientation_covariance: [0.002741552146694444, 0.0, 0.0, 0.0, 0.002741552146694444, 0.0, 0.0, 0.0, 0.007615422629706791]
angular_velocity: 
  x: -0.00286861382528
  y: -0.000917321286177
  z: -0.000968907418693
angular_velocity_covariance: [1.0966208586777776e-06, 0.0, 0.0, 0.0, 1.0966208586777776e-06, 0.0, 0.0, 0.0, 1.0966208586777776e-06]
linear_acceleration: 
  x: 0.284857993377
  y: 0.568232470197
  z: 10.0577407301
linear_acceleration_covariance: [0.0015387262937311438, 0.0, 0.0, 0.0, 0.0015387262937311438, 0.0, 0.0, 0.0, 0.0015387262937311438]
---
header: 
  seq: 22
  stamp: 
    secs: 1568012130
    nsecs: 966092345
  frame_id: "imu_link"
orientation: 
  x: 0.0309844639
  y: 0.5124353645
  z: 0.8581320159
  w: -0.0020812966
orientation_covariance: [0.002741552146694444, 0.0, 0.0, 0.0, 0.002741552146694444, 0.0, 0.0, 0.0, 0.007615422629706791]
angular_velocity: 
  x: 0.000322813680136
  y: -0.000112604990132
  z: -0.00277844865748
angular_velocity_covariance: [1.0966208586777776e-06, 0.0, 0.0, 0.0, 1.0966208586777776e-06, 0.0, 0.0, 0.0, 1.0966208586777776e-06]
linear_acceleration: 
  x: 0.285299490067
  y: 0.564852764631
  z: 10.0536175127
linear_acceleration_covariance: [0.0015387262937311438, 0.0, 0.0, 0.0, 0.0015387262937311438, 0.0, 0.0, 0.0, 0.0015387262937311438]
---
header: 
  seq: 23
  stamp: 
    secs: 1568012131
    nsecs:  19105782
  frame_id: "imu_link"
orientation: 
  x: 0.0309844639
  y: 0.5125696417
  z: 0.8580648773
  w: -0.0020812966
orientation_covariance: [0.002741552146694444, 0.0, 0.0, 0.0, 0.002741552146694444, 0.0, 0.0, 0.0, 0.007615422629706791]
angular_velocity: 
  x: 0.000407184261938
  y: -0.00144004792333
  z: -0.00152682861391
angular_velocity_covariance: [1.0966208586777776e-06, 0.0, 0.0, 0.0, 1.0966208586777776e-06, 0.0, 0.0, 0.0, 1.0966208586777776e-06]
linear_acceleration: 
  x: 0.282390251556
  y: 0.569304629474
  z: 10.0480809213
linear_acceleration_covariance: [0.0015387262937311438, 0.0, 0.0, 0.0, 0.0015387262937311438, 0.0, 0.0, 0.0, 0.0015387262937311438]
---
header: 
  seq: 24
  stamp: 
    secs: 1568012131
    nsecs:  69933282
  frame_id: "imu_link"
orientation: 
  x: 0.0309844639
  y: 0.5127039189
  z: 0.8579641694
  w: -0.0020812966
orientation_covariance: [0.002741552146694444, 0.0, 0.0, 0.0, 0.002741552146694444, 0.0, 0.0, 0.0, 0.007615422629706791]
angular_velocity: 
  x: -0.00110616671527
  y: 0.00128922249977
  z: -6.36211369329e-05
angular_velocity_covariance: [1.0966208586777776e-06, 0.0, 0.0, 0.0, 1.0966208586777776e-06, 0.0, 0.0, 0.0, 1.0966208586777776e-06]
linear_acceleration: 
  x: 0.283052021667
  y: 0.563494116564
  z: 10.0468136779
linear_acceleration_covariance: [0.0015387262937311438, 0.0, 0.0, 0.0, 0.0015387262937311438, 0.0, 0.0, 0.0, 0.0015387262937311438]
---
header: 
  seq: 25
  stamp: 
    secs: 1568012131
    nsecs: 123088387
  frame_id: "imu_link"
orientation: 
  x: 0.0309844639
  y: 0.5128717654
  z: 0.8578634615
  w: -0.0020812966
orientation_covariance: [0.002741552146694444, 0.0, 0.0, 0.0, 0.002741552146694444, 0.0, 0.0, 0.0, 0.007615422629706791]
angular_velocity: 
  x: 0.000134737924756
  y: -0.00041828182845
  z: -0.00158594337799
angular_velocity_covariance: [1.0966208586777776e-06, 0.0, 0.0, 0.0, 1.0966208586777776e-06, 0.0, 0.0, 0.0, 1.0966208586777776e-06]
linear_acceleration: 
  x: 0.284833735718
  y: 0.561254265215
  z: 10.0376881221
linear_acceleration_covariance: [0.0015387262937311438, 0.0, 0.0, 0.0, 0.0015387262937311438, 0.0, 0.0, 0.0, 0.0015387262937311438]
---
header: 
  seq: 26
  stamp: 
    secs: 1568012131
    nsecs: 176210053
  frame_id: "imu_link"
orientation: 
  x: 0.0309844639
  y: 0.5130060426
  z: 0.8577963229
  w: -0.0020812966
orientation_covariance: [0.002741552146694444, 0.0, 0.0, 0.0, 0.002741552146694444, 0.0, 0.0, 0.0, 0.007615422629706791]
angular_velocity: 
  x: 0.000993160064722
  y: -2.95771720714e-05
  z: -0.000890146184955
angular_velocity_covariance: [1.0966208586777776e-06, 0.0, 0.0, 0.0, 1.0966208586777776e-06, 0.0, 0.0, 0.0, 1.0966208586777776e-06]
linear_acceleration: 
  x: 0.282284617491
  y: 0.564592871586
  z: 10.0401805235
linear_acceleration_covariance: [0.0015387262937311438, 0.0, 0.0, 0.0, 0.0015387262937311438, 0.0, 0.0, 0.0, 0.0015387262937311438]
---
header: 
  seq: 27
  stamp: 
    secs: 1568012131
    nsecs: 229111616
  frame_id: "imu_link"
orientation: 
  x: 0.0309844639
  y: 0.5131738891
  z: 0.857695615
  w: -0.0020812966
orientation_covariance: [0.002741552146694444, 0.0, 0.0, 0.0, 0.002741552146694444, 0.0, 0.0, 0.0, 0.007615422629706791]
angular_velocity: 
  x: 0.000484044482396
  y: 0.000233855354728
  z: -0.000244093863235
angular_velocity_covariance: [1.0966208586777776e-06, 0.0, 0.0, 0.0, 1.0966208586777776e-06, 0.0, 0.0, 0.0, 1.0966208586777776e-06]
linear_acceleration: 
  x: 0.279653337406
  y: 0.561710301887
  z: 10.0567201548
linear_acceleration_covariance: [0.0015387262937311438, 0.0, 0.0, 0.0, 0.0015387262937311438, 0.0, 0.0, 0.0, 0.0015387262937311438]
---
header: 
  seq: 28
  stamp: 
    secs: 1568012131
    nsecs: 280341772
  frame_id: "imu_link"
orientation: 
  x: 0.0309508946
  y: 0.5133417356
  z: 0.8575949071
  w: -0.0020812966
orientation_covariance: [0.002741552146694444, 0.0, 0.0, 0.0, 0.002741552146694444, 0.0, 0.0, 0.0, 0.007615422629706791]
angular_velocity: 
  x: -0.00187132488559
  y: 0.000817897017265
  z: -0.00137103928173
angular_velocity_covariance: [1.0966208586777776e-06, 0.0, 0.0, 0.0, 1.0966208586777776e-06, 0.0, 0.0, 0.0, 1.0966208586777776e-06]
linear_acceleration: 
  x: 0.284418268519
  y: 0.566498339881
  z: 10.0495620998
linear_acceleration_covariance: [0.0015387262937311438, 0.0, 0.0, 0.0, 0.0015387262937311438, 0.0, 0.0, 0.0, 0.0015387262937311438]
---
header: 
  seq: 29
  stamp: 
    secs: 1568012131
    nsecs: 335609584
  frame_id: "imu_link"
orientation: 
  x: 0.0309844639
  y: 0.5135095821
  z: 0.8574941992
  w: -0.0021148659
orientation_covariance: [0.002741552146694444, 0.0, 0.0, 0.0, 0.002741552146694444, 0.0, 0.0, 0.0, 0.007615422629706791]
angular_velocity: 
  x: 0.00117281830326
  y: 0.0029937501473
  z: -4.73820473033e-05
angular_velocity_covariance: [1.0966208586777776e-06, 0.0, 0.0, 0.0, 1.0966208586777776e-06, 0.0, 0.0, 0.0, 1.0966208586777776e-06]
linear_acceleration: 
  x: 0.28440069633
  y: 0.566951198215
  z: 10.043213023
linear_acceleration_covariance: [0.0015387262937311438, 0.0, 0.0, 0.0, 0.0015387262937311438, 0.0, 0.0, 0.0, 0.0015387262937311438]
---
header: 
  seq: 30
  stamp: 
    secs: 1568012131
    nsecs: 386517709
  frame_id: "imu_link"
orientation: 
  x: 0.0309844639
  y: 0.5136774286
  z: 0.8573934913
  w: -0.0021148659
orientation_covariance: [0.002741552146694444, 0.0, 0.0, 0.0, 0.002741552146694444, 0.0, 0.0, 0.0, 0.007615422629706791]
angular_velocity: 
  x: -0.00201905295398
  y: -0.00135560439068
  z: 0.000594323668474
angular_velocity_covariance: [1.0966208586777776e-06, 0.0, 0.0, 0.0, 1.0966208586777776e-06, 0.0, 0.0, 0.0, 1.0966208586777776e-06]
linear_acceleration: 
  x: 0.287158087013
  y: 0.570928394751
  z: 10.0463460603
linear_acceleration_covariance: [0.0015387262937311438, 0.0, 0.0, 0.0, 0.0015387262937311438, 0.0, 0.0, 0.0, 0.0015387262937311438]
---
header: 
  seq: 31
  stamp: 
    secs: 1568012131
    nsecs: 439540782
  frame_id: "imu_link"
orientation: 
  x: 0.0309508946
  y: 0.5138117058
  z: 0.8572927834
  w: -0.0020812966
orientation_covariance: [0.002741552146694444, 0.0, 0.0, 0.0, 0.002741552146694444, 0.0, 0.0, 0.0, 0.007615422629706791]
angular_velocity: 
  x: -0.00133114492054
  y: -0.00156615276214
  z: 0.000434177831281
angular_velocity_covariance: [1.0966208586777776e-06, 0.0, 0.0, 0.0, 1.0966208586777776e-06, 0.0, 0.0, 0.0, 1.0966208586777776e-06]
linear_acceleration: 
  x: 0.28085244753
  y: 0.564350514198
  z: 10.0528833532
linear_acceleration_covariance: [0.0015387262937311438, 0.0, 0.0, 0.0, 0.0015387262937311438, 0.0, 0.0, 0.0, 0.0015387262937311438]
---
header: 
  seq: 32
  stamp: 
    secs: 1568012131
    nsecs: 492758699
  frame_id: "imu_link"
orientation: 
  x: 0.0309844639
  y: 0.5139795523
  z: 0.8571920755
  w: -0.0020812966
orientation_covariance: [0.002741552146694444, 0.0, 0.0, 0.0, 0.002741552146694444, 0.0, 0.0, 0.0, 0.007615422629706791]
angular_velocity: 
  x: -0.00170237293175
  y: -0.000213140824838
  z: -0.00126828534625
angular_velocity_covariance: [1.0966208586777776e-06, 0.0, 0.0, 0.0, 1.0966208586777776e-06, 0.0, 0.0, 0.0, 1.0966208586777776e-06]
linear_acceleration: 
  x: 0.280504547408
  y: 0.568290958919
  z: 10.0459240355
linear_acceleration_covariance: [0.0015387262937311438, 0.0, 0.0, 0.0, 0.0015387262937311438, 0.0, 0.0, 0.0, 0.0015387262937311438]
---
header: 
  seq: 33
  stamp: 
    secs: 1568012131
    nsecs: 545605366
  frame_id: "imu_link"
orientation: 
  x: 0.0309508946
  y: 0.5141473988
  z: 0.8571249369
  w: -0.0021148659
orientation_covariance: [0.002741552146694444, 0.0, 0.0, 0.0, 0.002741552146694444, 0.0, 0.0, 0.0, 0.007615422629706791]
angular_velocity: 
  x: 0.00202830873914
  y: -0.000371215527633
  z: 5.85582050256e-05
angular_velocity_covariance: [1.0966208586777776e-06, 0.0, 0.0, 0.0, 1.0966208586777776e-06, 0.0, 0.0, 0.0, 1.0966208586777776e-06]
linear_acceleration: 
  x: 0.276323444064
  y: 0.567368948703
  z: 10.0477126725
linear_acceleration_covariance: [0.0015387262937311438, 0.0, 0.0, 0.0, 0.0015387262937311438, 0.0, 0.0, 0.0, 0.0015387262937311438]
---
header: 
  seq: 34
  stamp: 
    secs: 1568012131
    nsecs: 598934324
  frame_id: "imu_link"
orientation: 
  x: 0.0309844639
  y: 0.5143152453
  z: 0.857024229
  w: -0.0021148659
orientation_covariance: [0.002741552146694444, 0.0, 0.0, 0.0, 0.002741552146694444, 0.0, 0.0, 0.0, 0.007615422629706791]
angular_velocity: 
  x: 0.00261320081221
  y: 0.000338794987346
  z: 0.000699764626863
angular_velocity_covariance: [1.0966208586777776e-06, 0.0, 0.0, 0.0, 1.0966208586777776e-06, 0.0, 0.0, 0.0, 1.0966208586777776e-06]
linear_acceleration: 
  x: 0.275927540082
  y: 0.568960565276
  z: 10.0533229136
linear_acceleration_covariance: [0.0015387262937311438, 0.0, 0.0, 0.0, 0.0015387262937311438, 0.0, 0.0, 0.0, 0.0015387262937311438]
---
header: 
  seq: 35
  stamp: 
    secs: 1568012131
    nsecs: 652043491
  frame_id: "imu_link"
orientation: 
  x: 0.0309844639
  y: 0.5144830918
  z: 0.8569235211
  w: -0.0021148659
orientation_covariance: [0.002741552146694444, 0.0, 0.0, 0.0, 0.002741552146694444, 0.0, 0.0, 0.0, 0.007615422629706791]
angular_velocity: 
  x: 0.00105567315499
  y: -0.000787246477817
  z: 0.000693844880091
angular_velocity_covariance: [1.0966208586777776e-06, 0.0, 0.0, 0.0, 1.0966208586777776e-06, 0.0, 0.0, 0.0, 1.0966208586777776e-06]
linear_acceleration: 
  x: 0.275209473207
  y: 0.559409294936
  z: 10.0442160626
linear_acceleration_covariance: [0.0015387262937311438, 0.0, 0.0, 0.0, 0.0015387262937311438, 0.0, 0.0, 0.0, 0.0015387262937311438]
---
header: 
  seq: 36
  stamp: 
    secs: 1568012131
    nsecs: 705148595
  frame_id: "imu_link"
orientation: 
  x: 0.0309844639
  y: 0.514617369
  z: 0.8568228132
  w: -0.0021484352
orientation_covariance: [0.002741552146694444, 0.0, 0.0, 0.0, 0.002741552146694444, 0.0, 0.0, 0.0, 0.007615422629706791]
angular_velocity: 
  x: -0.00023451134345
  y: 0.000810972733412
  z: -8.69186600031e-05
angular_velocity_covariance: [1.0966208586777776e-06, 0.0, 0.0, 0.0, 1.0966208586777776e-06, 0.0, 0.0, 0.0, 1.0966208586777776e-06]
linear_acceleration: 
  x: 0.272477253498
  y: 0.563226259408
  z: 10.0405616317
linear_acceleration_covariance: [0.0015387262937311438, 0.0, 0.0, 0.0, 0.0015387262937311438, 0.0, 0.0, 0.0, 0.0015387262937311438]
---
header: 
  seq: 37
  stamp: 
    secs: 1568012131
    nsecs: 757251095
  frame_id: "imu_link"
orientation: 
  x: 0.0309844639
  y: 0.5147852155
  z: 0.8567221053
  w: -0.0021484352
orientation_covariance: [0.002741552146694444, 0.0, 0.0, 0.0, 0.002741552146694444, 0.0, 0.0, 0.0, 0.007615422629706791]
angular_velocity: 
  x: 0.000124492215442
  y: 0.000418789851135
  z: -0.000939903929946
angular_velocity_covariance: [1.0966208586777776e-06, 0.0, 0.0, 0.0, 1.0966208586777776e-06, 0.0, 0.0, 0.0, 1.0966208586777776e-06]
linear_acceleration: 
  x: 0.279534186272
  y: 0.560229342614
  z: 10.0443282908
linear_acceleration_covariance: [0.0015387262937311438, 0.0, 0.0, 0.0, 0.0015387262937311438, 0.0, 0.0, 0.0, 0.0015387262937311438]
---
header: 
  seq: 38
  stamp: 
    secs: 1568012131
    nsecs: 809968855
  frame_id: "imu_link"
orientation: 
  x: 0.0309844639
  y: 0.5149194927
  z: 0.8566549667
  w: -0.0021484352
orientation_covariance: [0.002741552146694444, 0.0, 0.0, 0.0, 0.002741552146694444, 0.0, 0.0, 0.0, 0.007615422629706791]
angular_velocity: 
  x: 0.000358627832765
  y: -0.00173560327846
  z: -0.000354711633576
angular_velocity_covariance: [1.0966208586777776e-06, 0.0, 0.0, 0.0, 1.0966208586777776e-06, 0.0, 0.0, 0.0, 1.0966208586777776e-06]
linear_acceleration: 
  x: 0.27890686642
  y: 0.56879233257
  z: 10.0468838205
linear_acceleration_covariance: [0.0015387262937311438, 0.0, 0.0, 0.0, 0.0015387262937311438, 0.0, 0.0, 0.0, 0.0015387262937311438]
---
header: 
  seq: 39
  stamp: 
    secs: 1568012131
    nsecs: 863187501
  frame_id: "imu_link"
orientation: 
  x: 0.0309844639
  y: 0.5150537699
  z: 0.8565542588
  w: -0.0021820045
orientation_covariance: [0.002741552146694444, 0.0, 0.0, 0.0, 0.002741552146694444, 0.0, 0.0, 0.0, 0.007615422629706791]
angular_velocity: 
  x: 0.000238610667473
  y: 0.000959831669985
  z: -0.000890153792129
angular_velocity_covariance: [1.0966208586777776e-06, 0.0, 0.0, 0.0, 1.0966208586777776e-06, 0.0, 0.0, 0.0, 1.0966208586777776e-06]
linear_acceleration: 
  x: 0.278549139023
  y: 0.571296680074
  z: 10.0387379234
linear_acceleration_covariance: [0.0015387262937311438, 0.0, 0.0, 0.0, 0.0015387262937311438, 0.0, 0.0, 0.0, 0.0015387262937311438]
---
header: 
  seq: 40
  stamp: 
    secs: 1568012131
    nsecs: 916356199
  frame_id: "imu_link"
orientation: 
  x: 0.0309844639
  y: 0.5152216164
  z: 0.8564535509
  w: -0.0022155738
orientation_covariance: [0.002741552146694444, 0.0, 0.0, 0.0, 0.002741552146694444, 0.0, 0.0, 0.0, 0.007615422629706791]
angular_velocity: 
  x: -0.00127461503518
  y: -0.000765015389517
  z: 0.000110681716116
angular_velocity_covariance: [1.0966208586777776e-06, 0.0, 0.0, 0.0, 1.0966208586777776e-06, 0.0, 0.0, 0.0, 1.0966208586777776e-06]
linear_acceleration: 
  x: 0.278959637787
  y: 0.568615332035
  z: 10.0375606963
linear_acceleration_covariance: [0.0015387262937311438, 0.0, 0.0, 0.0, 0.0015387262937311438, 0.0, 0.0, 0.0, 0.0015387262937311438]
---
header: 
  seq: 41
  stamp: 
    secs: 1568012131
    nsecs: 967992136
  frame_id: "imu_link"
orientation: 
  x: 0.0309844639
  y: 0.5153558936
  z: 0.8563864123
  w: -0.0022491431
orientation_covariance: [0.002741552146694444, 0.0, 0.0, 0.0, 0.002741552146694444, 0.0, 0.0, 0.0, 0.007615422629706791]
angular_velocity: 
  x: -0.00065518756243
  y: 0.00136152784351
  z: -0.000322269702176
angular_velocity_covariance: [1.0966208586777776e-06, 0.0, 0.0, 0.0, 1.0966208586777776e-06, 0.0, 0.0, 0.0, 1.0966208586777776e-06]
linear_acceleration: 
  x: 0.278095312575
  y: 0.567523773939
  z: 10.0429102407
linear_acceleration_covariance: [0.0015387262937311438, 0.0, 0.0, 0.0, 0.0015387262937311438, 0.0, 0.0, 0.0, 0.0015387262937311438]
---
header: 
  seq: 42
  stamp: 
    secs: 1568012132
    nsecs:  21012657
  frame_id: "imu_link"
orientation: 
  x: 0.0310180332
  y: 0.5155237401
  z: 0.8562857044
  w: -0.0022491431
orientation_covariance: [0.002741552146694444, 0.0, 0.0, 0.0, 0.002741552146694444, 0.0, 0.0, 0.0, 0.007615422629706791]
angular_velocity: 
  x: 6.06936753098e-05
  y: -0.000903255426373
  z: -0.00111653379802
angular_velocity_covariance: [1.0966208586777776e-06, 0.0, 0.0, 0.0, 1.0966208586777776e-06, 0.0, 0.0, 0.0, 1.0966208586777776e-06]
linear_acceleration: 
  x: 0.282591546282
  y: 0.571269426741
  z: 10.0452939209
linear_acceleration_covariance: [0.0015387262937311438, 0.0, 0.0, 0.0, 0.0015387262937311438, 0.0, 0.0, 0.0, 0.0015387262937311438]
---
header: 
  seq: 43
  stamp: 
    secs: 1568012132
    nsecs:  74039949
  frame_id: "imu_link"
orientation: 
  x: 0.0310180332
  y: 0.5156580173
  z: 0.8562185658
  w: -0.0022827124
orientation_covariance: [0.002741552146694444, 0.0, 0.0, 0.0, 0.002741552146694444, 0.0, 0.0, 0.0, 0.007615422629706791]
angular_velocity: 
  x: 0.000197273820294
  y: 0.00128532034459
  z: 0.00110778268709
angular_velocity_covariance: [1.0966208586777776e-06, 0.0, 0.0, 0.0, 1.0966208586777776e-06, 0.0, 0.0, 0.0, 1.0966208586777776e-06]
linear_acceleration: 
  x: 0.284871875772
  y: 0.571050011836
  z: 10.0522777885
linear_acceleration_covariance: [0.0015387262937311438, 0.0, 0.0, 0.0, 0.0015387262937311438, 0.0, 0.0, 0.0, 0.0015387262937311438]
---
header: 
  seq: 44
  stamp: 
    secs: 1568012132
    nsecs: 127105522
  frame_id: "imu_link"
orientation: 
  x: 0.0309844639
  y: 0.5158258638
  z: 0.8561178579
  w: -0.0022827124
orientation_covariance: [0.002741552146694444, 0.0, 0.0, 0.0, 0.002741552146694444, 0.0, 0.0, 0.0, 0.007615422629706791]
angular_velocity: 
  x: 0.000930654451589
  y: 0.00149507301865
  z: -0.000235508549686
angular_velocity_covariance: [1.0966208586777776e-06, 0.0, 0.0, 0.0, 1.0966208586777776e-06, 0.0, 0.0, 0.0, 1.0966208586777776e-06]
linear_acceleration: 
  x: 0.282081094276
  y: 0.559887397309
  z: 10.0565272626
linear_acceleration_covariance: [0.0015387262937311438, 0.0, 0.0, 0.0, 0.0015387262937311438, 0.0, 0.0, 0.0, 0.0015387262937311438]
---
header: 
  seq: 45
  stamp: 
    secs: 1568012132
    nsecs: 180063699
  frame_id: "imu_link"
orientation: 
  x: 0.0309844639
  y: 0.515960141
  z: 0.85601715
  w: -0.0022827124
orientation_covariance: [0.002741552146694444, 0.0, 0.0, 0.0, 0.002741552146694444, 0.0, 0.0, 0.0, 0.007615422629706791]
angular_velocity: 
  x: -0.000458688796134
  y: -0.000890806773741
  z: 0.000175515043224
angular_velocity_covariance: [1.0966208586777776e-06, 0.0, 0.0, 0.0, 1.0966208586777776e-06, 0.0, 0.0, 0.0, 1.0966208586777776e-06]
linear_acceleration: 
  x: 0.280564479168
  y: 0.561521282121
  z: 10.0563004681
linear_acceleration_covariance: [0.0015387262937311438, 0.0, 0.0, 0.0, 0.0015387262937311438, 0.0, 0.0, 0.0, 0.0015387262937311438]
---
header: 
  seq: 46
  stamp: 
    secs: 1568012132
    nsecs: 233416459
  frame_id: "imu_link"
orientation: 
  x: 0.0309844639
  y: 0.5161279875
  z: 0.8559164421
  w: -0.0022827124
orientation_covariance: [0.002741552146694444, 0.0, 0.0, 0.0, 0.002741552146694444, 0.0, 0.0, 0.0, 0.007615422629706791]
angular_velocity: 
  x: -0.00141533410051
  y: 0.000589569769884
  z: 0.00059340222514
angular_velocity_covariance: [1.0966208586777776e-06, 0.0, 0.0, 0.0, 1.0966208586777776e-06, 0.0, 0.0, 0.0, 1.0966208586777776e-06]
linear_acceleration: 
  x: 0.275542157494
  y: 0.564510928924
  z: 10.0556212537
linear_acceleration_covariance: [0.0015387262937311438, 0.0, 0.0, 0.0, 0.0015387262937311438, 0.0, 0.0, 0.0, 0.0015387262937311438]
---
header: 
  seq: 47
  stamp: 
    secs: 1568012132
    nsecs: 286543282
  frame_id: "imu_link"
orientation: 
  x: 0.0309844639
  y: 0.5162622647
  z: 0.8558157342
  w: -0.0023162817
orientation_covariance: [0.002741552146694444, 0.0, 0.0, 0.0, 0.002741552146694444, 0.0, 0.0, 0.0, 0.007615422629706791]
angular_velocity: 
  x: -0.000253500377721
  y: 0.000395524609791
  z: -0.00196907993246
angular_velocity_covariance: [1.0966208586777776e-06, 0.0, 0.0, 0.0, 1.0966208586777776e-06, 0.0, 0.0, 0.0, 1.0966208586777776e-06]
linear_acceleration: 
  x: 0.275411388987
  y: 0.565522626717
  z: 10.0558714291
linear_acceleration_covariance: [0.0015387262937311438, 0.0, 0.0, 0.0, 0.0015387262937311438, 0.0, 0.0, 0.0, 0.0015387262937311438]
---
header: 
  seq: 48
  stamp: 
    secs: 1568012132
    nsecs: 339346511
  frame_id: "imu_link"
orientation: 
  x: 0.0309508946
  y: 0.5164301112
  z: 0.8557485956
  w: -0.0023162817
orientation_covariance: [0.002741552146694444, 0.0, 0.0, 0.0, 0.002741552146694444, 0.0, 0.0, 0.0, 0.007615422629706791]
angular_velocity: 
  x: -0.000330603491343
  y: 0.000944446778221
  z: -0.00307360726922
angular_velocity_covariance: [1.0966208586777776e-06, 0.0, 0.0, 0.0, 1.0966208586777776e-06, 0.0, 0.0, 0.0, 1.0966208586777776e-06]
linear_acceleration: 
  x: 0.277355052134
  y: 0.565477801194
  z: 10.0587051912
linear_acceleration_covariance: [0.0015387262937311438, 0.0, 0.0, 0.0, 0.0015387262937311438, 0.0, 0.0, 0.0, 0.0015387262937311438]
---
header: 
  seq: 49
  stamp: 
    secs: 1568012132
    nsecs: 392544792
  frame_id: "imu_link"
orientation: 
  x: 0.0309508946
  y: 0.5165979577
  z: 0.8556478877
  w: -0.0023162817
orientation_covariance: [0.002741552146694444, 0.0, 0.0, 0.0, 0.002741552146694444, 0.0, 0.0, 0.0, 0.007615422629706791]
angular_velocity: 
  x: -0.00101767863675
  y: 0.00172650431812
  z: 0.00215248564697
angular_velocity_covariance: [1.0966208586777776e-06, 0.0, 0.0, 0.0, 1.0966208586777776e-06, 0.0, 0.0, 0.0, 1.0966208586777776e-06]
linear_acceleration: 
  x: 0.279050932799
  y: 0.564871944256
  z: 10.0530540336
linear_acceleration_covariance: [0.0015387262937311438, 0.0, 0.0, 0.0, 0.0015387262937311438, 0.0, 0.0, 0.0, 0.0015387262937311438]
---
header: 
  seq: 50
  stamp: 
    secs: 1568012132
    nsecs: 445621928
  frame_id: "imu_link"
orientation: 
  x: 0.0309508946
  y: 0.5167658042
  z: 0.8555471798
  w: -0.0023162817
orientation_covariance: [0.002741552146694444, 0.0, 0.0, 0.0, 0.002741552146694444, 0.0, 0.0, 0.0, 0.007615422629706791]
angular_velocity: 
  x: 0.000677007733296
  y: -0.00231295800748
  z: 0.000699209563234
angular_velocity_covariance: [1.0966208586777776e-06, 0.0, 0.0, 0.0, 1.0966208586777776e-06, 0.0, 0.0, 0.0, 1.0966208586777776e-06]
linear_acceleration: 
  x: 0.277531870006
  y: 0.56694122481
  z: 10.0377570957
linear_acceleration_covariance: [0.0015387262937311438, 0.0, 0.0, 0.0, 0.0015387262937311438, 0.0, 0.0, 0.0, 0.0015387262937311438]
---
header: 
  seq: 51
  stamp: 
    secs: 1568012132
    nsecs: 494925469
  frame_id: "imu_link"
orientation: 
  x: 0.0309508946
  y: 0.5169000814
  z: 0.8554464719
  w: -0.0023162817
orientation_covariance: [0.002741552146694444, 0.0, 0.0, 0.0, 0.002741552146694444, 0.0, 0.0, 0.0, 0.007615422629706791]
angular_velocity: 
  x: 0.000233249511588
  y: -0.000240460169782
  z: -0.00118847321719
angular_velocity_covariance: [1.0966208586777776e-06, 0.0, 0.0, 0.0, 1.0966208586777776e-06, 0.0, 0.0, 0.0, 1.0966208586777776e-06]
linear_acceleration: 
  x: 0.281036791121
  y: 0.569279787293
  z: 10.0463729484
linear_acceleration_covariance: [0.0015387262937311438, 0.0, 0.0, 0.0, 0.0015387262937311438, 0.0, 0.0, 0.0, 0.0015387262937311438]
---
header: 
  seq: 52
  stamp: 
    secs: 1568012132
    nsecs: 548044896
  frame_id: "imu_link"
orientation: 
  x: 0.0309508946
  y: 0.5170343586
  z: 0.8553793333
  w: -0.0023162817
orientation_covariance: [0.002741552146694444, 0.0, 0.0, 0.0, 0.002741552146694444, 0.0, 0.0, 0.0, 0.007615422629706791]
angular_velocity: 
  x: -0.000938075347365
  y: 0.000382749368825
  z: -0.000745922683118
angular_velocity_covariance: [1.0966208586777776e-06, 0.0, 0.0, 0.0, 1.0966208586777776e-06, 0.0, 0.0, 0.0, 1.0966208586777776e-06]
linear_acceleration: 
  x: 0.287971997211
  y: 0.566603444223
  z: 10.0474601591
linear_acceleration_covariance: [0.0015387262937311438, 0.0, 0.0, 0.0, 0.0015387262937311438, 0.0, 0.0, 0.0, 0.0015387262937311438]
---
header: 
  seq: 53
  stamp: 
    secs: 1568012132
    nsecs: 601076199
  frame_id: "imu_link"
orientation: 
  x: 0.0309173253
  y: 0.5172022051
  z: 0.8552786254
  w: -0.0023162817
orientation_covariance: [0.002741552146694444, 0.0, 0.0, 0.0, 0.002741552146694444, 0.0, 0.0, 0.0, 0.007615422629706791]
angular_velocity: 
  x: 0.000309571670776
  y: -0.000587147697693
  z: -0.00244494520737
angular_velocity_covariance: [1.0966208586777776e-06, 0.0, 0.0, 0.0, 1.0966208586777776e-06, 0.0, 0.0, 0.0, 1.0966208586777776e-06]
linear_acceleration: 
  x: 0.287186728585
  y: 0.569481410813
  z: 10.0457697218
linear_acceleration_covariance: [0.0015387262937311438, 0.0, 0.0, 0.0, 0.0015387262937311438, 0.0, 0.0, 0.0, 0.0015387262937311438]
---
header: 
  seq: 54
  stamp: 
    secs: 1568012132
    nsecs: 654124792
  frame_id: "imu_link"
orientation: 
  x: 0.0309173253
  y: 0.5173364823
  z: 0.8552114868
  w: -0.0023162817
orientation_covariance: [0.002741552146694444, 0.0, 0.0, 0.0, 0.002741552146694444, 0.0, 0.0, 0.0, 0.007615422629706791]
angular_velocity: 
  x: 0.000651756661932
  y: 0.00117215030235
  z: -0.000264214513405
angular_velocity_covariance: [1.0966208586777776e-06, 0.0, 0.0, 0.0, 1.0966208586777776e-06, 0.0, 0.0, 0.0, 1.0966208586777776e-06]
linear_acceleration: 
  x: 0.283096828923
  y: 0.564060079884
  z: 10.044601847
linear_acceleration_covariance: [0.0015387262937311438, 0.0, 0.0, 0.0, 0.0015387262937311438, 0.0, 0.0, 0.0, 0.0015387262937311438]
---
header: 
  seq: 55
  stamp: 
    secs: 1568012132
    nsecs: 707016511
  frame_id: "imu_link"
orientation: 
  x: 0.0309173253
  y: 0.5174707595
  z: 0.8551107789
  w: -0.002349851
orientation_covariance: [0.002741552146694444, 0.0, 0.0, 0.0, 0.002741552146694444, 0.0, 0.0, 0.0, 0.007615422629706791]
angular_velocity: 
  x: -0.000183710505359
  y: -0.00139389058228
  z: -0.000657716265094
angular_velocity_covariance: [1.0966208586777776e-06, 0.0, 0.0, 0.0, 1.0966208586777776e-06, 0.0, 0.0, 0.0, 1.0966208586777776e-06]
linear_acceleration: 
  x: 0.277013855748
  y: 0.561677714792
  z: 10.0451162263
linear_acceleration_covariance: [0.0015387262937311438, 0.0, 0.0, 0.0, 0.0015387262937311438, 0.0, 0.0, 0.0, 0.0015387262937311438]
---
header: 
  seq: 56
  stamp: 
    secs: 1568012132
    nsecs: 760818542
  frame_id: "imu_link"
orientation: 
  x: 0.0309173253
  y: 0.5176050367
  z: 0.855010071
  w: -0.002349851
orientation_covariance: [0.002741552146694444, 0.0, 0.0, 0.0, 0.002741552146694444, 0.0, 0.0, 0.0, 0.007615422629706791]
angular_velocity: 
  x: -0.00050764840553
  y: -0.000738105954219
  z: 0.000904647734273
angular_velocity_covariance: [1.0966208586777776e-06, 0.0, 0.0, 0.0, 1.0966208586777776e-06, 0.0, 0.0, 0.0, 1.0966208586777776e-06]
linear_acceleration: 
  x: 0.280933422078
  y: 0.564412327387
  z: 10.0508176528
linear_acceleration_covariance: [0.0015387262937311438, 0.0, 0.0, 0.0, 0.0015387262937311438, 0.0, 0.0, 0.0, 0.0015387262937311438]
---
header: 
  seq: 57
  stamp: 
    secs: 1568012132
    nsecs: 813405209
  frame_id: "imu_link"
orientation: 
  x: 0.0309173253
  y: 0.5177728832
  z: 0.8549429324
  w: -0.002349851
orientation_covariance: [0.002741552146694444, 0.0, 0.0, 0.0, 0.002741552146694444, 0.0, 0.0, 0.0, 0.007615422629706791]
angular_velocity: 
  x: -0.000629120702926
  y: 3.94720370577e-05
  z: 0.000276412844498
angular_velocity_covariance: [1.0966208586777776e-06, 0.0, 0.0, 0.0, 1.0966208586777776e-06, 0.0, 0.0, 0.0, 1.0966208586777776e-06]
linear_acceleration: 
  x: 0.282102831183
  y: 0.56175457942
  z: 10.0435543838
linear_acceleration_covariance: [0.0015387262937311438, 0.0, 0.0, 0.0, 0.0015387262937311438, 0.0, 0.0, 0.0, 0.0015387262937311438]
---
header: 
  seq: 58
  stamp: 
    secs: 1568012132
    nsecs: 861707084
  frame_id: "imu_link"
orientation: 
  x: 0.0309173253
  y: 0.5179071604
  z: 0.8548422245
  w: -0.002349851
orientation_covariance: [0.002741552146694444, 0.0, 0.0, 0.0, 0.002741552146694444, 0.0, 0.0, 0.0, 0.007615422629706791]
angular_velocity: 
  x: -0.00011472691217
  y: 0.00281678335294
  z: -0.000449580473117
angular_velocity_covariance: [1.0966208586777776e-06, 0.0, 0.0, 0.0, 1.0966208586777776e-06, 0.0, 0.0, 0.0, 1.0966208586777776e-06]
linear_acceleration: 
  x: 0.27751037056
  y: 0.565039555908
  z: 10.0447783726
linear_acceleration_covariance: [0.0015387262937311438, 0.0, 0.0, 0.0, 0.0015387262937311438, 0.0, 0.0, 0.0, 0.0015387262937311438]
---
header: 
  seq: 59
  stamp: 
    secs: 1568012132
    nsecs: 914313803
  frame_id: "imu_link"
orientation: 
  x: 0.0309173253
  y: 0.5180750069
  z: 0.8547415166
  w: -0.002349851
orientation_covariance: [0.002741552146694444, 0.0, 0.0, 0.0, 0.002741552146694444, 0.0, 0.0, 0.0, 0.007615422629706791]
angular_velocity: 
  x: -0.000387352034196
  y: -0.00164975066312
  z: -0.00104668979769
angular_velocity_covariance: [1.0966208586777776e-06, 0.0, 0.0, 0.0, 1.0966208586777776e-06, 0.0, 0.0, 0.0, 1.0966208586777776e-06]
linear_acceleration: 
  x: 0.28421392332
  y: 0.56381136582
  z: 10.0487051907
linear_acceleration_covariance: [0.0015387262937311438, 0.0, 0.0, 0.0, 0.0015387262937311438, 0.0, 0.0, 0.0, 0.0015387262937311438]
---
header: 
  seq: 60
  stamp: 
    secs: 1568012132
    nsecs: 967341511
  frame_id: "imu_link"
orientation: 
  x: 0.0309508946
  y: 0.5182092841
  z: 0.854674378
  w: -0.002349851
orientation_covariance: [0.002741552146694444, 0.0, 0.0, 0.0, 0.002741552146694444, 0.0, 0.0, 0.0, 0.007615422629706791]
angular_velocity: 
  x: 0.0011679602449
  y: -0.00174097160265
  z: -0.0013040194285
angular_velocity_covariance: [1.0966208586777776e-06, 0.0, 0.0, 0.0, 1.0966208586777776e-06, 0.0, 0.0, 0.0, 1.0966208586777776e-06]
linear_acceleration: 
  x: 0.287576842148
  y: 0.560287831336
  z: 10.0434444937
linear_acceleration_covariance: [0.0015387262937311438, 0.0, 0.0, 0.0, 0.0015387262937311438, 0.0, 0.0, 0.0, 0.0015387262937311438]
---
header: 
  seq: 61
  stamp: 
    secs: 1568012133
    nsecs:  20268750
  frame_id: "imu_link"
orientation: 
  x: 0.0309508946
  y: 0.5183771306
  z: 0.8545736701
  w: -0.0023162817
orientation_covariance: [0.002741552146694444, 0.0, 0.0, 0.0, 0.002741552146694444, 0.0, 0.0, 0.0, 0.007615422629706791]
angular_velocity: 
  x: -0.000903399702605
  y: -0.00130373607752
  z: 0.000992409555238
angular_velocity_covariance: [1.0966208586777776e-06, 0.0, 0.0, 0.0, 1.0966208586777776e-06, 0.0, 0.0, 0.0, 1.0966208586777776e-06]
linear_acceleration: 
  x: 0.281388636766
  y: 0.558490645721
  z: 10.0463332009
linear_acceleration_covariance: [0.0015387262937311438, 0.0, 0.0, 0.0, 0.0015387262937311438, 0.0, 0.0, 0.0, 0.0015387262937311438]
---
header: 
  seq: 62
  stamp: 
    secs: 1568012133
    nsecs:  73317969
  frame_id: "imu_link"
orientation: 
  x: 0.0309173253
  y: 0.5185114078
  z: 0.8544729622
  w: -0.002349851
orientation_covariance: [0.002741552146694444, 0.0, 0.0, 0.0, 0.002741552146694444, 0.0, 0.0, 0.0, 0.007615422629706791]
angular_velocity: 
  x: 0.000210431841902
  y: -0.00090762038381
  z: -0.00111338741883
angular_velocity_covariance: [1.0966208586777776e-06, 0.0, 0.0, 0.0, 1.0966208586777776e-06, 0.0, 0.0, 0.0, 1.0966208586777776e-06]
linear_acceleration: 
  x: 0.280131129252
  y: 0.560393410602
  z: 10.0431510637
linear_acceleration_covariance: [0.0015387262937311438, 0.0, 0.0, 0.0, 0.0015387262937311438, 0.0, 0.0, 0.0, 0.0015387262937311438]
---
header: 
  seq: 63
  stamp: 
    secs: 1568012133
    nsecs: 126491771
  frame_id: "imu_link"
orientation: 
  x: 0.0309173253
  y: 0.518645685
  z: 0.8544058236
  w: -0.002349851
orientation_covariance: [0.002741552146694444, 0.0, 0.0, 0.0, 0.002741552146694444, 0.0, 0.0, 0.0, 0.007615422629706791]
angular_velocity: 
  x: -0.00186852297485
  y: -0.000229418259175
  z: 0.000342761705972
angular_velocity_covariance: [1.0966208586777776e-06, 0.0, 0.0, 0.0, 1.0966208586777776e-06, 0.0, 0.0, 0.0, 1.0966208586777776e-06]
linear_acceleration: 
  x: 0.283391975945
  y: 0.553781883508
  z: 10.0392850359
linear_acceleration_covariance: [0.0015387262937311438, 0.0, 0.0, 0.0, 0.0015387262937311438, 0.0, 0.0, 0.0, 0.0015387262937311438]
---
header: 
  seq: 64
  stamp: 
    secs: 1568012133
    nsecs: 179681823
  frame_id: "imu_link"
orientation: 
  x: 0.0309173253
  y: 0.5188135315
  z: 0.8543051157
  w: -0.0023834203
orientation_covariance: [0.002741552146694444, 0.0, 0.0, 0.0, 0.002741552146694444, 0.0, 0.0, 0.0, 0.007615422629706791]
angular_velocity: 
  x: -0.00106664172464
  y: 0.00054524253935
  z: -0.000405852941468
angular_velocity_covariance: [1.0966208586777776e-06, 0.0, 0.0, 0.0, 1.0966208586777776e-06, 0.0, 0.0, 0.0, 1.0966208586777776e-06]
linear_acceleration: 
  x: 0.282340074005
  y: 0.556840942285
  z: 10.0564267249
linear_acceleration_covariance: [0.0015387262937311438, 0.0, 0.0, 0.0, 0.0015387262937311438, 0.0, 0.0, 0.0, 0.0015387262937311438]
---
header: 
  seq: 65
  stamp: 
    secs: 1568012133
    nsecs: 229140886
  frame_id: "imu_link"
orientation: 
  x: 0.0309173253
  y: 0.5189478087
  z: 0.8542044078
  w: -0.002349851
orientation_covariance: [0.002741552146694444, 0.0, 0.0, 0.0, 0.002741552146694444, 0.0, 0.0, 0.0, 0.007615422629706791]
angular_velocity: 
  x: 0.00104714362739
  y: -0.00105501243617
  z: 0.000405784574429
angular_velocity_covariance: [1.0966208586777776e-06, 0.0, 0.0, 0.0, 1.0966208586777776e-06, 0.0, 0.0, 0.0, 1.0966208586777776e-06]
linear_acceleration: 
  x: 0.287815308812
  y: 0.560661340823
  z: 10.0555324064
linear_acceleration_covariance: [0.0015387262937311438, 0.0, 0.0, 0.0, 0.0015387262937311438, 0.0, 0.0, 0.0, 0.0015387262937311438]
---
header: 
  seq: 66
  stamp: 
    secs: 1568012133
    nsecs: 282283750
  frame_id: "imu_link"
orientation: 
  x: 0.0309508946
  y: 0.5191156552
  z: 0.8541036999
  w: -0.002349851
orientation_covariance: [0.002741552146694444, 0.0, 0.0, 0.0, 0.002741552146694444, 0.0, 0.0, 0.0, 0.007615422629706791]
angular_velocity: 
  x: 0.000944724992731
  y: -0.00225101818604
  z: 0.000269177804336
angular_velocity_covariance: [1.0966208586777776e-06, 0.0, 0.0, 0.0, 1.0966208586777776e-06, 0.0, 0.0, 0.0, 1.0966208586777776e-06]
linear_acceleration: 
  x: 0.284016628915
  y: 0.558607477034
  z: 10.0574519763
linear_acceleration_covariance: [0.0015387262937311438, 0.0, 0.0, 0.0, 0.0015387262937311438, 0.0, 0.0, 0.0, 0.0015387262937311438]
---
header: 
  seq: 67
  stamp: 
    secs: 1568012133
    nsecs: 335548698
  frame_id: "imu_link"
orientation: 
  x: 0.0309508946
  y: 0.5192499324
  z: 0.8540365613
  w: -0.002349851
orientation_covariance: [0.002741552146694444, 0.0, 0.0, 0.0, 0.002741552146694444, 0.0, 0.0, 0.0, 0.007615422629706791]
angular_velocity: 
  x: -6.98501770958e-05
  y: -0.000755312016444
  z: 0.00251594029666
angular_velocity_covariance: [1.0966208586777776e-06, 0.0, 0.0, 0.0, 1.0966208586777776e-06, 0.0, 0.0, 0.0, 1.0966208586777776e-06]
linear_acceleration: 
  x: 0.279802134759
  y: 0.56457394769
  z: 10.0439530277
linear_acceleration_covariance: [0.0015387262937311438, 0.0, 0.0, 0.0, 0.0015387262937311438, 0.0, 0.0, 0.0, 0.0015387262937311438]
---
header: 
  seq: 68
  stamp: 
    secs: 1568012133
    nsecs: 387157500
  frame_id: "imu_link"
orientation: 
  x: 0.0309508946
  y: 0.5194177789
  z: 0.8539358534
  w: -0.0023834203
orientation_covariance: [0.002741552146694444, 0.0, 0.0, 0.0, 0.002741552146694444, 0.0, 0.0, 0.0, 0.007615422629706791]
angular_velocity: 
  x: 0.000651144251915
  y: -0.000645703301976
  z: 0.0018357827382
angular_velocity_covariance: [1.0966208586777776e-06, 0.0, 0.0, 0.0, 1.0966208586777776e-06, 0.0, 0.0, 0.0, 1.0966208586777776e-06]
linear_acceleration: 
  x: 0.277213031582
  y: 0.561769192467
  z: 10.0576343471
linear_acceleration_covariance: [0.0015387262937311438, 0.0, 0.0, 0.0, 0.0015387262937311438, 0.0, 0.0, 0.0, 0.0015387262937311438]
---
header: 
  seq: 69
  stamp: 
    secs: 1568012133
    nsecs: 440281979
  frame_id: "imu_link"
orientation: 
  x: 0.0309173253
  y: 0.5195856254
  z: 0.8538351455
  w: -0.0023834203
orientation_covariance: [0.002741552146694444, 0.0, 0.0, 0.0, 0.002741552146694444, 0.0, 0.0, 0.0, 0.007615422629706791]
angular_velocity: 
  x: -0.00138798845554
  y: -0.00174616190595
  z: -0.000628056413769
angular_velocity_covariance: [1.0966208586777776e-06, 0.0, 0.0, 0.0, 1.0966208586777776e-06, 0.0, 0.0, 0.0, 1.0966208586777776e-06]
linear_acceleration: 
  x: 0.276410720489
  y: 0.561252255921
  z: 10.0536759648
linear_acceleration_covariance: [0.0015387262937311438, 0.0, 0.0, 0.0, 0.0015387262937311438, 0.0, 0.0, 0.0, 0.0015387262937311438]
---
header: 
  seq: 70
  stamp: 
    secs: 1568012133
    nsecs: 493135625
  frame_id: "imu_link"
orientation: 
  x: 0.0309173253
  y: 0.5197199026
  z: 0.8537344376
  w: -0.0023834203
orientation_covariance: [0.002741552146694444, 0.0, 0.0, 0.0, 0.002741552146694444, 0.0, 0.0, 0.0, 0.007615422629706791]
angular_velocity: 
  x: 0.000259964330018
  y: 0.000757491569326
  z: -0.000230497616389
angular_velocity_covariance: [1.0966208586777776e-06, 0.0, 0.0, 0.0, 1.0966208586777776e-06, 0.0, 0.0, 0.0, 1.0966208586777776e-06]
linear_acceleration: 
  x: 0.282111215419
  y: 0.568355365925
  z: 10.0535345105
linear_acceleration_covariance: [0.0015387262937311438, 0.0, 0.0, 0.0, 0.0015387262937311438, 0.0, 0.0, 0.0, 0.0015387262937311438]
---
header: 
  seq: 71
  stamp: 
    secs: 1568012133
    nsecs: 546212969
  frame_id: "imu_link"
orientation: 
  x: 0.0309173253
  y: 0.5198877491
  z: 0.8536337297
  w: -0.0023834203
orientation_covariance: [0.002741552146694444, 0.0, 0.0, 0.0, 0.002741552146694444, 0.0, 0.0, 0.0, 0.007615422629706791]
angular_velocity: 
  x: -0.0028820939977
  y: -0.000169542810202
  z: -0.00213487380378
angular_velocity_covariance: [1.0966208586777776e-06, 0.0, 0.0, 0.0, 1.0966208586777776e-06, 0.0, 0.0, 0.0, 1.0966208586777776e-06]
linear_acceleration: 
  x: 0.284179016403
  y: 0.568604993304
  z: 10.0458936404
linear_acceleration_covariance: [0.0015387262937311438, 0.0, 0.0, 0.0, 0.0015387262937311438, 0.0, 0.0, 0.0, 0.0015387262937311438]
---
header: 
  seq: 72
  stamp: 
    secs: 1568012133
    nsecs: 599538438
  frame_id: "imu_link"
orientation: 
  x: 0.0309173253
  y: 0.5200220263
  z: 0.8535665911
  w: -0.0023834203
orientation_covariance: [0.002741552146694444, 0.0, 0.0, 0.0, 0.002741552146694444, 0.0, 0.0, 0.0, 0.007615422629706791]
angular_velocity: 
  x: -0.000414500055178
  y: 0.000634587335205
  z: -0.000707119593798
angular_velocity_covariance: [1.0966208586777776e-06, 0.0, 0.0, 0.0, 1.0966208586777776e-06, 0.0, 0.0, 0.0, 1.0966208586777776e-06]
linear_acceleration: 
  x: 0.283630424343
  y: 0.569044992157
  z: 10.0485941315
linear_acceleration_covariance: [0.0015387262937311438, 0.0, 0.0, 0.0, 0.0015387262937311438, 0.0, 0.0, 0.0, 0.0015387262937311438]
---
header: 
  seq: 73
  stamp: 
    secs: 1568012133
    nsecs: 652505938
  frame_id: "imu_link"
orientation: 
  x: 0.0309173253
  y: 0.5201898728
  z: 0.8534658832
  w: -0.0023834203
orientation_covariance: [0.002741552146694444, 0.0, 0.0, 0.0, 0.002741552146694444, 0.0, 0.0, 0.0, 0.007615422629706791]
angular_velocity: 
  x: -0.000113354272391
  y: -0.000350015699051
  z: -0.000722581142468
angular_velocity_covariance: [1.0966208586777776e-06, 0.0, 0.0, 0.0, 1.0966208586777776e-06, 0.0, 0.0, 0.0, 1.0966208586777776e-06]
linear_acceleration: 
  x: 0.282930349782
  y: 0.564752482595
  z: 10.0511543374
linear_acceleration_covariance: [0.0015387262937311438, 0.0, 0.0, 0.0, 0.0015387262937311438, 0.0, 0.0, 0.0, 0.0015387262937311438]
---
header: 
  seq: 74
  stamp: 
    secs: 1568012133
    nsecs: 705620000
  frame_id: "imu_link"
orientation: 
  x: 0.0309508946
  y: 0.52032415
  z: 0.8533651753
  w: -0.0024169896
orientation_covariance: [0.002741552146694444, 0.0, 0.0, 0.0, 0.002741552146694444, 0.0, 0.0, 0.0, 0.007615422629706791]
angular_velocity: 
  x: 0.000771482787799
  y: -0.000373832037891
  z: 0.000629539942739
angular_velocity_covariance: [1.0966208586777776e-06, 0.0, 0.0, 0.0, 1.0966208586777776e-06, 0.0, 0.0, 0.0, 1.0966208586777776e-06]
linear_acceleration: 
  x: 0.287490844365
  y: 0.566999494336
  z: 10.0439822538
linear_acceleration_covariance: [0.0015387262937311438, 0.0, 0.0, 0.0, 0.0015387262937311438, 0.0, 0.0, 0.0, 0.0015387262937311438]
---
header: 
  seq: 75
  stamp: 
    secs: 1568012133
    nsecs: 755509167
  frame_id: "imu_link"
orientation: 
  x: 0.0309508946
  y: 0.5204584272
  z: 0.8532980367
  w: -0.0024169896
orientation_covariance: [0.002741552146694444, 0.0, 0.0, 0.0, 0.002741552146694444, 0.0, 0.0, 0.0, 0.007615422629706791]
angular_velocity: 
  x: -0.00170662800778
  y: -0.0011007648415
  z: 6.34787787491e-05
angular_velocity_covariance: [1.0966208586777776e-06, 0.0, 0.0, 0.0, 1.0966208586777776e-06, 0.0, 0.0, 0.0, 1.0966208586777776e-06]
linear_acceleration: 
  x: 0.281743861678
  y: 0.569324357087
  z: 10.0537145433
linear_acceleration_covariance: [0.0015387262937311438, 0.0, 0.0, 0.0, 0.0015387262937311438, 0.0, 0.0, 0.0, 0.0015387262937311438]
---
header: 
  seq: 76
  stamp: 
    secs: 1568012133
    nsecs: 807330365
  frame_id: "imu_link"
orientation: 
  x: 0.030883756
  y: 0.5204919965
  z: 0.8532644674
  w: -0.0021820045
orientation_covariance: [0.002741552146694444, 0.0, 0.0, 0.0, 0.002741552146694444, 0.0, 0.0, 0.0, 0.007615422629706791]
angular_velocity: 
  x: 0.0170412005905
  y: -0.0618891839276
  z: -0.100519542284
angular_velocity_covariance: [1.0966208586777776e-06, 0.0, 0.0, 0.0, 1.0966208586777776e-06, 0.0, 0.0, 0.0, 1.0966208586777776e-06]
linear_acceleration: 
  x: 0.374644592487
  y: 0.545775687185
  z: 10.0069656516
linear_acceleration_covariance: [0.0015387262937311438, 0.0, 0.0, 0.0, 0.0015387262937311438, 0.0, 0.0, 0.0, 0.0015387262937311438]
---
header: 
  seq: 77
  stamp: 
    secs: 1568012133
    nsecs: 861777604
  frame_id: "imu_link"
orientation: 
  x: 0.0304809244
  y: 0.5206934123
  z: 0.8531637595
  w: -0.0021148659
orientation_covariance: [0.002741552146694444, 0.0, 0.0, 0.0, 0.002741552146694444, 0.0, 0.0, 0.0, 0.007615422629706791]
angular_velocity: 
  x: 0.0482481648962
  y: 0.1273544356
  z: -0.00314469078379
angular_velocity_covariance: [1.0966208586777776e-06, 0.0, 0.0, 0.0, 1.0966208586777776e-06, 0.0, 0.0, 0.0, 1.0966208586777776e-06]
linear_acceleration: 
  x: -0.156406348976
  y: 0.558531087329
  z: 9.83704163113
linear_acceleration_covariance: [0.0015387262937311438, 0.0, 0.0, 0.0, 0.0015387262937311438, 0.0, 0.0, 0.0, 0.0015387262937311438]
---
header: 
  seq: 78
  stamp: 
    secs: 1568012133
    nsecs: 914718021
  frame_id: "imu_link"
orientation: 
  x: 0.0305816323
  y: 0.5202570114
  z: 0.8534323139
  w: -0.001678465
orientation_covariance: [0.002741552146694444, 0.0, 0.0, 0.0, 0.002741552146694444, 0.0, 0.0, 0.0, 0.007615422629706791]
angular_velocity: 
  x: 0.0639736317904
  y: 0.0489102184208
  z: -0.0878342651889
angular_velocity_covariance: [1.0966208586777776e-06, 0.0, 0.0, 0.0, 1.0966208586777776e-06, 0.0, 0.0, 0.0, 1.0966208586777776e-06]
linear_acceleration: 
  x: 0.61554188185
  y: 0.2041037553
  z: 9.5997333427
linear_acceleration_covariance: [0.0015387262937311438, 0.0, 0.0, 0.0, 0.0015387262937311438, 0.0, 0.0, 0.0, 0.0015387262937311438]
---
header: 
  seq: 79
  stamp: 
    secs: 1568012133
    nsecs: 966889948
  frame_id: "imu_link"
orientation: 
  x: 0.0301116621
  y: 0.5203577193
  z: 0.8533987446
  w: -0.0004699702
orientation_covariance: [0.002741552146694444, 0.0, 0.0, 0.0, 0.002741552146694444, 0.0, 0.0, 0.0, 0.007615422629706791]
angular_velocity: 
  x: 0.0173622165719
  y: -0.00341901432119
  z: 0.0114166886323
angular_velocity_covariance: [1.0966208586777776e-06, 0.0, 0.0, 0.0, 1.0966208586777776e-06, 0.0, 0.0, 0.0, 1.0966208586777776e-06]
linear_acceleration: 
  x: 0.318952406283
  y: 0.109233167456
  z: 9.61550608138
linear_acceleration_covariance: [0.0015387262937311438, 0.0, 0.0, 0.0, 0.0015387262937311438, 0.0, 0.0, 0.0, 0.0015387262937311438]
---
header: 
  seq: 80
  stamp: 
    secs: 1568012134
    nsecs:  20845521
  frame_id: "imu_link"
orientation: 
  x: 0.0300780928
  y: 0.5205255658
  z: 0.8532644674
  w: -0.0004699702
orientation_covariance: [0.002741552146694444, 0.0, 0.0, 0.0, 0.002741552146694444, 0.0, 0.0, 0.0, 0.007615422629706791]
angular_velocity: 
  x: 0.0424896491218
  y: -0.0616888642794
  z: 0.0316165241516
angular_velocity_covariance: [1.0966208586777776e-06, 0.0, 0.0, 0.0, 1.0966208586777776e-06, 0.0, 0.0, 0.0, 1.0966208586777776e-06]
linear_acceleration: 
  x: 0.190971210672
  y: 0.406095413816
  z: 9.87988357852
linear_acceleration_covariance: [0.0015387262937311438, 0.0, 0.0, 0.0, 0.0015387262937311438, 0.0, 0.0, 0.0, 0.0015387262937311438]
---
header: 
  seq: 81
  stamp: 
    secs: 1568012134
    nsecs:  72664479
  frame_id: "imu_link"
orientation: 
  x: 0.0300445235
  y: 0.520659843
  z: 0.8532308981
  w: -0.0007720939
