
header: 
  seq: 0
  stamp: 
    secs: 1568012129
    nsecs:  72708856
  frame_id: "imu_link"
vector: 
  x: -1.54105710983
  y: -0.933200359344
  z: 3.3855805397
---
header: 
  seq: 1
  stamp: 
    secs: 1568012129
    nsecs: 125167762
  frame_id: "imu_link"
vector: 
  x: -1.55348801613
  y: -0.945061326027
  z: 3.39380145073
---
header: 
  seq: 2
  stamp: 
    secs: 1568012129
    nsecs: 177067971
  frame_id: "imu_link"
vector: 
  x: -1.53806090355
  y: -0.964251875877
  z: 3.37441539764
---
header: 
  seq: 3
  stamp: 
    secs: 1568012129
    nsecs: 230376304
  frame_id: "imu_link"
vector: 
  x: -1.52756667137
  y: -0.939093470573
  z: 3.35652923584
---
header: 
  seq: 4
  stamp: 
    secs: 1568012129
    nsecs: 281120783
  frame_id: "imu_link"
vector: 
  x: -1.54073739052
  y: -0.956336021423
  z: 3.37723588943
---
header: 
  seq: 5
  stamp: 
    secs: 1568012129
    nsecs: 332817137
  frame_id: "imu_link"
vector: 
  x: -1.56726908684
  y: -0.929111301899
  z: 3.40285587311
---
header: 
  seq: 6
  stamp: 
    secs: 1568012129
    nsecs: 387181408
  frame_id: "imu_link"
vector: 
  x: -1.57856321335
  y: -0.917522072792
  z: 3.41376209259
---
header: 
  seq: 7
  stamp: 
    secs: 1568012129
    nsecs: 439109637
  frame_id: "imu_link"
vector: 
  x: -1.56598377228
  y: -0.928919315338
  z: 3.39175343513
---
header: 
  seq: 8
  stamp: 
    secs: 1568012129
    nsecs: 492170106
  frame_id: "imu_link"
vector: 
  x: -1.53980255127
  y: -0.937928795815
  z: 3.38361501694
---
header: 
  seq: 9
  stamp: 
    secs: 1568012129
    nsecs: 545320210
  frame_id: "imu_link"
vector: 
  x: -1.53236615658
  y: -0.928115367889
  z: 3.38788533211
---
header: 
  seq: 10
  stamp: 
    secs: 1568012129
    nsecs: 598287762
  frame_id: "imu_link"
vector: 
  x: -1.54637217522
  y: -0.93337982893
  z: 3.3808324337
---
header: 
  seq: 11
  stamp: 
    secs: 1568012129
    nsecs: 650098231
  frame_id: "imu_link"
vector: 
  x: -1.55445122719
  y: -0.939271330833
  z: 3.39294099808
---
header: 
  seq: 12
  stamp: 
    secs: 1568012129
    nsecs: 703634064
  frame_id: "imu_link"
vector: 
  x: -1.54192638397
  y: -0.94616985321
  z: 3.36528015137
---
header: 
  seq: 13
  stamp: 
    secs: 1568012129
    nsecs: 756679064
  frame_id: "imu_link"
vector: 
  x: -1.52904903889
  y: -0.948860168457
  z: 3.3528585434
---
header: 
  seq: 14
  stamp: 
    secs: 1568012129
    nsecs: 809708491
  frame_id: "imu_link"
vector: 
  x: -1.534034729
  y: -0.978003978729
  z: 3.35886216164
---
header: 
  seq: 15
  stamp: 
    secs: 1568012129
    nsecs: 861512398
  frame_id: "imu_link"
vector: 
  x: -1.55754470825
  y: -0.970893919468
  z: 3.37740969658
---
header: 
  seq: 16
  stamp: 
    secs: 1568012129
    nsecs: 915036929
  frame_id: "imu_link"
vector: 
  x: -1.57432699203
  y: -0.968284189701
  z: 3.38522553444
---
header: 
  seq: 17
  stamp: 
    secs: 1568012129
    nsecs: 967700835
  frame_id: "imu_link"
vector: 
  x: -1.56772041321
  y: -0.950292527676
  z: 3.38855266571
---
header: 
  seq: 18
  stamp: 
    secs: 1568012130
    nsecs:  20619950
  frame_id: "imu_link"
vector: 
  x: -1.53998434544
  y: -0.917071819305
  z: 3.37279319763
---
header: 
  seq: 19
  stamp: 
    secs: 1568012130
    nsecs:  73761304
  frame_id: "imu_link"
vector: 
  x: -1.52898955345
  y: -0.943627655506
  z: 3.37440776825
---
header: 
  seq: 20
  stamp: 
    secs: 1568012130
    nsecs: 125610002
  frame_id: "imu_link"
vector: 
  x: -1.5415456295
  y: -0.947464108467
  z: 3.38394737244
---
header: 
  seq: 21
  stamp: 
    secs: 1568012130
    nsecs: 176167085
  frame_id: "imu_link"
vector: 
  x: -1.57672047615
  y: -0.947354018688
  z: 3.40238142014
---
header: 
  seq: 22
  stamp: 
    secs: 1568012130
    nsecs: 228718491
  frame_id: "imu_link"
vector: 
  x: -1.56873941422
  y: -0.957490861416
  z: 3.39585542679
---
header: 
  seq: 23
  stamp: 
    secs: 1568012130
    nsecs: 282605002
  frame_id: "imu_link"
vector: 
  x: -1.55492126942
  y: -0.961624026299
  z: 3.3841753006
---
header: 
  seq: 24
  stamp: 
    secs: 1568012130
    nsecs: 334436512
  frame_id: "imu_link"
vector: 
  x: -1.54877853394
  y: -0.963461339474
  z: 3.37898302078
---
header: 
  seq: 25
  stamp: 
    secs: 1568012130
    nsecs: 387500001
  frame_id: "imu_link"
vector: 
  x: -1.56701588631
  y: -0.927121162415
  z: 3.36359643936
---
header: 
  seq: 26
  stamp: 
    secs: 1568012130
    nsecs: 440397970
  frame_id: "imu_link"
vector: 
  x: -1.55759572983
  y: -0.925080478191
  z: 3.36163234711
---
header: 
  seq: 27
  stamp: 
    secs: 1568012130
    nsecs: 493373283
  frame_id: "imu_link"
vector: 
  x: -1.54326498508
  y: -0.932074904442
  z: 3.35195231438
---
header: 
  seq: 28
  stamp: 
    secs: 1568012130
    nsecs: 544063960
  frame_id: "imu_link"
vector: 
  x: -1.56072211266
  y: -0.92140519619
  z: 3.38017082214
---
header: 
  seq: 29
  stamp: 
    secs: 1568012130
    nsecs: 597139481
  frame_id: "imu_link"
vector: 
  x: -1.56543529034
  y: -0.938276469707
  z: 3.39531803131
---
header: 
  seq: 30
  stamp: 
    secs: 1568012130
    nsecs: 650289272
  frame_id: "imu_link"
vector: 
  x: -1.57419991493
  y: -0.946532011032
  z: 3.38399648666
---
header: 
  seq: 31
  stamp: 
    secs: 1568012130
    nsecs: 701993647
  frame_id: "imu_link"
vector: 
  x: -1.52944636345
  y: -0.929517626762
  z: 3.36958885193
---
header: 
  seq: 32
  stamp: 
    secs: 1568012130
    nsecs: 755235991
  frame_id: "imu_link"
vector: 
  x: -1.53148436546
  y: -0.924368202686
  z: 3.39083957672
---
header: 
  seq: 33
  stamp: 
    secs: 1568012130
    nsecs: 808344741
  frame_id: "imu_link"
vector: 
  x: -1.52546787262
  y: -0.929865837097
  z: 3.39979457855
---
header: 
  seq: 34
  stamp: 
    secs: 1568012130
    nsecs: 860123751
  frame_id: "imu_link"
vector: 
  x: -1.5159907341
  y: -0.939916908741
  z: 3.4036231041
---
header: 
  seq: 35
  stamp: 
    secs: 1568012130
    nsecs: 913171303
  frame_id: "imu_link"
vector: 
  x: -1.50800275803
  y: -0.925017476082
  z: 3.34977340698
---
header: 
  seq: 36
  stamp: 
    secs: 1568012130
    nsecs: 966092345
  frame_id: "imu_link"
vector: 
  x: -1.51537537575
  y: -0.938956022263
  z: 3.36460876465
---
header: 
  seq: 37
  stamp: 
    secs: 1568012131
    nsecs:  19105782
  frame_id: "imu_link"
vector: 
  x: -1.52543222904
  y: -0.945303082466
  z: 3.37095117569
---
header: 
  seq: 38
  stamp: 
    secs: 1568012131
    nsecs:  69933282
  frame_id: "imu_link"
vector: 
  x: -1.55795311928
  y: -0.981623411179
  z: 3.37476158142
---
header: 
  seq: 39
  stamp: 
    secs: 1568012131
    nsecs: 123088387
  frame_id: "imu_link"
vector: 
  x: -1.55377817154
  y: -0.964398264885
  z: 3.36639356613
---
header: 
  seq: 40
  stamp: 
    secs: 1568012131
    nsecs: 176210053
  frame_id: "imu_link"
vector: 
  x: -1.53818368912
  y: -0.956258058548
  z: 3.36281609535
---
header: 
  seq: 41
  stamp: 
    secs: 1568012131
    nsecs: 229111616
  frame_id: "imu_link"
vector: 
  x: -1.54536271095
  y: -0.969708561897
  z: 3.36130857468
---
header: 
  seq: 42
  stamp: 
    secs: 1568012131
    nsecs: 280341772
  frame_id: "imu_link"
vector: 
  x: -1.53959321976
  y: -0.925273537636
  z: 3.39448690414
---
header: 
  seq: 43
  stamp: 
    secs: 1568012131
    nsecs: 335609584
  frame_id: "imu_link"
vector: 
  x: -1.53568148613
  y: -0.923335075378
  z: 3.38359594345
---
header: 
  seq: 44
  stamp: 
    secs: 1568012131
    nsecs: 386517709
  frame_id: "imu_link"
vector: 
  x: -1.53751909733
  y: -0.938439548016
  z: 3.38785886765
---
header: 
  seq: 45
  stamp: 
    secs: 1568012131
    nsecs: 439540782
  frame_id: "imu_link"
vector: 
  x: -1.54283845425
  y: -0.938537597656
  z: 3.41265439987
---
header: 
  seq: 46
  stamp: 
    secs: 1568012131
    nsecs: 492758699
  frame_id: "imu_link"
vector: 
  x: -1.51984119415
  y: -0.935685753822
  z: 3.4001750946
---
header: 
  seq: 47
  stamp: 
    secs: 1568012131
    nsecs: 545605366
  frame_id: "imu_link"
vector: 
  x: -1.51353955269
  y: -0.918949007988
  z: 3.38606405258
---
header: 
  seq: 48
  stamp: 
    secs: 1568012131
    nsecs: 598934324
  frame_id: "imu_link"
vector: 
  x: -1.52880096436
  y: -0.917974948883
  z: 3.3761844635
---
header: 
  seq: 49
  stamp: 
    secs: 1568012131
    nsecs: 652043491
  frame_id: "imu_link"
vector: 
  x: -1.51370608807
  y: -0.920420646667
  z: 3.34917879105
---
header: 
  seq: 50
  stamp: 
    secs: 1568012131
    nsecs: 705148595
  frame_id: "imu_link"
vector: 
  x: -1.52806758881
  y: -0.937958717346
  z: 3.35550308228
---
header: 
  seq: 51
  stamp: 
    secs: 1568012131
    nsecs: 757251095
  frame_id: "imu_link"
vector: 
  x: -1.54120957851
  y: -0.945081591606
  z: 3.37598800659
---
header: 
  seq: 52
  stamp: 
    secs: 1568012131
    nsecs: 809968855
  frame_id: "imu_link"
vector: 
  x: -1.53930306435
  y: -0.933898925781
  z: 3.38829469681
---
header: 
  seq: 53
  stamp: 
    secs: 1568012131
    nsecs: 863187501
  frame_id: "imu_link"
vector: 
  x: -1.53555870056
  y: -0.926985383034
  z: 3.38097524643
---
header: 
  seq: 54
  stamp: 
    secs: 1568012131
    nsecs: 916356199
  frame_id: "imu_link"
vector: 
  x: -1.54085612297
  y: -0.932512462139
  z: 3.37789106369
---
header: 
  seq: 55
  stamp: 
    secs: 1568012131
    nsecs: 967992136
  frame_id: "imu_link"
vector: 
  x: -1.55536496639
  y: -0.947840929031
  z: 3.37976312637
---
header: 
  seq: 56
  stamp: 
    secs: 1568012132
    nsecs:  21012657
  frame_id: "imu_link"
vector: 
  x: -1.53809118271
  y: -0.94931602478
  z: 3.36795186996
---
header: 
  seq: 57
  stamp: 
    secs: 1568012132
    nsecs:  74039949
  frame_id: "imu_link"
vector: 
  x: -1.53154468536
  y: -0.925608873367
  z: 3.36347556114
---
header: 
  seq: 58
  stamp: 
    secs: 1568012132
    nsecs: 127105522
  frame_id: "imu_link"
vector: 
  x: -1.53258168697
  y: -0.935157418251
  z: 3.37340688705
---
header: 
  seq: 59
  stamp: 
    secs: 1568012132
    nsecs: 180063699
  frame_id: "imu_link"
vector: 
  x: -1.52561485767
  y: -0.961010992527
  z: 3.33911275864
---
header: 
  seq: 60
  stamp: 
    secs: 1568012132
    nsecs: 233416459
  frame_id: "imu_link"
vector: 
  x: -1.52616500854
  y: -0.95561081171
  z: 3.33351373672
---
header: 
  seq: 61
  stamp: 
    secs: 1568012132
    nsecs: 286543282
  frame_id: "imu_link"
vector: 
  x: -1.54024648666
  y: -0.953325033188
  z: 3.34883475304
---
header: 
  seq: 62
  stamp: 
    secs: 1568012132
    nsecs: 339346511
  frame_id: "imu_link"
vector: 
  x: -1.54382717609
  y: -0.924597144127
  z: 3.3455080986
---
header: 
  seq: 63
  stamp: 
    secs: 1568012132
    nsecs: 392544792
  frame_id: "imu_link"
vector: 
  x: -1.55125117302
  y: -0.931882143021
  z: 3.36279296875
---
header: 
  seq: 64
  stamp: 
    secs: 1568012132
    nsecs: 445621928
  frame_id: "imu_link"
vector: 
  x: -1.53721141815
  y: -0.941733837128
  z: 3.37907314301
---
header: 
  seq: 65
  stamp: 
    secs: 1568012132
    nsecs: 494925469
  frame_id: "imu_link"
vector: 
  x: -1.50275993347
  y: -0.914356946945
  z: 3.38000154495
---
header: 
  seq: 66
  stamp: 
    secs: 1568012132
    nsecs: 548044896
  frame_id: "imu_link"
vector: 
  x: -1.50959014893
  y: -0.919277429581
  z: 3.35079407692
---
header: 
  seq: 67
  stamp: 
    secs: 1568012132
    nsecs: 601076199
  frame_id: "imu_link"
vector: 
  x: -1.52980160713
  y: -0.961447358131
  z: 3.3650431633
---
header: 
  seq: 68
  stamp: 
    secs: 1568012132
    nsecs: 654124792
  frame_id: "imu_link"
vector: 
  x: -1.5644159317
  y: -0.963616013527
  z: 3.39945745468
---
header: 
  seq: 69
  stamp: 
    secs: 1568012132
    nsecs: 707016511
  frame_id: "imu_link"
vector: 
  x: -1.55084562302
  y: -0.955846607685
  z: 3.39631605148
---
header: 
  seq: 70
  stamp: 
    secs: 1568012132
    nsecs: 760818542
  frame_id: "imu_link"
vector: 
  x: -1.55425333977
  y: -0.937049984932
  z: 3.38437008858
---
header: 
  seq: 71
  stamp: 
    secs: 1568012132
    nsecs: 813405209
  frame_id: "imu_link"
vector: 
  x: -1.56256461143
  y: -0.93756955862
  z: 3.3793361187
---
header: 
  seq: 72
  stamp: 
    secs: 1568012132
    nsecs: 861707084
  frame_id: "imu_link"
vector: 
  x: -1.54948878288
  y: -0.936703801155
  z: 3.38004922867
---
header: 
  seq: 73
  stamp: 
    secs: 1568012132
    nsecs: 914313803
  frame_id: "imu_link"
vector: 
  x: -1.55367910862
  y: -0.928948521614
  z: 3.37748575211
---
header: 
  seq: 74
  stamp: 
    secs: 1568012132
    nsecs: 967341511
  frame_id: "imu_link"
vector: 
  x: -1.56929218769
  y: -0.917639493942
  z: 3.39410996437
---
header: 
  seq: 75
  stamp: 
    secs: 1568012133
    nsecs:  20268750
  frame_id: "imu_link"
vector: 
  x: -1.54537653923
  y: -0.924607276917
  z: 3.38657140732
---
header: 
  seq: 76
  stamp: 
    secs: 1568012133
    nsecs:  73317969
  frame_id: "imu_link"
vector: 
  x: -1.54503393173
  y: -0.915352344513
  z: 3.38024616241
---
header: 
  seq: 77
  stamp: 
    secs: 1568012133
    nsecs: 126491771
  frame_id: "imu_link"
vector: 
  x: -1.55873680115
  y: -0.927573442459
  z: 3.39528512955
---
header: 
  seq: 78
  stamp: 
    secs: 1568012133
    nsecs: 179681823
  frame_id: "imu_link"
vector: 
  x: -1.56489026546
  y: -0.941557824612
  z: 3.40203857422
---
header: 
  seq: 79
  stamp: 
    secs: 1568012133
    nsecs: 229140886
  frame_id: "imu_link"
vector: 
  x: -1.55047166348
  y: -0.945159435272
  z: 3.39300346375
---
header: 
  seq: 80
  stamp: 
    secs: 1568012133
    nsecs: 282283750
  frame_id: "imu_link"
vector: 
  x: -1.55756556988
  y: -0.940448641777
  z: 3.3918633461
---
header: 
  seq: 81
  stamp: 
    secs: 1568012133
    nsecs: 335548698
  frame_id: "imu_link"
vector: 
  x: -1.5639744997
  y: -0.922908306122
  z: 3.38252592087
---
header: 
  seq: 82
  stamp: 
    secs: 1568012133
    nsecs: 387157500
  frame_id: "imu_link"
vector: 
  x: -1.56851267815
  y: -0.92263507843
  z: 3.40340852737
---
header: 
  seq: 83
  stamp: 
    secs: 1568012133
    nsecs: 440281979
  frame_id: "imu_link"
vector: 
  x: -1.55139803886
  y: -0.922793269157
  z: 3.37858819962
---
header: 
  seq: 84
  stamp: 
    secs: 1568012133
    nsecs: 493135625
  frame_id: "imu_link"
vector: 
  x: -1.54058027267
  y: -0.923048377037
  z: 3.35908651352
---
header: 
  seq: 85
  stamp: 
    secs: 1568012133
    nsecs: 546212969
  frame_id: "imu_link"
vector: 
  x: -1.54309034348
  y: -0.93007683754
  z: 3.38627767563
---
header: 
  seq: 86
  stamp: 
    secs: 1568012133
    nsecs: 599538438
  frame_id: "imu_link"
vector: 
  x: -1.52352595329
  y: -0.948231101036
  z: 3.39901161194
---
header: 
  seq: 87
  stamp: 
    secs: 1568012133
    nsecs: 652505938
  frame_id: "imu_link"
vector: 
  x: -1.53238260746
  y: -0.940952181816
  z: 3.39440131187
---
header: 
  seq: 88
  stamp: 
    secs: 1568012133
    nsecs: 705620000
  frame_id: "imu_link"
vector: 
  x: -1.52914273739
  y: -0.946312308311
  z: 3.37475395203
---
header: 
  seq: 89
  stamp: 
    secs: 1568012133
    nsecs: 755509167
  frame_id: "imu_link"
vector: 
  x: -1.53916764259
  y: -0.96064555645
  z: 3.39316654205
---
header: 
  seq: 90
  stamp: 
    secs: 1568012133
    nsecs: 807330365
  frame_id: "imu_link"
vector: 
  x: -1.53561377525
  y: -0.945695102215
  z: 3.40078496933
---
header: 
  seq: 91
  stamp: 
    secs: 1568012133
    nsecs: 861777604
  frame_id: "imu_link"
vector: 
  x: -1.55480921268
  y: -0.924289941788
  z: 3.40404224396
---
header: 
  seq: 92
  stamp: 
    secs: 1568012133
    nsecs: 914718021
  frame_id: "imu_link"
vector: 
  x: -1.56283569336
  y: -0.891727805138
  z: 3.38763999939
---
header: 
  seq: 93
  stamp: 
    secs: 1568012133
    nsecs: 966889948
  frame_id: "imu_link"
vector: 
  x: -1.57973074913
  y: -0.882566094398
  z: 3.33857917786
---
header: 
  seq: 94
  stamp: 
    secs: 1568012134
    nsecs:  20845521
  frame_id: "imu_link"
vector: 
  x: -1.60749602318
  y: -0.934695422649
  z: 3.30672955513
---
header: 
  seq: 95
  stamp: 
    secs: 1568012134
    nsecs:  72664479
  frame_id: "imu_link"
vector: 
  x: -1.61946344376
  y: -0.964307665825
  z: 3.31089401245
---
header: 
  seq: 96
  stamp: 
    secs: 1568012134
    nsecs: 123380000
  frame_id: "imu_link"
vector: 
  x: -1.63641405106
  y: -0.945096194744
  z: 3.30585956573
---
header: 
  seq: 97
  stamp: 
    secs: 1568012134
    nsecs: 175017865
  frame_id: "imu_link"
vector: 
  x: -1.62489414215
  y: -0.935203433037
  z: 3.32830691338
---
header: 
  seq: 98
  stamp: 
    secs: 1568012134
    nsecs: 232432917
  frame_id: "imu_link"
vector: 
  x: -1.61655378342
  y: -0.915113270283
  z: 3.32891368866
---
header: 
  seq: 99
  stamp: 
    secs: 1568012134
    nsecs: 281528229
  frame_id: "imu_link"
vector: 
  x: -1.60316121578
  y: -0.921824872494
  z: 3.33306694031
---
header: 
  seq: 100
  stamp: 
    secs: 1568012134
    nsecs: 334784635
  frame_id: "imu_link"
vector: 
  x: -1.60033035278
  y: -0.893683552742
  z: 3.3132352829
---
header: 
  seq: 101
  stamp: 
    secs: 1568012134
    nsecs: 387966198
  frame_id: "imu_link"
vector: 
  x: -1.61993193626
  y: -0.890142321587
  z: 3.32253789902
---
header: 
  seq: 102
  stamp: 
    secs: 1568012134
    nsecs: 440988542
  frame_id: "imu_link"
vector: 
  x: -1.65050625801
  y: -0.948463797569
  z: 3.3453502655
---
header: 
  seq: 103
  stamp: 
    secs: 1568012134
    nsecs: 494169792
  frame_id: "imu_link"
vector: 
  x: -1.64268100262
  y: -0.985960185528
  z: 3.33602881432
---
header: 
  seq: 104
  stamp: 
    secs: 1568012134
    nsecs: 546004271
  frame_id: "imu_link"
vector: 
  x: -1.65869522095
  y: -0.961294174194
  z: 3.36761021614
---
header: 
  seq: 105
  stamp: 
    secs: 1568012134
    nsecs: 599047187
  frame_id: "imu_link"
vector: 
  x: -1.62411224842
  y: -0.932243227959
  z: 3.38111209869
---
header: 
  seq: 106
  stamp: 
    secs: 1568012134
    nsecs: 648276510
  frame_id: "imu_link"
vector: 
  x: -1.63615334034
  y: -0.882612228394
  z: 3.37788009644
---
header: 
  seq: 107
  stamp: 
    secs: 1568012134
    nsecs: 701529896
  frame_id: "imu_link"
vector: 
  x: -1.6421918869
  y: -0.940940022469
  z: 3.38545823097
---
header: 
  seq: 108
  stamp: 
    secs: 1568012134
    nsecs: 756182448
  frame_id: "imu_link"
vector: 
  x: -1.59999895096
  y: -0.987549602985
  z: 3.379799366
---
header: 
  seq: 109
  stamp: 
    secs: 1568012134
    nsecs: 807897396
  frame_id: "imu_link"
vector: 
  x: -1.57515275478
  y: -0.973970234394
  z: 3.39516067505
---
header: 
  seq: 110
  stamp: 
    secs: 1568012134
    nsecs: 861068594
  frame_id: "imu_link"
vector: 
  x: -1.58484077454
  y: -0.892803668976
  z: 3.4245467186
---
header: 
  seq: 111
  stamp: 
    secs: 1568012134
    nsecs: 914670416
  frame_id: "imu_link"
vector: 
  x: -1.58935523033
  y: -0.879178583622
  z: 3.39631748199
---
header: 
  seq: 112
  stamp: 
    secs: 1568012134
    nsecs: 966057760
  frame_id: "imu_link"
vector: 
  x: -1.6224834919
  y: -0.882102608681
  z: 3.41104197502
---
header: 
  seq: 113
  stamp: 
    secs: 1568012135
    nsecs:  16487864
  frame_id: "imu_link"
vector: 
  x: -1.58916831017
  y: -0.894224286079
  z: 3.37692117691
---
header: 
  seq: 114
  stamp: 
    secs: 1568012135
    nsecs:  69534062
  frame_id: "imu_link"
vector: 
  x: -1.61880624294
  y: -0.889420628548
  z: 3.37616205215
---
header: 
  seq: 115
  stamp: 
    secs: 1568012135
    nsecs: 122710677
  frame_id: "imu_link"
vector: 
  x: -1.65556514263
  y: -0.864098012447
  z: 3.38473129272
---
header: 
  seq: 116
  stamp: 
    secs: 1568012135
    nsecs: 175708489
  frame_id: "imu_link"
vector: 
  x: -1.64016485214
  y: -0.875470817089
  z: 3.39719438553
---
header: 
  seq: 117
  stamp: 
    secs: 1568012135
    nsecs: 229150052
  frame_id: "imu_link"
vector: 
  x: -1.61967778206
  y: -0.887474536896
  z: 3.44342064857
---
header: 
  seq: 118
  stamp: 
    secs: 1568012135
    nsecs: 282052291
  frame_id: "imu_link"
vector: 
  x: -1.59359550476
  y: -0.909840703011
  z: 3.37763357162
---
header: 
  seq: 119
  stamp: 
    secs: 1568012135
    nsecs: 335203020
  frame_id: "imu_link"
vector: 
  x: -1.59636700153
  y: -0.928171098232
  z: 3.34979200363
---
header: 
  seq: 120
  stamp: 
    secs: 1568012135
    nsecs: 384567083
  frame_id: "imu_link"
vector: 
  x: -1.64590799809
  y: -0.936456799507
  z: 3.37984514236
---
header: 
  seq: 121
  stamp: 
    secs: 1568012135
    nsecs: 437544947
  frame_id: "imu_link"
vector: 
  x: -1.63601136208
  y: -0.938497841358
  z: 3.39518022537
---
header: 
  seq: 122
  stamp: 
    secs: 1568012135
    nsecs: 491893437
  frame_id: "imu_link"
vector: 
  x: -1.6110111475
  y: -0.930871784687
  z: 3.3838891983
---
header: 
  seq: 123
  stamp: 
    secs: 1568012135
    nsecs: 540411562
  frame_id: "imu_link"
vector: 
  x: -1.60028278828
  y: -0.937231659889
  z: 3.34372210503
---
header: 
  seq: 124
  stamp: 
    secs: 1568012135
    nsecs: 593114218
  frame_id: "imu_link"
vector: 
  x: -1.56707954407
  y: -0.913411021233
  z: 3.28647041321
---
header: 
  seq: 125
  stamp: 
    secs: 1568012135
    nsecs: 646042343
  frame_id: "imu_link"
vector: 
  x: -1.56793153286
  y: -0.9121530056
  z: 3.32010126114
---
header: 
  seq: 126
  stamp: 
    secs: 1568012135
    nsecs: 699364270
  frame_id: "imu_link"
vector: 
  x: -1.59600877762
  y: -0.920498490334
  z: 3.35211515427
---
header: 
  seq: 127
  stamp: 
    secs: 1568012135
    nsecs: 750207812
  frame_id: "imu_link"
vector: 
  x: -1.62019336224
  y: -0.929175257683
  z: 3.37511944771
---
header: 
  seq: 128
  stamp: 
    secs: 1568012135
    nsecs: 802050729
  frame_id: "imu_link"
vector: 
  x: -1.61112451553
  y: -0.936166167259
  z: 3.35761833191
---
header: 
  seq: 129
  stamp: 
    secs: 1568012135
    nsecs: 855316406
  frame_id: "imu_link"
vector: 
  x: -1.60381698608
  y: -0.947352826595
  z: 3.34139108658
---
header: 
  seq: 130
  stamp: 
    secs: 1568012135
    nsecs: 908479010
  frame_id: "imu_link"
vector: 
  x: -1.61416733265
  y: -0.9475492239
  z: 3.34416723251
---
header: 
  seq: 131
  stamp: 
    secs: 1568012135
    nsecs: 961301458
  frame_id: "imu_link"
vector: 
  x: -1.59476447105
  y: -0.943166255951
  z: 3.34451913834
---
header: 
  seq: 132
  stamp: 
    secs: 1568012136
    nsecs:  15686666
  frame_id: "imu_link"
vector: 
  x: -1.57964801788
  y: -0.949011981487
  z: 3.34466791153
---
header: 
  seq: 133
  stamp: 
    secs: 1568012136
    nsecs:  67487187
  frame_id: "imu_link"
vector: 
  x: -1.5974663496
  y: -0.968639969826
  z: 3.35362148285
---
header: 
  seq: 134
  stamp: 
    secs: 1568012136
    nsecs: 120467239
  frame_id: "imu_link"
vector: 
  x: -1.63459539413
  y: -0.953539013863
  z: 3.35672855377
---
header: 
  seq: 135
  stamp: 
    secs: 1568012136
    nsecs: 173447031
  frame_id: "imu_link"
vector: 
  x: -1.60671639442
  y: -0.947039663792
  z: 3.32316350937
---
header: 
  seq: 136
  stamp: 
    secs: 1568012136
    nsecs: 227788853
  frame_id: "imu_link"
vector: 
  x: -1.5985159874
  y: -0.967604875565
  z: 3.33562994003
---
header: 
  seq: 137
  stamp: 
    secs: 1568012136
    nsecs: 277442187
  frame_id: "imu_link"
vector: 
  x: -1.60684895515
  y: -0.965861201286
  z: 3.34177350998
---
header: 
  seq: 138
  stamp: 
    secs: 1568012136
    nsecs: 330642968
  frame_id: "imu_link"
vector: 
  x: -1.62959551811
  y: -0.961520373821
  z: 3.3346157074
---
header: 
  seq: 139
  stamp: 
    secs: 1568012136
    nsecs: 380082395
  frame_id: "imu_link"
vector: 
  x: -1.61160254478
  y: -0.950042486191
  z: 3.33158636093
---
header: 
  seq: 140
  stamp: 
    secs: 1568012136
    nsecs: 433137707
  frame_id: "imu_link"
vector: 
  x: -1.60048675537
  y: -0.969638705254
  z: 3.32141375542
---
header: 
  seq: 141
  stamp: 
    secs: 1568012136
    nsecs: 483689895
  frame_id: "imu_link"
vector: 
  x: -1.61636853218
  y: -0.963143706322
  z: 3.31529450417
---
header: 
  seq: 142
  stamp: 
    secs: 1568012136
    nsecs: 536782030
  frame_id: "imu_link"
vector: 
  x: -1.61981463432
  y: -0.967683076859
  z: 3.32340931892
---
header: 
  seq: 143
  stamp: 
    secs: 1568012136
    nsecs: 589922968
  frame_id: "imu_link"
vector: 
  x: -1.603962183
  y: -0.977104365826
  z: 3.31795310974
---
header: 
  seq: 144
  stamp: 
    secs: 1568012136
    nsecs: 639349009
  frame_id: "imu_link"
vector: 
  x: -1.59044551849
  y: -0.963762998581
  z: 3.33342504501
---
header: 
  seq: 145
  stamp: 
    secs: 1568012136
    nsecs: 692275728
  frame_id: "imu_link"
vector: 
  x: -1.61409556866
  y: -0.946846783161
  z: 3.32374429703
---
header: 
  seq: 146
  stamp: 
    secs: 1568012136
    nsecs: 745713957
  frame_id: "imu_link"
vector: 
  x: -1.6012929678
  y: -0.953663766384
  z: 3.28235673904
---
header: 
  seq: 147
  stamp: 
    secs: 1568012136
    nsecs: 797444478
  frame_id: "imu_link"
vector: 
  x: -1.6028342247
  y: -0.981173992157
  z: 3.26501750946
---
header: 
  seq: 148
  stamp: 
    secs: 1568012136
    nsecs: 845126457
  frame_id: "imu_link"
vector: 
  x: -1.58018839359
  y: -0.998154520988
  z: 3.21202373505
---
header: 
  seq: 149
  stamp: 
    secs: 1568012136
    nsecs: 900789322
  frame_id: "imu_link"
vector: 
  x: -1.57649457455
  y: -1.01635491848
  z: 3.20858049393
---
header: 
  seq: 150
  stamp: 
    secs: 1568012136
    nsecs: 951182134
  frame_id: "imu_link"
vector: 
  x: -1.59233927727
  y: -1.02388298512
  z: 3.23379468918
---
header: 
  seq: 151
  stamp: 
    secs: 1568012137
    nsecs:   3077603
  frame_id: "imu_link"
vector: 
  x: -1.56781971455
  y: -1.00134205818
  z: 3.2355825901
---
header: 
  seq: 152
  stamp: 
    secs: 1568012137
    nsecs:  52356405
  frame_id: "imu_link"
vector: 
  x: -1.62784004211
  y: -0.951427996159
  z: 3.2633292675
---
header: 
  seq: 153
  stamp: 
    secs: 1568012137
    nsecs: 105361509
  frame_id: "imu_link"
vector: 
  x: -1.63138008118
  y: -0.916106343269
  z: 3.26585531235
---
header: 
  seq: 154
  stamp: 
    secs: 1568012137
    nsecs: 159704999
  frame_id: "imu_link"
vector: 
  x: -1.6049516201
  y: -0.925437748432
  z: 3.23121500015
---
header: 
  seq: 155
  stamp: 
    secs: 1568012137
    nsecs: 210335624
  frame_id: "imu_link"
vector: 
  x: -1.59387946129
  y: -0.937435865402
  z: 3.21670246124
---
header: 
  seq: 156
  stamp: 
    secs: 1568012137
    nsecs: 259877134
  frame_id: "imu_link"
vector: 
  x: -1.60369634628
  y: -0.959520161152
  z: 3.25993824005
---
header: 
  seq: 157
  stamp: 
    secs: 1568012137
    nsecs: 313110520
  frame_id: "imu_link"
vector: 
  x: -1.60404717922
  y: -0.965976476669
  z: 3.29122495651
---
header: 
  seq: 158
  stamp: 
    secs: 1568012137
    nsecs: 366078280
  frame_id: "imu_link"
vector: 
  x: -1.63191092014
  y: -0.97755920887
  z: 3.32211351395
---
header: 
  seq: 159
  stamp: 
    secs: 1568012137
    nsecs: 415579218
  frame_id: "imu_link"
vector: 
  x: -1.6517496109
  y: -0.941061556339
  z: 3.36596822739
---
header: 
  seq: 160
  stamp: 
    secs: 1568012137
    nsecs: 468660155
  frame_id: "imu_link"
vector: 
  x: -1.6521961689
  y: -0.95007443428
  z: 3.37152671814
---
header: 
  seq: 161
  stamp: 
    secs: 1568012137
    nsecs: 521972342
  frame_id: "imu_link"
vector: 
  x: -1.65588617325
  y: -0.945612549782
  z: 3.38276958466
---
header: 
  seq: 162
  stamp: 
    secs: 1568012137
    nsecs: 575116249
  frame_id: "imu_link"
vector: 
  x: -1.66431641579
  y: -0.944118738174
  z: 3.38750696182
---
header: 
  seq: 163
  stamp: 
    secs: 1568012137
    nsecs: 628335467
  frame_id: "imu_link"
vector: 
  x: -1.64969110489
  y: -0.935139536858
  z: 3.36514091492
---
header: 
  seq: 164
  stamp: 
    secs: 1568012137
    nsecs: 681164113
  frame_id: "imu_link"
vector: 
  x: -1.65132498741
  y: -0.939479410648
  z: 3.37117624283
---
header: 
  seq: 165
  stamp: 
    secs: 1568012137
    nsecs: 734156144
  frame_id: "imu_link"
vector: 
  x: -1.6556147337
  y: -0.940365672112
  z: 3.40040206909
---
header: 
  seq: 166
  stamp: 
    secs: 1568012137
    nsecs: 783732186
  frame_id: "imu_link"
vector: 
  x: -1.659532547
  y: -0.94658446312
  z: 3.39645552635
---
header: 
  seq: 167
  stamp: 
    secs: 1568012137
    nsecs: 836655155
  frame_id: "imu_link"
vector: 
  x: -1.65908825397
  y: -0.967638850212
  z: 3.41110038757
---
header: 
  seq: 168
  stamp: 
    secs: 1568012137
    nsecs: 887303749
  frame_id: "imu_link"
vector: 
  x: -1.66570806503
  y: -0.985789000988
  z: 3.39951753616
---
header: 
  seq: 169
  stamp: 
    secs: 1568012137
    nsecs: 939052707
  frame_id: "imu_link"
vector: 
  x: -1.6615254879
  y: -1.00186467171
  z: 3.37693166733
---
header: 
  seq: 170
  stamp: 
    secs: 1568012137
    nsecs: 992133905
  frame_id: "imu_link"
vector: 
  x: -1.69168019295
  y: -0.976390123367
  z: 3.39362335205
---
header: 
  seq: 171
  stamp: 
    secs: 1568012138
    nsecs:  45165832
  frame_id: "imu_link"
vector: 
  x: -1.68300223351
  y: -0.948861479759
  z: 3.40101122856
---
header: 
  seq: 172
  stamp: 
    secs: 1568012138
    nsecs:  98169582
  frame_id: "imu_link"
vector: 
  x: -1.67242479324
  y: -0.961089193821
  z: 3.40413784981
---
header: 
  seq: 173
  stamp: 
    secs: 1568012138
    nsecs: 148862499
  frame_id: "imu_link"
vector: 
  x: -1.64421653748
  y: -0.942617177963
  z: 3.4188747406
---
header: 
  seq: 174
  stamp: 
    secs: 1568012138
    nsecs: 201905884
  frame_id: "imu_link"
vector: 
  x: -1.66301226616
  y: -0.933805346489
  z: 3.42947888374
---
header: 
  seq: 175
  stamp: 
    secs: 1568012138
    nsecs: 255554478
  frame_id: "imu_link"
vector: 
  x: -1.66065812111
  y: -0.937201321125
  z: 3.44285726547
---
header: 
  seq: 176
  stamp: 
    secs: 1568012138
    nsecs: 307168696
  frame_id: "imu_link"
vector: 
  x: -1.64565753937
  y: -0.947477221489
  z: 3.41295719147
---
header: 
  seq: 177
  stamp: 
    secs: 1568012138
    nsecs: 357859582
  frame_id: "imu_link"
vector: 
  x: -1.68724584579
  y: -0.949122071266
  z: 3.37858772278
---
header: 
  seq: 178
  stamp: 
    secs: 1568012138
    nsecs: 410938332
  frame_id: "imu_link"
vector: 
  x: -1.69143438339
  y: -0.946373522282
  z: 3.38575792313
---
header: 
  seq: 179
  stamp: 
    secs: 1568012138
    nsecs: 464147342
  frame_id: "imu_link"
vector: 
  x: -1.68299543858
  y: -0.951572537422
  z: 3.41546344757
---
header: 
  seq: 180
  stamp: 
    secs: 1568012138
    nsecs: 513661248
  frame_id: "imu_link"
vector: 
  x: -1.67198729515
  y: -0.954585790634
  z: 3.42826509476
---
header: 
  seq: 181
  stamp: 
    secs: 1568012138
    nsecs: 566394217
  frame_id: "imu_link"
vector: 
  x: -1.65395331383
  y: -0.946558237076
  z: 3.41567206383
---
header: 
  seq: 182
  stamp: 
    secs: 1568012138
    nsecs: 619629998
  frame_id: "imu_link"
vector: 
  x: -1.6394162178
  y: -0.934684097767
  z: 3.41034245491
---
header: 
  seq: 183
  stamp: 
    secs: 1568012138
    nsecs: 672537967
  frame_id: "imu_link"
vector: 
  x: -1.64016890526
  y: -0.930046916008
  z: 3.40808701515
---
header: 
  seq: 184
  stamp: 
    secs: 1568012138
    nsecs: 724192342
  frame_id: "imu_link"
vector: 
  x: -1.66104102135
  y: -0.949317336082
  z: 3.37629461288
---
header: 
  seq: 185
  stamp: 
    secs: 1568012138
    nsecs: 778845884
  frame_id: "imu_link"
vector: 
  x: -1.66299891472
  y: -0.961825370789
  z: 3.37590360641
---
header: 
  seq: 186
  stamp: 
    secs: 1568012138
    nsecs: 831989842
  frame_id: "imu_link"
vector: 
  x: -1.68117284775
  y: -0.984104752541
  z: 3.38462162018
---
header: 
  seq: 187
  stamp: 
    secs: 1568012138
    nsecs: 881310154
  frame_id: "imu_link"
vector: 
  x: -1.67695832253
  y: -0.959961771965
  z: 3.41139316559
---
header: 
  seq: 188
  stamp: 
    secs: 1568012138
    nsecs: 933002654
  frame_id: "imu_link"
vector: 
  x: -1.66296195984
  y: -0.941132724285
  z: 3.4085316658
---
header: 
  seq: 189
  stamp: 
    secs: 1568012138
    nsecs: 987520936
  frame_id: "imu_link"
vector: 
  x: -1.64205098152
  y: -0.941245615482
  z: 3.38850498199
---
header: 
  seq: 190
  stamp: 
    secs: 1568012139
    nsecs:  36779425
  frame_id: "imu_link"
vector: 
  x: -1.63082921505
  y: -0.949528098106
  z: 3.37224388123
---
header: 
  seq: 191
  stamp: 
    secs: 1568012139
    nsecs:  89905779
  frame_id: "imu_link"
vector: 
  x: -1.64550590515
  y: -0.94240874052
  z: 3.40583276749
---
header: 
  seq: 192
  stamp: 
    secs: 1568012139
    nsecs: 143001404
  frame_id: "imu_link"
vector: 
  x: -1.66005694866
  y: -0.950082063675
  z: 3.41506910324
---
header: 
  seq: 193
  stamp: 
    secs: 1568012139
    nsecs: 193349686
  frame_id: "imu_link"
vector: 
  x: -1.65240526199
  y: -0.968731045723
  z: 3.41897773743
---
header: 
  seq: 194
  stamp: 
    secs: 1568012139
    nsecs: 250281144
  frame_id: "imu_link"
vector: 
  x: -1.64772439003
  y: -0.956706523895
  z: 3.40376901627
---
header: 
  seq: 195
  stamp: 
    secs: 1568012139
    nsecs: 300979998
  frame_id: "imu_link"
vector: 
  x: -1.63992881775
  y: -0.938974320889
  z: 3.39616584778
---
header: 
  seq: 196
  stamp: 
    secs: 1568012139
    nsecs: 354179165
  frame_id: "imu_link"
vector: 
  x: -1.62661647797
  y: -0.938409924507
  z: 3.41996955872
---
header: 
  seq: 197
  stamp: 
    secs: 1568012139
    nsecs: 405987758
  frame_id: "imu_link"
vector: 
  x: -1.6244430542
  y: -0.946837723255
  z: 3.42105174065
---
header: 
  seq: 198
  stamp: 
    secs: 1568012139
    nsecs: 459133488
  frame_id: "imu_link"
vector: 
  x: -1.63280141354
  y: -0.987982392311
  z: 3.39646077156
---
header: 
  seq: 199
  stamp: 
    secs: 1568012139
    nsecs: 512277550
  frame_id: "imu_link"
vector: 
  x: -1.64771103859
  y: -0.961008906364
  z: 3.41103982925
---
header: 
  seq: 200
  stamp: 
    secs: 1568012139
    nsecs: 565304269
  frame_id: "imu_link"
vector: 
  x: -1.64708316326
  y: -0.933674633503
  z: 3.39949178696
---
header: 
  seq: 201
  stamp: 
    secs: 1568012139
    nsecs: 616980883
  frame_id: "imu_link"
vector: 
  x: -1.63047611713
  y: -0.944644570351
  z: 3.37620639801
---
header: 
  seq: 202
  stamp: 
    secs: 1568012139
    nsecs: 670127133
  frame_id: "imu_link"
vector: 
  x: -1.62938320637
  y: -0.942726016045
  z: 3.37585949898
---
header: 
  seq: 203
  stamp: 
    secs: 1568012139
    nsecs: 722973956
  frame_id: "imu_link"
vector: 
  x: -1.64973258972
  y: -0.9342263937
  z: 3.39349341393
---
header: 
  seq: 204
  stamp: 
    secs: 1568012139
    nsecs: 773933748
  frame_id: "imu_link"
vector: 
  x: -1.64865815639
  y: -0.956424176693
  z: 3.39521050453
---
header: 
  seq: 205
  stamp: 
    secs: 1568012139
    nsecs: 827017133
  frame_id: "imu_link"
vector: 
  x: -1.65088784695
  y: -0.956576108932
  z: 3.38390207291
---
header: 
  seq: 206
  stamp: 
    secs: 1568012139
    nsecs: 880330362
  frame_id: "imu_link"
vector: 
  x: -1.64833056927
  y: -0.956827878952
  z: 3.37022590637
---
header: 
  seq: 207
  stamp: 
    secs: 1568012139
    nsecs: 933127029
  frame_id: "imu_link"
vector: 
  x: -1.66448950768
  y: -0.957520008087
  z: 3.3733150959
---
header: 
  seq: 208
  stamp: 
    secs: 1568012139
    nsecs: 986284373
  frame_id: "imu_link"
vector: 
  x: -1.63543403149
  y: -0.929145932198
  z: 3.37895727158
---
header: 
  seq: 209
  stamp: 
    secs: 1568012140
    nsecs:  35605206
  frame_id: "imu_link"
vector: 
  x: -1.61757445335
  y: -0.936153769493
  z: 3.35924267769
---
header: 
  seq: 210
  stamp: 
    secs: 1568012140
    nsecs:  88580675
  frame_id: "imu_link"
vector: 
  x: -1.60301411152
  y: -0.939494490623
  z: 3.3331182003
---
header: 
  seq: 211
  stamp: 
    secs: 1568012140
    nsecs: 139180050
  frame_id: "imu_link"
vector: 
  x: -1.64807963371
  y: -0.946477413177
  z: 3.35157966614
---
header: 
  seq: 212
  stamp: 
    secs: 1568012140
    nsecs: 193558800
  frame_id: "imu_link"
vector: 
  x: -1.66517591476
  y: -0.962776184082
  z: 3.34745836258
---
header: 
  seq: 213
  stamp: 
    secs: 1568012140
    nsecs: 244083279
  frame_id: "imu_link"
vector: 
  x: -1.65437734127
  y: -0.975629329681
  z: 3.35480260849
---
header: 
  seq: 214
  stamp: 
    secs: 1568012140
    nsecs: 298819633
  frame_id: "imu_link"
vector: 
  x: -1.65330827236
  y: -0.95661509037
  z: 3.3668012619
---
header: 
  seq: 215
  stamp: 
    secs: 1568012140
    nsecs: 349869789
  frame_id: "imu_link"
vector: 
  x: -1.64524328709
  y: -0.922148108482
  z: 3.3651664257
---
header: 
  seq: 216
  stamp: 
    secs: 1568012140
    nsecs: 401024893
  frame_id: "imu_link"
vector: 
  x: -1.65975153446
  y: -0.967299818993
  z: 3.36229658127
---
header: 
  seq: 217
  stamp: 
    secs: 1568012140
    nsecs: 454183591
  frame_id: "imu_link"
vector: 
  x: -1.67285227776
  y: -1.01125001907
  z: 3.36107683182
---
header: 
  seq: 218
  stamp: 
    secs: 1568012140
    nsecs: 507271508
  frame_id: "imu_link"
vector: 
  x: -1.65469574928
  y: -0.97004032135
  z: 3.36920309067
---
header: 
  seq: 219
  stamp: 
    secs: 1568012140
    nsecs: 560181977
  frame_id: "imu_link"
vector: 
  x: -1.65344309807
  y: -0.970427334309
  z: 3.37289571762
---
header: 
  seq: 220
  stamp: 
    secs: 1568012140
    nsecs: 613001091
  frame_id: "imu_link"
vector: 
  x: -1.6458786726
  y: -0.93847489357
  z: 3.35660791397
---
header: 
  seq: 221
  stamp: 
    secs: 1568012140
    nsecs: 665987289
  frame_id: "imu_link"
vector: 
  x: -1.65992331505
  y: -0.910262525082
  z: 3.34089374542
---
header: 
  seq: 222
  stamp: 
    secs: 1568012140
    nsecs: 716534529
  frame_id: "imu_link"
vector: 
  x: -1.62303090096
  y: -0.891268014908
  z: 3.31877565384
---
header: 
  seq: 223
  stamp: 
    secs: 1568012140
    nsecs: 771632758
  frame_id: "imu_link"
vector: 
  x: -1.62946939468
  y: -0.89800041914
  z: 3.30705165863
---
header: 
  seq: 224
  stamp: 
    secs: 1568012140
    nsecs: 823040518
  frame_id: "imu_link"
vector: 
  x: -1.63206958771
  y: -0.901584029198
  z: 3.28435897827
---
header: 
  seq: 225
  stamp: 
    secs: 1568012140
    nsecs: 873535050
  frame_id: "imu_link"
vector: 
  x: -1.63085174561
  y: -0.946359217167
  z: 3.29599666595
---
header: 
  seq: 226
  stamp: 
    secs: 1568012140
    nsecs: 926994685
  frame_id: "imu_link"
vector: 
  x: -1.63275170326
  y: -0.953641891479
  z: 3.29746127129
---
header: 
  seq: 227
  stamp: 
    secs: 1568012140
    nsecs: 980485622
  frame_id: "imu_link"
vector: 
  x: -1.62672257423
  y: -0.923087835312
  z: 3.31594085693
---
header: 
  seq: 228
  stamp: 
    secs: 1568012141
    nsecs:  27291820
  frame_id: "imu_link"
vector: 
  x: -1.61028957367
  y: -0.910274147987
  z: 3.30590200424
---
header: 
  seq: 229
  stamp: 
    secs: 1568012141
    nsecs:  83144060
  frame_id: "imu_link"
vector: 
  x: -1.62266767025
  y: -0.915782809258
  z: 3.28890705109
---
header: 
  seq: 230
  stamp: 
    secs: 1568012141
    nsecs: 136034581
  frame_id: "imu_link"
vector: 
  x: -1.63629031181
  y: -0.916060447693
  z: 3.3122420311
---
header: 
  seq: 231
  stamp: 
    secs: 1568012141
    nsecs: 189288070
  frame_id: "imu_link"
vector: 
  x: -1.62811362743
  y: -0.94053542614
  z: 3.30430269241
---
header: 
  seq: 232
  stamp: 
    secs: 1568012141
    nsecs: 239882393
  frame_id: "imu_link"
vector: 
  x: -1.61441135406
  y: -0.949420332909
  z: 3.31222200394
---
header: 
  seq: 233
  stamp: 
    secs: 1568012141
    nsecs: 293111039
  frame_id: "imu_link"
vector: 
  x: -1.57405591011
  y: -0.935468256474
  z: 3.3132185936
---
header: 
  seq: 234
  stamp: 
    secs: 1568012141
    nsecs: 342633435
  frame_id: "imu_link"
vector: 
  x: -1.58449935913
  y: -0.923789918423
  z: 3.29585933685
---
header: 
  seq: 235
  stamp: 
    secs: 1568012141
    nsecs: 395839424
  frame_id: "imu_link"
vector: 
  x: -1.60623002052
  y: -0.927524805069
  z: 3.29740333557
---
header: 
  seq: 236
  stamp: 
    secs: 1568012141
    nsecs: 445234112
  frame_id: "imu_link"
vector: 
  x: -1.59970569611
  y: -0.915592730045
  z: 3.30585813522
---
header: 
  seq: 237
  stamp: 
    secs: 1568012141
    nsecs: 498066456
  frame_id: "imu_link"
vector: 
  x: -1.6023567915
  y: -0.906914651394
  z: 3.31052541733
---
header: 
  seq: 238
  stamp: 
    secs: 1568012141
    nsecs: 551036872
  frame_id: "imu_link"
vector: 
  x: -1.60348367691
  y: -0.919473052025
  z: 3.31250905991
---
header: 
  seq: 239
  stamp: 
    secs: 1568012141
    nsecs: 605534997
  frame_id: "imu_link"
vector: 
  x: -1.61086058617
  y: -0.917033672333
  z: 3.31334018707
---
header: 
  seq: 240
  stamp: 
    secs: 1568012141
    nsecs: 655873174
  frame_id: "imu_link"
vector: 
  x: -1.59736657143
  y: -0.90444290638
  z: 3.36069011688
---
header: 
  seq: 241
  stamp: 
    secs: 1568012141
    nsecs: 709021976
  frame_id: "imu_link"
vector: 
  x: -1.62217879295
  y: -0.91068571806
  z: 3.35151171684
---
header: 
  seq: 242
  stamp: 
    secs: 1568012141
    nsecs: 762063435
  frame_id: "imu_link"
vector: 
  x: -1.65020692348
  y: -0.921287298203
  z: 3.37439632416
---
header: 
  seq: 243
  stamp: 
    secs: 1568012141
    nsecs: 811738539
  frame_id: "imu_link"
vector: 
  x: -1.66219735146
  y: -0.918811261654
  z: 3.42593431473
---
header: 
  seq: 244
  stamp: 
    secs: 1568012141
    nsecs: 864409841
  frame_id: "imu_link"
vector: 
  x: -1.6601099968
  y: -0.932439684868
  z: 3.40570902824
---
header: 
  seq: 245
  stamp: 
    secs: 1568012141
    nsecs: 917530414
  frame_id: "imu_link"
vector: 
  x: -1.6418274641
  y: -0.9383238554
  z: 3.37056422234
---
header: 
  seq: 246
  stamp: 
    secs: 1568012141
    nsecs: 968382705
  frame_id: "imu_link"
vector: 
  x: -1.63814938068
  y: -0.906247973442
  z: 3.36594390869
---
header: 
  seq: 247
  stamp: 
    secs: 1568012142
    nsecs:  20076664
  frame_id: "imu_link"
vector: 
  x: -1.64668869972
  y: -0.903643727303
  z: 3.35322093964
---
header: 
  seq: 248
  stamp: 
    secs: 1568012142
    nsecs:  73177757
  frame_id: "imu_link"
vector: 
  x: -1.62243485451
  y: -0.932686686516
  z: 3.36613178253
---
header: 
  seq: 249
  stamp: 
    secs: 1568012142
    nsecs: 126015518
  frame_id: "imu_link"
vector: 
  x: -1.61897802353
  y: -0.946129024029
  z: 3.3538146019
---
header: 
  seq: 250
  stamp: 
    secs: 1568012142
    nsecs: 175336872
  frame_id: "imu_link"
vector: 
  x: -1.6404312849
  y: -0.924213767052
  z: 3.35152387619
---
header: 
  seq: 251
  stamp: 
    secs: 1568012142
    nsecs: 228264737
  frame_id: "imu_link"
vector: 
  x: -1.62311673164
  y: -0.925796866417
  z: 3.35654449463
---
header: 
  seq: 252
  stamp: 
    secs: 1568012142
    nsecs: 282880622
  frame_id: "imu_link"
vector: 
  x: -1.6261715889
  y: -0.935512423515
  z: 3.34975719452
---
header: 
  seq: 253
  stamp: 
    secs: 1568012142
    nsecs: 336019216
  frame_id: "imu_link"
vector: 
  x: -1.63777315617
  y: -0.940587639809
  z: 3.33799433708
---
header: 
  seq: 254
  stamp: 
    secs: 1568012142
    nsecs: 385559164
  frame_id: "imu_link"
vector: 
  x: -1.61964225769
  y: -0.937730193138
  z: 3.32714700699
---
header: 
  seq: 255
  stamp: 
    secs: 1568012142
    nsecs: 438696611
  frame_id: "imu_link"
vector: 
  x: -1.63165724277
  y: -0.924717843533
  z: 3.33735942841
---
header: 
  seq: 256
  stamp: 
    secs: 1568012142
    nsecs: 491700622
  frame_id: "imu_link"
vector: 
  x: -1.62628507614
  y: -0.92715460062
  z: 3.33274745941
---
header: 
  seq: 257
  stamp: 
    secs: 1568012142
    nsecs: 542289216
  frame_id: "imu_link"
vector: 
  x: -1.6124573946
  y: -0.919865250587
  z: 3.36040353775
---
header: 
  seq: 258
  stamp: 
    secs: 1568012142
    nsecs: 594054684
  frame_id: "imu_link"
vector: 
  x: -1.62516140938
  y: -0.948992133141
  z: 3.3602809906
---
header: 
  seq: 259
  stamp: 
    secs: 1568012142
    nsecs: 644571038
  frame_id: "imu_link"
vector: 
  x: -1.62013196945
  y: -0.953029632568
  z: 3.35133862495
---
header: 
  seq: 260
  stamp: 
    secs: 1568012142
    nsecs: 698933122
  frame_id: "imu_link"
vector: 
  x: -1.62490832806
  y: -0.963215172291
  z: 3.34755420685
---
header: 
  seq: 261
  stamp: 
    secs: 1568012142
    nsecs: 748168538
  frame_id: "imu_link"
vector: 
  x: -1.6242582798
  y: -0.977317452431
  z: 3.31931400299
---
header: 
  seq: 262
  stamp: 
    secs: 1568012142
    nsecs: 800176768
  frame_id: "imu_link"
vector: 
  x: -1.62995970249
  y: -0.975566148758
  z: 3.28904151917
---
header: 
  seq: 263
  stamp: 
    secs: 1568012142
    nsecs: 853777028
  frame_id: "imu_link"
vector: 
  x: -1.63237428665
  y: -0.982180118561
  z: 3.29451775551
---
header: 
  seq: 264
  stamp: 
    secs: 1568012142
    nsecs: 904159215
  frame_id: "imu_link"
vector: 
  x: -1.63339614868
  y: -0.960712969303
  z: 3.29683542252
---
header: 
  seq: 265
  stamp: 
    secs: 1568012142
    nsecs: 956104007
  frame_id: "imu_link"
vector: 
  x: -1.64390897751
  y: -1.01330518723
  z: 3.32336568832
---
header: 
  seq: 266
  stamp: 
    secs: 1568012143
    nsecs:   1403070
  frame_id: "imu_link"
vector: 
  x: -1.6451716423
  y: -1.01470518112
  z: 3.3091673851
---
header: 
  seq: 267
  stamp: 
    secs: 1568012143
    nsecs:  57071559
  frame_id: "imu_link"
vector: 
  x: -1.64573073387
  y: -0.998735785484
  z: 3.3028793335
---
header: 
  seq: 268
  stamp: 
    secs: 1568012143
    nsecs: 105079580
  frame_id: "imu_link"
vector: 
  x: -1.64259088039
  y: -0.983903765678
  z: 3.30918216705
---
header: 
  seq: 269
  stamp: 
    secs: 1568012143
    nsecs: 154287497
  frame_id: "imu_link"
vector: 
  x: -1.680087924
  y: -0.990751981735
  z: 3.33840179443
---
header: 
  seq: 270
  stamp: 
    secs: 1568012143
    nsecs: 203155622
  frame_id: "imu_link"
vector: 
  x: -1.70902252197
  y: -0.998273849487
  z: 3.35096979141
---
header: 
  seq: 271
  stamp: 
    secs: 1568012143
    nsecs: 254851872
  frame_id: "imu_link"
vector: 
  x: -1.75248575211
  y: -0.993970036507
  z: 3.38295984268
---
header: 
  seq: 272
  stamp: 
    secs: 1568012143
    nsecs: 309323174
  frame_id: "imu_link"
vector: 
  x: -1.75006818771
  y: -0.959392547607
  z: 3.37871742249
---
header: 
  seq: 273
  stamp: 
    secs: 1568012143
    nsecs: 361041455
  frame_id: "imu_link"
vector: 
  x: -1.69973349571
  y: -0.988268017769
  z: 3.33440232277
---
header: 
  seq: 274
  stamp: 
    secs: 1568012143
    nsecs: 414016194
  frame_id: "imu_link"
vector: 
  x: -1.72074723244
  y: -1.00505149364
  z: 3.35806536674
---
header: 
  seq: 275
  stamp: 
    secs: 1568012143
    nsecs: 467014215
  frame_id: "imu_link"
vector: 
  x: -1.71955966949
  y: -1.00147712231
  z: 3.41538381577
---
header: 
  seq: 276
  stamp: 
    secs: 1568012143
    nsecs: 520154059
  frame_id: "imu_link"
vector: 
  x: -1.71938955784
  y: -0.944800615311
  z: 3.437063694
---
header: 
  seq: 277
  stamp: 
    secs: 1568012143
    nsecs: 573354944
  frame_id: "imu_link"
vector: 
  x: -1.70554661751
  y: -0.901425361633
  z: 3.48124551773
---
header: 
  seq: 278
  stamp: 
    secs: 1568012143
    nsecs: 626387392
  frame_id: "imu_link"
vector: 
  x: -1.68235731125
  y: -0.898294568062
  z: 3.49139308929
---
header: 
  seq: 279
  stamp: 
    secs: 1568012143
    nsecs: 678129840
  frame_id: "imu_link"
vector: 
  x: -1.74321341515
  y: -0.943489313126
  z: 3.48869943619
---
header: 
  seq: 280
  stamp: 
    secs: 1568012143
    nsecs: 731366298
  frame_id: "imu_link"
vector: 
  x: -1.69461536407
  y: -0.910612344742
  z: 3.43260002136
---
header: 
  seq: 281
  stamp: 
    secs: 1568012143
    nsecs: 784730726
  frame_id: "imu_link"
vector: 
  x: -1.69114923477
  y: -0.921411633492
  z: 3.41750669479
---
header: 
  seq: 282
  stamp: 
    secs: 1568012143
    nsecs: 837785101
  frame_id: "imu_link"
vector: 
  x: -1.74817657471
  y: -0.985244631767
  z: 3.41999864578
---
header: 
  seq: 283
  stamp: 
    secs: 1568012143
    nsecs: 890916715
  frame_id: "imu_link"
vector: 
  x: -1.84114575386
  y: -1.04954719543
  z: 3.38654255867
---
header: 
  seq: 284
  stamp: 
    secs: 1568012143
    nsecs: 942666767
  frame_id: "imu_link"
vector: 
  x: -1.83933591843
  y: -1.05090928078
  z: 3.37140846252
---
header: 
  seq: 285
  stamp: 
    secs: 1568012143
    nsecs: 997026038
  frame_id: "imu_link"
vector: 
  x: -1.85241270065
  y: -1.04344797134
  z: 3.38267087936
---
header: 
  seq: 286
  stamp: 
    secs: 1568012144
    nsecs:  48768850
  frame_id: "imu_link"
vector: 
  x: -1.88389408588
  y: -1.04392266273
  z: 3.38449859619
---
header: 
  seq: 287
  stamp: 
    secs: 1568012144
    nsecs: 101988902
  frame_id: "imu_link"
vector: 
  x: -1.88173270226
  y: -1.03257083893
  z: 3.39714956284
---
header: 
  seq: 288
  stamp: 
    secs: 1568012144
    nsecs: 155263173
  frame_id: "imu_link"
vector: 
  x: -1.90503036976
  y: -1.04410803318
  z: 3.42903757095
---
header: 
  seq: 289
  stamp: 
    secs: 1568012144
    nsecs: 208293486
  frame_id: "imu_link"
vector: 
  x: -1.88716113567
  y: -1.05023908615
  z: 3.42691755295
---
header: 
  seq: 290
  stamp: 
    secs: 1568012144
    nsecs: 261263902
  frame_id: "imu_link"
vector: 
  x: -1.87625741959
  y: -1.05908405781
  z: 3.41515254974
---
header: 
  seq: 291
  stamp: 
    secs: 1568012144
    nsecs: 312970777
  frame_id: "imu_link"
vector: 
  x: -1.88890659809
  y: -1.05536532402
  z: 3.41901302338
---
header: 
  seq: 292
  stamp: 
    secs: 1568012144
    nsecs: 366206350
  frame_id: "imu_link"
vector: 
  x: -1.90111207962
  y: -1.0461306572
  z: 3.42063999176
---
header: 
  seq: 293
  stamp: 
    secs: 1568012144
    nsecs: 420526611
  frame_id: "imu_link"
vector: 
  x: -1.87706339359
  y: -1.06327950954
  z: 3.39205265045
---
header: 
  seq: 294
  stamp: 
    secs: 1568012144
    nsecs: 471121194
  frame_id: "imu_link"
vector: 
  x: -1.87883412838
  y: -1.04085958004
  z: 3.40031099319
---
header: 
  seq: 295
  stamp: 
    secs: 1568012144
    nsecs: 524071350
  frame_id: "imu_link"
vector: 
  x: -1.86235141754
  y: -1.02267563343
  z: 3.39497423172
---
header: 
  seq: 296
  stamp: 
    secs: 1568012144
    nsecs: 574553017
  frame_id: "imu_link"
vector: 
  x: -1.89227831364
  y: -1.06299519539
  z: 3.42585706711
---
header: 
  seq: 297
  stamp: 
    secs: 1568012144
    nsecs: 627650413
  frame_id: "imu_link"
vector: 
  x: -1.8648045063
  y: -1.05571901798
  z: 3.41474938393
---
header: 
  seq: 298
  stamp: 
    secs: 1568012144
    nsecs: 680743954
  frame_id: "imu_link"
vector: 
  x: -1.86324763298
  y: -1.04545140266
  z: 3.40106153488
---
header: 
  seq: 299
  stamp: 
    secs: 1568012144
    nsecs: 734277704
  frame_id: "imu_link"
vector: 
  x: -1.87973129749
  y: -1.04247033596
  z: 3.38644146919
---
header: 
  seq: 300
  stamp: 
    secs: 1568012144
    nsecs: 786002131
  frame_id: "imu_link"
vector: 
  x: -1.88542127609
  y: -1.03638803959
  z: 3.39150476456
---
header: 
  seq: 301
  stamp: 
    secs: 1568012144
    nsecs: 839179579
  frame_id: "imu_link"
vector: 
  x: -1.88928377628
  y: -1.02977013588
  z: 3.4001147747
---
header: 
  seq: 302
  stamp: 
    secs: 1568012144
    nsecs: 892145881
  frame_id: "imu_link"
vector: 
  x: -1.88752222061
  y: -1.0264083147
  z: 3.41259527206
---
header: 
  seq: 303
  stamp: 
    secs: 1568012144
    nsecs: 945281558
  frame_id: "imu_link"
vector: 
  x: -1.91980433464
  y: -1.06045675278
  z: 3.43709564209
---
header: 
  seq: 304
  stamp: 
    secs: 1568012144
    nsecs: 996988381
  frame_id: "imu_link"
vector: 
  x: -1.91775095463
  y: -1.04005730152
  z: 3.43718981743
---
header: 
  seq: 305
  stamp: 
    secs: 1568012145
    nsecs:  50123954
  frame_id: "imu_link"
vector: 
  x: -1.90987086296
  y: -1.03171110153
  z: 3.41944909096
---
header: 
  seq: 306
  stamp: 
    secs: 1568012145
    nsecs: 103301767
  frame_id: "imu_link"
vector: 
  x: -1.88354468346
  y: -1.05354034901
  z: 3.39620041847
---
header: 
  seq: 307
  stamp: 
    secs: 1568012145
    nsecs: 155071767
  frame_id: "imu_link"
vector: 
  x: -1.86087059975
  y: -1.06047642231
  z: 3.38437223434
---
header: 
  seq: 308
  stamp: 
    secs: 1568012145
    nsecs: 208064892
  frame_id: "imu_link"
vector: 
  x: -1.84085726738
  y: -1.04712128639
  z: 3.37048459053
---
header: 
  seq: 309
  stamp: 
    secs: 1568012145
    nsecs: 261447027
  frame_id: "imu_link"
vector: 
  x: -1.86681079865
  y: -1.05871629715
  z: 3.38227748871
---
header: 
  seq: 310
  stamp: 
    secs: 1568012145
    nsecs: 311707965
  frame_id: "imu_link"
vector: 
  x: -1.88504195213
  y: -1.04670619965
  z: 3.37971758842
---
header: 
  seq: 311
  stamp: 
    secs: 1568012145
    nsecs: 362682965
  frame_id: "imu_link"
vector: 
  x: -1.86488807201
  y: -1.04280877113
  z: 3.35092377663
---
header: 
  seq: 312
  stamp: 
    secs: 1568012145
    nsecs: 415692704
  frame_id: "imu_link"
vector: 
  x: -1.85980403423
  y: -1.04018640518
  z: 3.36509847641
---
header: 
  seq: 313
  stamp: 
    secs: 1568012145
    nsecs: 468785985
  frame_id: "imu_link"
vector: 
  x: -1.8430314064
  y: -1.0412760973
  z: 3.37368988991
---
header: 
  seq: 314
  stamp: 
    secs: 1568012145
    nsecs: 521954162
  frame_id: "imu_link"
vector: 
  x: -1.85059666634
  y: -1.0226662159
  z: 3.39249420166
---
header: 
  seq: 315
  stamp: 
    secs: 1568012145
    nsecs: 575167027
  frame_id: "imu_link"
vector: 
  x: -1.87095689774
  y: -1.02414393425
  z: 3.39164686203
---
header: 
  seq: 316
  stamp: 
    secs: 1568012145
    nsecs: 627157183
  frame_id: "imu_link"
vector: 
  x: -1.88998508453
  y: -1.04108071327
  z: 3.40013837814
---
header: 
  seq: 317
  stamp: 
    secs: 1568012145
    nsecs: 680338277
  frame_id: "imu_link"
vector: 
  x: -1.88130199909
  y: -1.04347443581
  z: 3.37881946564
---
header: 
  seq: 318
  stamp: 
    secs: 1568012145
    nsecs: 732049631
  frame_id: "imu_link"
vector: 
  x: -1.88054168224
  y: -1.04124248028
  z: 3.37697315216
---
header: 
  seq: 319
  stamp: 
    secs: 1568012145
    nsecs: 785271975
  frame_id: "imu_link"
vector: 
  x: -1.85959231853
  y: -1.0310792923
  z: 3.37618732452
---
header: 
  seq: 320
  stamp: 
    secs: 1568012145
    nsecs: 835865308
  frame_id: "imu_link"
vector: 
  x: -1.88576173782
  y: -1.02736544609
  z: 3.39718317986
---
header: 
  seq: 321
  stamp: 
    secs: 1568012145
    nsecs: 887745256
  frame_id: "imu_link"
vector: 
  x: -1.88244009018
  y: -1.05049312115
  z: 3.38479042053
---
header: 
  seq: 322
  stamp: 
    secs: 1568012145
    nsecs: 941964423
  frame_id: "imu_link"
vector: 
  x: -1.87061405182
  y: -1.02782523632
  z: 3.37060165405
---
header: 
  seq: 323
  stamp: 
    secs: 1568012145
    nsecs: 994035204
  frame_id: "imu_link"
vector: 
  x: -1.88286709785
  y: -1.01885914803
  z: 3.37347507477
---
header: 
  seq: 324
  stamp: 
    secs: 1568012146
    nsecs:  47872339
  frame_id: "imu_link"
vector: 
  x: -1.86043524742
  y: -1.04923272133
  z: 3.3840713501
---
header: 
  seq: 325
  stamp: 
    secs: 1568012146
    nsecs: 100261298
  frame_id: "imu_link"
vector: 
  x: -1.87595283985
  y: -1.04319262505
  z: 3.38828039169
---
header: 
  seq: 326
  stamp: 
    secs: 1568012146
    nsecs: 152032443
  frame_id: "imu_link"
vector: 
  x: -1.8782646656
  y: -1.05723047256
  z: 3.3810005188
---
header: 
  seq: 327
  stamp: 
    secs: 1568012146
    nsecs: 205018120
  frame_id: "imu_link"
vector: 
  x: -1.89193415642
  y: -1.07808482647
  z: 3.37281417847
---
header: 
  seq: 328
  stamp: 
    secs: 1568012146
    nsecs: 258122339
  frame_id: "imu_link"
vector: 
  x: -1.88845682144
  y: -1.0807107687
  z: 3.36556434631
---
header: 
  seq: 329
  stamp: 
    secs: 1568012146
    nsecs: 310440100
  frame_id: "imu_link"
vector: 
  x: -1.87661540508
  y: -1.07357490063
  z: 3.35362625122
---
header: 
  seq: 330
  stamp: 
    secs: 1568012146
    nsecs: 363550568
  frame_id: "imu_link"
vector: 
  x: -1.88729524612
  y: -1.03762769699
  z: 3.38424253464
---
header: 
  seq: 331
  stamp: 
    secs: 1568012146
    nsecs: 416474422
  frame_id: "imu_link"
vector: 
  x: -1.87286317348
  y: -1.04512071609
  z: 3.4059317112
---
header: 
  seq: 332
  stamp: 
    secs: 1568012146
    nsecs: 469480099
  frame_id: "imu_link"
vector: 
  x: -1.87714290619
  y: -1.04847788811
  z: 3.42392373085
---
header: 
  seq: 333
  stamp: 
    secs: 1568012146
    nsecs: 522608954
  frame_id: "imu_link"
vector: 
  x: -1.88225722313
  y: -1.04318571091
  z: 3.40502595901
---
header: 
  seq: 334
  stamp: 
    secs: 1568012146
    nsecs: 571874943
  frame_id: "imu_link"
vector: 
  x: -1.88045954704
  y: -1.01167106628
  z: 3.39827537537
---
header: 
  seq: 335
  stamp: 
    secs: 1568012146
    nsecs: 625020047
  frame_id: "imu_link"
vector: 
  x: -1.8837801218
  y: -1.01064538956
  z: 3.41187047958
---
header: 
  seq: 336
  stamp: 
    secs: 1568012146
    nsecs: 678194110
  frame_id: "imu_link"
vector: 
  x: -1.88854789734
  y: -1.0268239975
  z: 3.40876054764
---
header: 
  seq: 337
  stamp: 
    secs: 1568012146
    nsecs: 730295620
  frame_id: "imu_link"
vector: 
  x: -1.8861246109
  y: -1.05577969551
  z: 3.41066074371
---
header: 
  seq: 338
  stamp: 
    secs: 1568012146
    nsecs: 783296974
  frame_id: "imu_link"
vector: 
  x: -1.87920534611
  y: -1.07006967068
  z: 3.39938020706
---
header: 
  seq: 339
  stamp: 
    secs: 1568012146
    nsecs: 836612860
  frame_id: "imu_link"
vector: 
  x: -1.89349639416
  y: -1.06063067913
  z: 3.40343022346
---
header: 
  seq: 340
  stamp: 
    secs: 1568012146
    nsecs: 888411089
  frame_id: "imu_link"
vector: 
  x: -1.88569915295
  y: -1.03231608868
  z: 3.38738083839
---
header: 
  seq: 341
  stamp: 
    secs: 1568012146
    nsecs: 941326558
  frame_id: "imu_link"
vector: 
  x: -1.83591234684
  y: -1.03725862503
  z: 3.37020206451
---
header: 
  seq: 342
  stamp: 
    secs: 1568012146
    nsecs: 993154162
  frame_id: "imu_link"
vector: 
  x: -1.85904550552
  y: -1.05419003963
  z: 3.40136814117
---
header: 
  seq: 343
  stamp: 
    secs: 1568012147
    nsecs:  47645933
  frame_id: "imu_link"
vector: 
  x: -1.86428880692
  y: -1.05271196365
  z: 3.404276371
---
header: 
  seq: 344
  stamp: 
    secs: 1568012147
    nsecs:  96804526
  frame_id: "imu_link"
vector: 
  x: -1.8786110878
  y: -1.048797369
  z: 3.38462114334
---
header: 
  seq: 345
  stamp: 
    secs: 1568012147
    nsecs: 149878328
  frame_id: "imu_link"
vector: 
  x: -1.87249469757
  y: -1.01883125305
  z: 3.37942075729
---
header: 
  seq: 346
  stamp: 
    secs: 1568012147
    nsecs: 203791974
  frame_id: "imu_link"
vector: 
  x: -1.86643123627
  y: -1.03055250645
  z: 3.36837673187
---
header: 
  seq: 347
  stamp: 
    secs: 1568012147
    nsecs: 256123276
  frame_id: "imu_link"
vector: 
  x: -1.8707253933
  y: -1.06814455986
  z: 3.36367559433
---
header: 
  seq: 348
  stamp: 
    secs: 1568012147
    nsecs: 307007026
  frame_id: "imu_link"
vector: 
  x: -1.85488677025
  y: -1.04921317101
  z: 3.39868426323
---
header: 
  seq: 349
  stamp: 
    secs: 1568012147
    nsecs: 360300932
  frame_id: "imu_link"
vector: 
  x: -1.84528207779
  y: -1.05806136131
  z: 3.39428162575
---
header: 
  seq: 350
  stamp: 
    secs: 1568012147
    nsecs: 413273328
  frame_id: "imu_link"
vector: 
  x: -1.84454727173
  y: -1.06262135506
  z: 3.38301062584
---
header: 
  seq: 351
  stamp: 
    secs: 1568012147
    nsecs: 466321453
  frame_id: "imu_link"
vector: 
  x: -1.85102725029
  y: -1.03444194794
  z: 3.37694692612
---
header: 
  seq: 352
  stamp: 
    secs: 1568012147
    nsecs: 518024266
  frame_id: "imu_link"
vector: 
  x: -1.86068212986
  y: -1.03777086735
  z: 3.35847139359
---
header: 
  seq: 353
  stamp: 
    secs: 1568012147
    nsecs: 571220412
  frame_id: "imu_link"
vector: 
  x: -1.85791683197
  y: -1.03074753284
  z: 3.35060667992
---
header: 
  seq: 354
  stamp: 
    secs: 1568012147
    nsecs: 624023224
  frame_id: "imu_link"
vector: 
  x: -1.87756109238
  y: -1.01418197155
  z: 3.39254760742
---
header: 
  seq: 355
  stamp: 
    secs: 1568012147
    nsecs: 677223693
  frame_id: "imu_link"
vector: 
  x: -1.87207388878
  y: -1.01227867603
  z: 3.38281726837
---
header: 
  seq: 356
  stamp: 
    secs: 1568012147
    nsecs: 730296766
  frame_id: "imu_link"
vector: 
  x: -1.89733588696
  y: -1.02836227417
  z: 3.39637970924
---
header: 
  seq: 357
  stamp: 
    secs: 1568012147
    nsecs: 783350307
  frame_id: "imu_link"
vector: 
  x: -1.89773011208
  y: -1.03503775597
  z: 3.39328765869
---
header: 
  seq: 358
  stamp: 
    secs: 1568012147
    nsecs: 837411245
  frame_id: "imu_link"
vector: 
  x: -1.89534592628
  y: -1.01484441757
  z: 3.41000509262
---
