
header: 
  seq: 0
  stamp: 
    secs: 1568011754
    nsecs: 161290041
  frame_id: "imu_link"
orientation: 
  x: 0.002014158
  y: 0.9610554897
  z: -0.274596874
  w: -0.0300780928
orientation_covariance: [0.002741552146694444, 0.0, 0.0, 0.0, 0.002741552146694444, 0.0, 0.0, 0.0, 0.007615422629706791]
angular_velocity: 
  x: -0.00102594171821
  y: 0.000208927702042
  z: 0.000925040357168
angular_velocity_covariance: [1.0966208586777776e-06, 0.0, 0.0, 0.0, 1.0966208586777776e-06, 0.0, 0.0, 0.0, 1.0966208586777776e-06]
linear_acceleration: 
  x: 0.201009150285
  y: 0.56999487676
  z: 10.0852752182
linear_acceleration_covariance: [0.0015387262937311438, 0.0, 0.0, 0.0, 0.0015387262937311438, 0.0, 0.0, 0.0, 0.0015387262937311438]
---
header: 
  seq: 1
  stamp: 
    secs: 1568011754
    nsecs: 214359260
  frame_id: "imu_link"
orientation: 
  x: 0.002014158
  y: 0.9611897669
  z: -0.2741940424
  w: -0.0300780928
orientation_covariance: [0.002741552146694444, 0.0, 0.0, 0.0, 0.002741552146694444, 0.0, 0.0, 0.0, 0.007615422629706791]
angular_velocity: 
  x: -0.000285962871247
  y: 0.000842096608132
  z: 0.000989990408884
angular_velocity_covariance: [1.0966208586777776e-06, 0.0, 0.0, 0.0, 1.0966208586777776e-06, 0.0, 0.0, 0.0, 1.0966208586777776e-06]
linear_acceleration: 
  x: 0.2004754818
  y: 0.576493298869
  z: 10.0892710098
linear_acceleration_covariance: [0.0015387262937311438, 0.0, 0.0, 0.0, 0.0015387262937311438, 0.0, 0.0, 0.0, 0.0015387262937311438]
---
header: 
  seq: 2
  stamp: 
    secs: 1568011754
    nsecs: 267525718
  frame_id: "imu_link"
orientation: 
  x: 0.002014158
  y: 0.9612904748
  z: -0.2737912108
  w: -0.0300780928
orientation_covariance: [0.002741552146694444, 0.0, 0.0, 0.0, 0.002741552146694444, 0.0, 0.0, 0.0, 0.007615422629706791]
angular_velocity: 
  x: -0.000172338446652
  y: 0.00152912389986
  z: -0.00279518782127
angular_velocity_covariance: [1.0966208586777776e-06, 0.0, 0.0, 0.0, 1.0966208586777776e-06, 0.0, 0.0, 0.0, 1.0966208586777776e-06]
linear_acceleration: 
  x: 0.19753352833
  y: 0.572011915671
  z: 10.071037434
linear_acceleration_covariance: [0.0015387262937311438, 0.0, 0.0, 0.0, 0.0015387262937311438, 0.0, 0.0, 0.0, 0.0015387262937311438]
---
header: 
  seq: 3
  stamp: 
    secs: 1568011754
    nsecs: 320652593
  frame_id: "imu_link"
orientation: 
  x: 0.002014158
  y: 0.9613911827
  z: -0.2734219485
  w: -0.0300780928
orientation_covariance: [0.002741552146694444, 0.0, 0.0, 0.0, 0.002741552146694444, 0.0, 0.0, 0.0, 0.007615422629706791]
angular_velocity: 
  x: 0.000614576176326
  y: -0.000351034182618
  z: -0.000616795910692
angular_velocity_covariance: [1.0966208586777776e-06, 0.0, 0.0, 0.0, 1.0966208586777776e-06, 0.0, 0.0, 0.0, 1.0966208586777776e-06]
linear_acceleration: 
  x: 0.199042489855
  y: 0.570047995187
  z: 10.075763878
linear_acceleration_covariance: [0.0015387262937311438, 0.0, 0.0, 0.0, 0.0015387262937311438, 0.0, 0.0, 0.0, 0.0015387262937311438]
---
header: 
  seq: 4
  stamp: 
    secs: 1568011754
    nsecs: 372400405
  frame_id: "imu_link"
orientation: 
  x: 0.002014158
  y: 0.9614918906
  z: -0.2730526862
  w: -0.0300780928
orientation_covariance: [0.002741552146694444, 0.0, 0.0, 0.0, 0.002741552146694444, 0.0, 0.0, 0.0, 0.007615422629706791]
angular_velocity: 
  x: 0.000382305259406
  y: 0.000298368969218
  z: 0.000367091756623
angular_velocity_covariance: [1.0966208586777776e-06, 0.0, 0.0, 0.0, 1.0966208586777776e-06, 0.0, 0.0, 0.0, 1.0966208586777776e-06]
linear_acceleration: 
  x: 0.201348446976
  y: 0.564841001128
  z: 10.0809053326
linear_acceleration_covariance: [0.0015387262937311438, 0.0, 0.0, 0.0, 0.0015387262937311438, 0.0, 0.0, 0.0, 0.0015387262937311438]
---
header: 
  seq: 5
  stamp: 
    secs: 1568011754
    nsecs: 425426134
  frame_id: "imu_link"
orientation: 
  x: 0.0020477273
  y: 0.9616261678
  z: -0.2726498546
  w: -0.0300445235
orientation_covariance: [0.002741552146694444, 0.0, 0.0, 0.0, 0.002741552146694444, 0.0, 0.0, 0.0, 0.007615422629706791]
angular_velocity: 
  x: -0.00180063850452
  y: -0.00218120890563
  z: 0.000309509513012
angular_velocity_covariance: [1.0966208586777776e-06, 0.0, 0.0, 0.0, 1.0966208586777776e-06, 0.0, 0.0, 0.0, 1.0966208586777776e-06]
linear_acceleration: 
  x: 0.203060274129
  y: 0.56264217591
  z: 10.08836617
linear_acceleration_covariance: [0.0015387262937311438, 0.0, 0.0, 0.0, 0.0015387262937311438, 0.0, 0.0, 0.0, 0.0015387262937311438]
---
header: 
  seq: 6
  stamp: 
    secs: 1568011754
    nsecs: 478365509
  frame_id: "imu_link"
orientation: 
  x: 0.0020812966
  y: 0.9617268757
  z: -0.272247023
  w: -0.0300445235
orientation_covariance: [0.002741552146694444, 0.0, 0.0, 0.0, 0.002741552146694444, 0.0, 0.0, 0.0, 0.007615422629706791]
angular_velocity: 
  x: -0.00138227501273
  y: -0.0022111324073
  z: 0.000822493375833
angular_velocity_covariance: [1.0966208586777776e-06, 0.0, 0.0, 0.0, 1.0966208586777776e-06, 0.0, 0.0, 0.0, 1.0966208586777776e-06]
linear_acceleration: 
  x: 0.204824105463
  y: 0.570007188252
  z: 10.0876670818
linear_acceleration_covariance: [0.0015387262937311438, 0.0, 0.0, 0.0, 0.0015387262937311438, 0.0, 0.0, 0.0, 0.0015387262937311438]
---
header: 
  seq: 7
  stamp: 
    secs: 1568011754
    nsecs: 531528843
  frame_id: "imu_link"
orientation: 
  x: 0.0021148659
  y: 0.9618275836
  z: -0.2718777607
  w: -0.0300445235
orientation_covariance: [0.002741552146694444, 0.0, 0.0, 0.0, 0.002741552146694444, 0.0, 0.0, 0.0, 0.007615422629706791]
angular_velocity: 
  x: -0.000656985131147
  y: 0.0011768540066
  z: 0.00083053890512
angular_velocity_covariance: [1.0966208586777776e-06, 0.0, 0.0, 0.0, 1.0966208586777776e-06, 0.0, 0.0, 0.0, 1.0966208586777776e-06]
linear_acceleration: 
  x: 0.205685343669
  y: 0.579913774837
  z: 10.0789647199
linear_acceleration_covariance: [0.0015387262937311438, 0.0, 0.0, 0.0, 0.0015387262937311438, 0.0, 0.0, 0.0, 0.0015387262937311438]
---
header: 
  seq: 8
  stamp: 
    secs: 1568011754
    nsecs: 584893999
  frame_id: "imu_link"
orientation: 
  x: 0.0021148659
  y: 0.9619618608
  z: -0.2715084984
  w: -0.0300445235
orientation_covariance: [0.002741552146694444, 0.0, 0.0, 0.0, 0.002741552146694444, 0.0, 0.0, 0.0, 0.007615422629706791]
angular_velocity: 
  x: 1.03118514983e-05
  y: -0.00170992796086
  z: -0.00120413944435
angular_velocity_covariance: [1.0966208586777776e-06, 0.0, 0.0, 0.0, 1.0966208586777776e-06, 0.0, 0.0, 0.0, 1.0966208586777776e-06]
linear_acceleration: 
  x: 0.201610586777
  y: 0.575200299916
  z: 10.0823502707
linear_acceleration_covariance: [0.0015387262937311438, 0.0, 0.0, 0.0, 0.0015387262937311438, 0.0, 0.0, 0.0, 0.0015387262937311438]
---
header: 
  seq: 9
  stamp: 
    secs: 1568011754
    nsecs: 636683634
  frame_id: "imu_link"
orientation: 
  x: 0.0021148659
  y: 0.9620625687
  z: -0.2711056668
  w: -0.0300445235
orientation_covariance: [0.002741552146694444, 0.0, 0.0, 0.0, 0.002741552146694444, 0.0, 0.0, 0.0, 0.007615422629706791]
angular_velocity: 
  x: 0.00184490939645
  y: 0.000743935065088
  z: 1.73622612396e-05
angular_velocity_covariance: [1.0966208586777776e-06, 0.0, 0.0, 0.0, 1.0966208586777776e-06, 0.0, 0.0, 0.0, 1.0966208586777776e-06]
linear_acceleration: 
  x: 0.207053490217
  y: 0.572424368929
  z: 10.0856925668
linear_acceleration_covariance: [0.0015387262937311438, 0.0, 0.0, 0.0, 0.0015387262937311438, 0.0, 0.0, 0.0, 0.0015387262937311438]
---
header: 
  seq: 10
  stamp: 
    secs: 1568011754
    nsecs: 689640561
  frame_id: "imu_link"
orientation: 
  x: 0.0021484352
  y: 0.9621632766
  z: -0.2707028352
  w: -0.0300445235
orientation_covariance: [0.002741552146694444, 0.0, 0.0, 0.0, 0.002741552146694444, 0.0, 0.0, 0.0, 0.007615422629706791]
angular_velocity: 
  x: 0.0009573809246
  y: -0.000590197264212
  z: 0.000266688015293
angular_velocity_covariance: [1.0966208586777776e-06, 0.0, 0.0, 0.0, 1.0966208586777776e-06, 0.0, 0.0, 0.0, 1.0966208586777776e-06]
linear_acceleration: 
  x: 0.206690155064
  y: 0.571071566081
  z: 10.0799665904
linear_acceleration_covariance: [0.0015387262937311438, 0.0, 0.0, 0.0, 0.0015387262937311438, 0.0, 0.0, 0.0, 0.0015387262937311438]
---
header: 
  seq: 11
  stamp: 
    secs: 1568011754
    nsecs: 742861916
  frame_id: "imu_link"
orientation: 
  x: 0.0021484352
  y: 0.9622975538
  z: -0.2703000036
  w: -0.0300445235
orientation_covariance: [0.002741552146694444, 0.0, 0.0, 0.0, 0.002741552146694444, 0.0, 0.0, 0.0, 0.007615422629706791]
angular_velocity: 
  x: -0.00046531594507
  y: -0.000908266993601
  z: -0.00113243149133
angular_velocity_covariance: [1.0966208586777776e-06, 0.0, 0.0, 0.0, 1.0966208586777776e-06, 0.0, 0.0, 0.0, 1.0966208586777776e-06]
linear_acceleration: 
  x: 0.204505595832
  y: 0.571561760751
  z: 10.0721293209
linear_acceleration_covariance: [0.0015387262937311438, 0.0, 0.0, 0.0, 0.0015387262937311438, 0.0, 0.0, 0.0, 0.0015387262937311438]
---
header: 
  seq: 12
  stamp: 
    secs: 1568011754
    nsecs: 795997020
  frame_id: "imu_link"
orientation: 
  x: 0.0021484352
  y: 0.9623982617
  z: -0.2699307413
  w: -0.0300445235
orientation_covariance: [0.002741552146694444, 0.0, 0.0, 0.0, 0.002741552146694444, 0.0, 0.0, 0.0, 0.007615422629706791]
angular_velocity: 
  x: 0.000420583323682
  y: 0.00200597719713
  z: 6.51098348796e-05
angular_velocity_covariance: [1.0966208586777776e-06, 0.0, 0.0, 0.0, 1.0966208586777776e-06, 0.0, 0.0, 0.0, 1.0966208586777776e-06]
linear_acceleration: 
  x: 0.199586405739
  y: 0.58157962569
  z: 10.0804599269
linear_acceleration_covariance: [0.0015387262937311438, 0.0, 0.0, 0.0, 0.0015387262937311438, 0.0, 0.0, 0.0, 0.0015387262937311438]
---
header: 
  seq: 13
  stamp: 
    secs: 1568011754
    nsecs: 849669311
  frame_id: "imu_link"
orientation: 
  x: 0.0021820045
  y: 0.9624989696
  z: -0.2695279097
  w: -0.0300445235
orientation_covariance: [0.002741552146694444, 0.0, 0.0, 0.0, 0.002741552146694444, 0.0, 0.0, 0.0, 0.007615422629706791]
angular_velocity: 
  x: -0.00033466552721
  y: -0.000739715554217
  z: 0.00055555100785
angular_velocity_covariance: [1.0966208586777776e-06, 0.0, 0.0, 0.0, 1.0966208586777776e-06, 0.0, 0.0, 0.0, 1.0966208586777776e-06]
linear_acceleration: 
  x: 0.202524705947
  y: 0.575274972587
  z: 10.0759123466
linear_acceleration_covariance: [0.0015387262937311438, 0.0, 0.0, 0.0, 0.0015387262937311438, 0.0, 0.0, 0.0, 0.0015387262937311438]
---
header: 
  seq: 14
  stamp: 
    secs: 1568011754
    nsecs: 900923791
  frame_id: "imu_link"
orientation: 
  x: 0.0022155738
  y: 0.9625996775
  z: -0.2691250781
  w: -0.0300445235
orientation_covariance: [0.002741552146694444, 0.0, 0.0, 0.0, 0.002741552146694444, 0.0, 0.0, 0.0, 0.007615422629706791]
angular_velocity: 
  x: 0.00122818357579
  y: -0.00043729524469
  z: -0.000485882752745
angular_velocity_covariance: [1.0966208586777776e-06, 0.0, 0.0, 0.0, 1.0966208586777776e-06, 0.0, 0.0, 0.0, 1.0966208586777776e-06]
linear_acceleration: 
  x: 0.202621827912
  y: 0.577795248313
  z: 10.086390486
linear_acceleration_covariance: [0.0015387262937311438, 0.0, 0.0, 0.0, 0.0015387262937311438, 0.0, 0.0, 0.0, 0.0015387262937311438]
---
header: 
  seq: 15
  stamp: 
    secs: 1568011754
    nsecs: 954100093
  frame_id: "imu_link"
orientation: 
  x: 0.0022155738
  y: 0.9627003854
  z: -0.2687558158
  w: -0.0300109542
orientation_covariance: [0.002741552146694444, 0.0, 0.0, 0.0, 0.002741552146694444, 0.0, 0.0, 0.0, 0.007615422629706791]
angular_velocity: 
  x: -0.000350884932464
  y: 0.00162527337789
  z: 0.000782458184397
angular_velocity_covariance: [1.0966208586777776e-06, 0.0, 0.0, 0.0, 1.0966208586777776e-06, 0.0, 0.0, 0.0, 1.0966208586777776e-06]
linear_acceleration: 
  x: 0.194680550052
  y: 0.573006150873
  z: 10.0817049585
linear_acceleration_covariance: [0.0015387262937311438, 0.0, 0.0, 0.0, 0.0015387262937311438, 0.0, 0.0, 0.0, 0.0015387262937311438]
---
header: 
  seq: 16
  stamp: 
    secs: 1568011755
    nsecs:   7323790
  frame_id: "imu_link"
orientation: 
  x: 0.0021820045
  y: 0.9628010933
  z: -0.2683865535
  w: -0.0300109542
orientation_covariance: [0.002741552146694444, 0.0, 0.0, 0.0, 0.002741552146694444, 0.0, 0.0, 0.0, 0.007615422629706791]
angular_velocity: 
  x: 0.00118416937722
  y: 0.00113907222915
  z: -0.00205053677156
angular_velocity_covariance: [1.0966208586777776e-06, 0.0, 0.0, 0.0, 1.0966208586777776e-06, 0.0, 0.0, 0.0, 1.0966208586777776e-06]
linear_acceleration: 
  x: 0.200513731451
  y: 0.577186395699
  z: 10.0830727397
linear_acceleration_covariance: [0.0015387262937311438, 0.0, 0.0, 0.0, 0.0015387262937311438, 0.0, 0.0, 0.0, 0.0015387262937311438]
---
header: 
  seq: 17
  stamp: 
    secs: 1568011755
    nsecs:  58976811
  frame_id: "imu_link"
orientation: 
  x: 0.0021820045
  y: 0.9629353705
  z: -0.2679837219
  w: -0.0300445235
orientation_covariance: [0.002741552146694444, 0.0, 0.0, 0.0, 0.002741552146694444, 0.0, 0.0, 0.0, 0.007615422629706791]
angular_velocity: 
  x: -0.00186198197553
  y: -0.00096091390427
  z: -0.000629895399323
angular_velocity_covariance: [1.0966208586777776e-06, 0.0, 0.0, 0.0, 1.0966208586777776e-06, 0.0, 0.0, 0.0, 1.0966208586777776e-06]
linear_acceleration: 
  x: 0.203040838776
  y: 0.578714591647
  z: 10.0830668945
linear_acceleration_covariance: [0.0015387262937311438, 0.0, 0.0, 0.0, 0.0015387262937311438, 0.0, 0.0, 0.0, 0.0015387262937311438]
---
header: 
  seq: 18
  stamp: 
    secs: 1568011755
    nsecs: 112594572
  frame_id: "imu_link"
orientation: 
  x: 0.0022155738
  y: 0.9630360784
  z: -0.2676144596
  w: -0.0300445235
orientation_covariance: [0.002741552146694444, 0.0, 0.0, 0.0, 0.002741552146694444, 0.0, 0.0, 0.0, 0.007615422629706791]
angular_velocity: 
  x: -0.000940225121738
  y: -0.000115989239798
  z: 0.00155540805146
angular_velocity_covariance: [1.0966208586777776e-06, 0.0, 0.0, 0.0, 1.0966208586777776e-06, 0.0, 0.0, 0.0, 1.0966208586777776e-06]
linear_acceleration: 
  x: 0.209025612274
  y: 0.573945331419
  z: 10.0701407774
linear_acceleration_covariance: [0.0015387262937311438, 0.0, 0.0, 0.0, 0.0015387262937311438, 0.0, 0.0, 0.0, 0.0015387262937311438]
---
header: 
  seq: 19
  stamp: 
    secs: 1568011755
    nsecs: 165499936
  frame_id: "imu_link"
orientation: 
  x: 0.0022491431
  y: 0.9631367863
  z: -0.2672451973
  w: -0.0300445235
orientation_covariance: [0.002741552146694444, 0.0, 0.0, 0.0, 0.002741552146694444, 0.0, 0.0, 0.0, 0.007615422629706791]
angular_velocity: 
  x: 0.00161359890151
  y: -0.000539159238337
  z: 0.000346206585465
angular_velocity_covariance: [1.0966208586777776e-06, 0.0, 0.0, 0.0, 1.0966208586777776e-06, 0.0, 0.0, 0.0, 1.0966208586777776e-06]
linear_acceleration: 
  x: 0.20796066819
  y: 0.565210820821
  z: 10.0788840559
linear_acceleration_covariance: [0.0015387262937311438, 0.0, 0.0, 0.0, 0.0015387262937311438, 0.0, 0.0, 0.0, 0.0015387262937311438]
---
header: 
  seq: 20
  stamp: 
    secs: 1568011755
    nsecs: 221501030
  frame_id: "imu_link"
orientation: 
  x: 0.0022491431
  y: 0.9632374942
  z: -0.266875935
  w: -0.0300109542
orientation_covariance: [0.002741552146694444, 0.0, 0.0, 0.0, 0.002741552146694444, 0.0, 0.0, 0.0, 0.007615422629706791]
angular_velocity: 
  x: 0.000959537720979
  y: -0.00011034891038
  z: -2.47997123726e-06
angular_velocity_covariance: [1.0966208586777776e-06, 0.0, 0.0, 0.0, 1.0966208586777776e-06, 0.0, 0.0, 0.0, 1.0966208586777776e-06]
linear_acceleration: 
  x: 0.201722230458
  y: 0.56542610754
  z: 10.0768078341
linear_acceleration_covariance: [0.0015387262937311438, 0.0, 0.0, 0.0, 0.0015387262937311438, 0.0, 0.0, 0.0, 0.0015387262937311438]
---
header: 
  seq: 21
  stamp: 
    secs: 1568011755
    nsecs: 271245926
  frame_id: "imu_link"
orientation: 
  x: 0.0022827124
  y: 0.9633382021
  z: -0.2664731034
  w: -0.0300445235
orientation_covariance: [0.002741552146694444, 0.0, 0.0, 0.0, 0.002741552146694444, 0.0, 0.0, 0.0, 0.007615422629706791]
angular_velocity: 
  x: -0.00111118692997
  y: -0.00066725176019
  z: -0.00114409049329
angular_velocity_covariance: [1.0966208586777776e-06, 0.0, 0.0, 0.0, 1.0966208586777776e-06, 0.0, 0.0, 0.0, 1.0966208586777776e-06]
linear_acceleration: 
  x: 0.203723469011
  y: 0.568154546123
  z: 10.0682095171
linear_acceleration_covariance: [0.0015387262937311438, 0.0, 0.0, 0.0, 0.0015387262937311438, 0.0, 0.0, 0.0, 0.0015387262937311438]
---
header: 
  seq: 22
  stamp: 
    secs: 1568011755
    nsecs: 323594520
  frame_id: "imu_link"
orientation: 
  x: 0.0023162817
  y: 0.9634724793
  z: -0.2660702718
  w: -0.0300109542
orientation_covariance: [0.002741552146694444, 0.0, 0.0, 0.0, 0.002741552146694444, 0.0, 0.0, 0.0, 0.007615422629706791]
angular_velocity: 
  x: -0.000600338732486
  y: -0.000706581044889
  z: 0.000228417525681
angular_velocity_covariance: [1.0966208586777776e-06, 0.0, 0.0, 0.0, 1.0966208586777776e-06, 0.0, 0.0, 0.0, 1.0966208586777776e-06]
linear_acceleration: 
  x: 0.214927584593
  y: 0.563767124819
  z: 10.0811718745
linear_acceleration_covariance: [0.0015387262937311438, 0.0, 0.0, 0.0, 0.0015387262937311438, 0.0, 0.0, 0.0, 0.0015387262937311438]
---
header: 
  seq: 23
  stamp: 
    secs: 1568011755
    nsecs: 376497332
  frame_id: "imu_link"
orientation: 
  x: 0.002349851
  y: 0.9635731872
  z: -0.2657010095
  w: -0.0300109542
orientation_covariance: [0.002741552146694444, 0.0, 0.0, 0.0, 0.002741552146694444, 0.0, 0.0, 0.0, 0.007615422629706791]
angular_velocity: 
  x: 0.00191339554873
  y: -0.00120166353678
  z: 0.000993577939144
angular_velocity_covariance: [1.0966208586777776e-06, 0.0, 0.0, 0.0, 1.0966208586777776e-06, 0.0, 0.0, 0.0, 1.0966208586777776e-06]
linear_acceleration: 
  x: 0.210208173122
  y: 0.565256194333
  z: 10.0861929176
linear_acceleration_covariance: [0.0015387262937311438, 0.0, 0.0, 0.0, 0.0015387262937311438, 0.0, 0.0, 0.0, 0.0015387262937311438]
---
header: 
  seq: 24
  stamp: 
    secs: 1568011755
    nsecs: 429662436
  frame_id: "imu_link"
orientation: 
  x: 0.0023834203
  y: 0.9636738951
  z: -0.2652981779
  w: -0.0300109542
orientation_covariance: [0.002741552146694444, 0.0, 0.0, 0.0, 0.002741552146694444, 0.0, 0.0, 0.0, 0.007615422629706791]
angular_velocity: 
  x: 0.00345037382325
  y: -5.36704087943e-05
  z: 0.00157205735958
angular_velocity_covariance: [1.0966208586777776e-06, 0.0, 0.0, 0.0, 1.0966208586777776e-06, 0.0, 0.0, 0.0, 1.0966208586777776e-06]
linear_acceleration: 
  x: 0.199192529317
  y: 0.569761798657
  z: 10.0738793794
linear_acceleration_covariance: [0.0015387262937311438, 0.0, 0.0, 0.0, 0.0015387262937311438, 0.0, 0.0, 0.0, 0.0015387262937311438]
---
header: 
  seq: 25
  stamp: 
    secs: 1568011755
    nsecs: 482494519
  frame_id: "imu_link"
orientation: 
  x: 0.0023834203
  y: 0.963774603
  z: -0.2649289156
  w: -0.0300445235
orientation_covariance: [0.002741552146694444, 0.0, 0.0, 0.0, 0.002741552146694444, 0.0, 0.0, 0.0, 0.007615422629706791]
angular_velocity: 
  x: 0.00020388172373
  y: 0.000137030414914
  z: 0.000653402412262
angular_velocity_covariance: [1.0966208586777776e-06, 0.0, 0.0, 0.0, 1.0966208586777776e-06, 0.0, 0.0, 0.0, 1.0966208586777776e-06]
linear_acceleration: 
  x: 0.196649840831
  y: 0.573014845636
  z: 10.0808433732
linear_acceleration_covariance: [0.0015387262937311438, 0.0, 0.0, 0.0, 0.0015387262937311438, 0.0, 0.0, 0.0, 0.0015387262937311438]
---
header: 
  seq: 26
  stamp: 
    secs: 1568011755
    nsecs: 535619467
  frame_id: "imu_link"
orientation: 
  x: 0.0024169896
  y: 0.9638753109
  z: -0.264526084
  w: -0.0300445235
orientation_covariance: [0.002741552146694444, 0.0, 0.0, 0.0, 0.002741552146694444, 0.0, 0.0, 0.0, 0.007615422629706791]
angular_velocity: 
  x: 0.00119668883508
  y: 0.000393552466183
  z: -0.000451326222025
angular_velocity_covariance: [1.0966208586777776e-06, 0.0, 0.0, 0.0, 1.0966208586777776e-06, 0.0, 0.0, 0.0, 1.0966208586777776e-06]
linear_acceleration: 
  x: 0.202399618263
  y: 0.575538263166
  z: 10.0737449394
linear_acceleration_covariance: [0.0015387262937311438, 0.0, 0.0, 0.0, 0.0015387262937311438, 0.0, 0.0, 0.0, 0.0015387262937311438]
---
header: 
  seq: 27
  stamp: 
    secs: 1568011755
    nsecs: 587674780
  frame_id: "imu_link"
orientation: 
  x: 0.0024169896
  y: 0.9639760188
  z: -0.2641568217
  w: -0.0300445235
orientation_covariance: [0.002741552146694444, 0.0, 0.0, 0.0, 0.002741552146694444, 0.0, 0.0, 0.0, 0.007615422629706791]
angular_velocity: 
  x: 0.00163026732508
  y: -0.00135048781844
  z: -0.000539392752572
angular_velocity_covariance: [1.0966208586777776e-06, 0.0, 0.0, 0.0, 1.0966208586777776e-06, 0.0, 0.0, 0.0, 1.0966208586777776e-06]
linear_acceleration: 
  x: 0.20560051493
  y: 0.568741881024
  z: 10.0818218629
linear_acceleration_covariance: [0.0015387262937311438, 0.0, 0.0, 0.0, 0.0015387262937311438, 0.0, 0.0, 0.0, 0.0015387262937311438]
---
header: 
  seq: 28
  stamp: 
    secs: 1568011755
    nsecs: 640876655
  frame_id: "imu_link"
orientation: 
  x: 0.0024505589
  y: 0.9640767267
  z: -0.2637539901
  w: -0.0300780928
orientation_covariance: [0.002741552146694444, 0.0, 0.0, 0.0, 0.002741552146694444, 0.0, 0.0, 0.0, 0.007615422629706791]
angular_velocity: 
  x: -0.000460571084063
  y: -0.000812244691918
  z: -0.00109543890943
angular_velocity_covariance: [1.0966208586777776e-06, 0.0, 0.0, 0.0, 1.0966208586777776e-06, 0.0, 0.0, 0.0, 1.0966208586777776e-06]
linear_acceleration: 
  x: 0.201580776161
  y: 0.571492494907
  z: 10.0846041871
linear_acceleration_covariance: [0.0015387262937311438, 0.0, 0.0, 0.0, 0.0015387262937311438, 0.0, 0.0, 0.0, 0.0015387262937311438]
---
header: 
  seq: 29
  stamp: 
    secs: 1568011755
    nsecs: 694020301
  frame_id: "imu_link"
orientation: 
  x: 0.0024505589
  y: 0.9642110039
  z: -0.2633847278
  w: -0.0300445235
orientation_covariance: [0.002741552146694444, 0.0, 0.0, 0.0, 0.002741552146694444, 0.0, 0.0, 0.0, 0.007615422629706791]
angular_velocity: 
  x: -0.00220297465594
  y: -0.000986707620714
  z: 0.00212549838443
angular_velocity_covariance: [1.0966208586777776e-06, 0.0, 0.0, 0.0, 1.0966208586777776e-06, 0.0, 0.0, 0.0, 1.0966208586777776e-06]
linear_acceleration: 
  x: 0.206502030347
  y: 0.57442200902
  z: 10.0782948578
linear_acceleration_covariance: [0.0015387262937311438, 0.0, 0.0, 0.0, 0.0015387262937311438, 0.0, 0.0, 0.0, 0.0015387262937311438]
---
header: 
  seq: 30
  stamp: 
    secs: 1568011755
    nsecs: 747082384
  frame_id: "imu_link"
orientation: 
  x: 0.0024505589
  y: 0.9643117118
  z: -0.2629818962
  w: -0.0300445235
orientation_covariance: [0.002741552146694444, 0.0, 0.0, 0.0, 0.002741552146694444, 0.0, 0.0, 0.0, 0.007615422629706791]
angular_velocity: 
  x: -0.00162486909235
  y: -0.00186022712402
  z: 0.000952378264917
angular_velocity_covariance: [1.0966208586777776e-06, 0.0, 0.0, 0.0, 1.0966208586777776e-06, 0.0, 0.0, 0.0, 1.0966208586777776e-06]
linear_acceleration: 
  x: 0.203207317916
  y: 0.572416550949
  z: 10.0853722488
linear_acceleration_covariance: [0.0015387262937311438, 0.0, 0.0, 0.0, 0.0015387262937311438, 0.0, 0.0, 0.0, 0.0015387262937311438]
---
header: 
  seq: 31
  stamp: 
    secs: 1568011755
    nsecs: 800108686
  frame_id: "imu_link"
orientation: 
  x: 0.0024841282
  y: 0.9644124197
  z: -0.2625790646
  w: -0.0300445235
orientation_covariance: [0.002741552146694444, 0.0, 0.0, 0.0, 0.002741552146694444, 0.0, 0.0, 0.0, 0.007615422629706791]
angular_velocity: 
  x: -0.000597056594502
  y: -0.00119018268573
  z: -0.00140583722645
angular_velocity_covariance: [1.0966208586777776e-06, 0.0, 0.0, 0.0, 1.0966208586777776e-06, 0.0, 0.0, 0.0, 1.0966208586777776e-06]
linear_acceleration: 
  x: 0.210186673676
  y: 0.57257773286
  z: 10.0824484703
linear_acceleration_covariance: [0.0015387262937311438, 0.0, 0.0, 0.0, 0.0015387262937311438, 0.0, 0.0, 0.0, 0.0015387262937311438]
---
header: 
  seq: 32
  stamp: 
    secs: 1568011755
    nsecs: 853383530
  frame_id: "imu_link"
orientation: 
  x: 0.0024841282
  y: 0.9645131276
  z: -0.262176233
  w: -0.0300445235
orientation_covariance: [0.002741552146694444, 0.0, 0.0, 0.0, 0.002741552146694444, 0.0, 0.0, 0.0, 0.007615422629706791]
angular_velocity: 
  x: 4.93741150428e-05
  y: 0.00100875932275
  z: -0.00064171772796
angular_velocity_covariance: [1.0966208586777776e-06, 0.0, 0.0, 0.0, 1.0966208586777776e-06, 0.0, 0.0, 0.0, 1.0966208586777776e-06]
linear_acceleration: 
  x: 0.204577784286
  y: 0.577730658644
  z: 10.0753137962
linear_acceleration_covariance: [0.0015387262937311438, 0.0, 0.0, 0.0, 0.0015387262937311438, 0.0, 0.0, 0.0, 0.0015387262937311438]
---
header: 
  seq: 33
  stamp: 
    secs: 1568011755
    nsecs: 905007957
  frame_id: "imu_link"
orientation: 
  x: 0.0024841282
  y: 0.9646474048
  z: -0.2617734014
  w: -0.0300445235
orientation_covariance: [0.002741552146694444, 0.0, 0.0, 0.0, 0.002741552146694444, 0.0, 0.0, 0.0, 0.007615422629706791]
angular_velocity: 
  x: 0.00113520804483
  y: -0.000903774274652
  z: -0.00315093308774
angular_velocity_covariance: [1.0966208586777776e-06, 0.0, 0.0, 0.0, 1.0966208586777776e-06, 0.0, 0.0, 0.0, 1.0966208586777776e-06]
linear_acceleration: 
  x: 0.205586139344
  y: 0.572443365891
  z: 10.0867575657
linear_acceleration_covariance: [0.0015387262937311438, 0.0, 0.0, 0.0, 0.0015387262937311438, 0.0, 0.0, 0.0, 0.0015387262937311438]
---
header: 
  seq: 34
  stamp: 
    secs: 1568011755
    nsecs: 958190717
  frame_id: "imu_link"
orientation: 
  x: 0.0025176975
  y: 0.9647481127
  z: -0.2613705698
  w: -0.0300445235
orientation_covariance: [0.002741552146694444, 0.0, 0.0, 0.0, 0.002741552146694444, 0.0, 0.0, 0.0, 0.007615422629706791]
angular_velocity: 
  x: -3.66369871569e-05
  y: -0.00210250430308
  z: -0.00167653298709
angular_velocity_covariance: [1.0966208586777776e-06, 0.0, 0.0, 0.0, 1.0966208586777776e-06, 0.0, 0.0, 0.0, 1.0966208586777776e-06]
linear_acceleration: 
  x: 0.203847953908
  y: 0.570184152254
  z: 10.0795188466
linear_acceleration_covariance: [0.0015387262937311438, 0.0, 0.0, 0.0, 0.0015387262937311438, 0.0, 0.0, 0.0, 0.0015387262937311438]
---
header: 
  seq: 35
  stamp: 
    secs: 1568011756
    nsecs:  11234051
  frame_id: "imu_link"
orientation: 
  x: 0.0025512668
  y: 0.9648488206
  z: -0.2609677382
  w: -0.0300445235
orientation_covariance: [0.002741552146694444, 0.0, 0.0, 0.0, 0.002741552146694444, 0.0, 0.0, 0.0, 0.007615422629706791]
angular_velocity: 
  x: -0.000371233797854
  y: -0.00112337895426
  z: -0.00198814585121
angular_velocity_covariance: [1.0966208586777776e-06, 0.0, 0.0, 0.0, 1.0966208586777776e-06, 0.0, 0.0, 0.0, 1.0966208586777776e-06]
linear_acceleration: 
  x: 0.206955308806
  y: 0.569541397372
  z: 10.0814208809
linear_acceleration_covariance: [0.0015387262937311438, 0.0, 0.0, 0.0, 0.0015387262937311438, 0.0, 0.0, 0.0, 0.0015387262937311438]
---
header: 
  seq: 36
  stamp: 
    secs: 1568011756
    nsecs:  62984467
  frame_id: "imu_link"
orientation: 
  x: 0.0025512668
  y: 0.9649495285
  z: -0.2605649066
  w: -0.0300445235
orientation_covariance: [0.002741552146694444, 0.0, 0.0, 0.0, 0.002741552146694444, 0.0, 0.0, 0.0, 0.007615422629706791]
angular_velocity: 
  x: -0.0036463762377
  y: -0.000973079596036
  z: -0.00125061875742
angular_velocity_covariance: [1.0966208586777776e-06, 0.0, 0.0, 0.0, 1.0966208586777776e-06, 0.0, 0.0, 0.0, 1.0966208586777776e-06]
linear_acceleration: 
  x: 0.203448780256
  y: 0.573854255602
  z: 10.0880177949
linear_acceleration_covariance: [0.0015387262937311438, 0.0, 0.0, 0.0, 0.0015387262937311438, 0.0, 0.0, 0.0, 0.0015387262937311438]
---
header: 
  seq: 37
  stamp: 
    secs: 1568011756
    nsecs: 116296394
  frame_id: "imu_link"
orientation: 
  x: 0.0026184054
  y: 0.9650838057
  z: -0.260162075
  w: -0.0300445235
orientation_covariance: [0.002741552146694444, 0.0, 0.0, 0.0, 0.002741552146694444, 0.0, 0.0, 0.0, 0.007615422629706791]
angular_velocity: 
  x: -0.000379932568828
  y: -0.00218080813109
  z: 0.00167882489208
angular_velocity_covariance: [1.0966208586777776e-06, 0.0, 0.0, 0.0, 1.0966208586777776e-06, 0.0, 0.0, 0.0, 1.0966208586777776e-06]
linear_acceleration: 
  x: 0.200003261178
  y: 0.57848494761
  z: 10.0854388843
linear_acceleration_covariance: [0.0015387262937311438, 0.0, 0.0, 0.0, 0.0015387262937311438, 0.0, 0.0, 0.0, 0.0015387262937311438]
---
header: 
  seq: 38
  stamp: 
    secs: 1568011756
    nsecs: 169837644
  frame_id: "imu_link"
orientation: 
  x: 0.0026184054
  y: 0.9651845136
  z: -0.2597592434
  w: -0.0300445235
orientation_covariance: [0.002741552146694444, 0.0, 0.0, 0.0, 0.002741552146694444, 0.0, 0.0, 0.0, 0.007615422629706791]
angular_velocity: 
  x: -0.00216200059619
  y: -8.26877221168e-05
  z: -0.000320851841973
angular_velocity_covariance: [1.0966208586777776e-06, 0.0, 0.0, 0.0, 1.0966208586777776e-06, 0.0, 0.0, 0.0, 1.0966208586777776e-06]
linear_acceleration: 
  x: 0.196186314972
  y: 0.575927262484
  z: 10.0876109677
linear_acceleration_covariance: [0.0015387262937311438, 0.0, 0.0, 0.0, 0.0015387262937311438, 0.0, 0.0, 0.0, 0.0015387262937311438]
---
header: 
  seq: 39
  stamp: 
    secs: 1568011756
    nsecs: 222458634
  frame_id: "imu_link"
orientation: 
  x: 0.0026519747
  y: 0.9652852215
  z: -0.2593564118
  w: -0.0300445235
orientation_covariance: [0.002741552146694444, 0.0, 0.0, 0.0, 0.002741552146694444, 0.0, 0.0, 0.0, 0.007615422629706791]
angular_velocity: 
  x: -0.000370059464748
  y: 0.000578416677503
  z: -0.000532264732994
angular_velocity_covariance: [1.0966208586777776e-06, 0.0, 0.0, 0.0, 1.0966208586777776e-06, 0.0, 0.0, 0.0, 1.0966208586777776e-06]
linear_acceleration: 
  x: 0.201865675783
  y: 0.571847153563
  z: 10.0795995107
linear_acceleration_covariance: [0.0015387262937311438, 0.0, 0.0, 0.0, 0.0015387262937311438, 0.0, 0.0, 0.0, 0.0015387262937311438]
---
header: 
  seq: 40
  stamp: 
    secs: 1568011756
    nsecs: 275510925
  frame_id: "imu_link"
orientation: 
  x: 0.0026519747
  y: 0.9653859294
  z: -0.2589871495
  w: -0.0300445235
orientation_covariance: [0.002741552146694444, 0.0, 0.0, 0.0, 0.002741552146694444, 0.0, 0.0, 0.0, 0.007615422629706791]
angular_velocity: 
  x: -0.00183810221107
  y: 0.000658417555512
  z: -0.000761315312093
angular_velocity_covariance: [1.0966208586777776e-06, 0.0, 0.0, 0.0, 1.0966208586777776e-06, 0.0, 0.0, 0.0, 1.0966208586777776e-06]
linear_acceleration: 
  x: 0.206023325185
  y: 0.576622551272
  z: 10.0863507385
linear_acceleration_covariance: [0.0015387262937311438, 0.0, 0.0, 0.0, 0.0015387262937311438, 0.0, 0.0, 0.0, 0.0015387262937311438]
---
header: 
  seq: 41
  stamp: 
    secs: 1568011756
    nsecs: 327619259
  frame_id: "imu_link"
orientation: 
  x: 0.0026519747
  y: 0.9654866373
  z: -0.2585843179
  w: -0.0300445235
orientation_covariance: [0.002741552146694444, 0.0, 0.0, 0.0, 0.002741552146694444, 0.0, 0.0, 0.0, 0.007615422629706791]
angular_velocity: 
  x: 6.2795429396e-05
  y: -0.000125158997248
  z: 0.000885111861224
angular_velocity_covariance: [1.0966208586777776e-06, 0.0, 0.0, 0.0, 1.0966208586777776e-06, 0.0, 0.0, 0.0, 1.0966208586777776e-06]
linear_acceleration: 
  x: 0.204445170882
  y: 0.572099082498
  z: 10.0826857862
linear_acceleration_covariance: [0.0015387262937311438, 0.0, 0.0, 0.0, 0.0015387262937311438, 0.0, 0.0, 0.0, 0.0015387262937311438]
---
header: 
  seq: 42
  stamp: 
    secs: 1568011756
    nsecs: 380423634
  frame_id: "imu_link"
orientation: 
  x: 0.002685544
  y: 0.9655873452
  z: -0.2581814863
  w: -0.0300445235
orientation_covariance: [0.002741552146694444, 0.0, 0.0, 0.0, 0.002741552146694444, 0.0, 0.0, 0.0, 0.007615422629706791]
angular_velocity: 
  x: -0.00152305805634
  y: -0.000577916749632
  z: -0.00197699763522
angular_velocity_covariance: [1.0966208586777776e-06, 0.0, 0.0, 0.0, 1.0966208586777776e-06, 0.0, 0.0, 0.0, 1.0966208586777776e-06]
linear_acceleration: 
  x: 0.207182304228
  y: 0.568926261148
  z: 10.0905370843
linear_acceleration_covariance: [0.0015387262937311438, 0.0, 0.0, 0.0, 0.0015387262937311438, 0.0, 0.0, 0.0, 0.0015387262937311438]
---
header: 
  seq: 43
  stamp: 
    secs: 1568011756
    nsecs: 431060457
  frame_id: "imu_link"
orientation: 
  x: 0.002685544
  y: 0.9656880531
  z: -0.2578457933
  w: -0.0300109542
orientation_covariance: [0.002741552146694444, 0.0, 0.0, 0.0, 0.002741552146694444, 0.0, 0.0, 0.0, 0.007615422629706791]
angular_velocity: 
  x: 0.000475934519694
  y: -0.00035051023038
  z: 0.00211496368377
angular_velocity_covariance: [1.0966208586777776e-06, 0.0, 0.0, 0.0, 1.0966208586777776e-06, 0.0, 0.0, 0.0, 1.0966208586777776e-06]
linear_acceleration: 
  x: 0.19930970769
  y: 0.574208621998
  z: 10.0818545961
linear_acceleration_covariance: [0.0015387262937311438, 0.0, 0.0, 0.0, 0.0015387262937311438, 0.0, 0.0, 0.0, 0.0015387262937311438]
---
header: 
  seq: 44
  stamp: 
    secs: 1568011756
    nsecs: 484211915
  frame_id: "imu_link"
orientation: 
  x: 0.002685544
  y: 0.965788761
  z: -0.2574429617
  w: -0.0300109542
orientation_covariance: [0.002741552146694444, 0.0, 0.0, 0.0, 0.002741552146694444, 0.0, 0.0, 0.0, 0.007615422629706791]
angular_velocity: 
  x: 0.00123830982972
  y: -0.000600996460455
  z: -7.6738603201e-05
angular_velocity_covariance: [1.0966208586777776e-06, 0.0, 0.0, 0.0, 1.0966208586777776e-06, 0.0, 0.0, 0.0, 1.0966208586777776e-06]
linear_acceleration: 
  x: 0.196201713471
  y: 0.572886725744
  z: 10.0924882183
linear_acceleration_covariance: [0.0015387262937311438, 0.0, 0.0, 0.0, 0.0015387262937311438, 0.0, 0.0, 0.0, 0.0015387262937311438]
---
header: 
  seq: 45
  stamp: 
    secs: 1568011756
    nsecs: 536086915
  frame_id: "imu_link"
orientation: 
  x: 0.002685544
  y: 0.9659230382
  z: -0.2570401301
  w: -0.0300445235
orientation_covariance: [0.002741552146694444, 0.0, 0.0, 0.0, 0.002741552146694444, 0.0, 0.0, 0.0, 0.007615422629706791]
angular_velocity: 
  x: 0.000392154371629
  y: 0.000609289840574
  z: -0.00199908639785
angular_velocity_covariance: [1.0966208586777776e-06, 0.0, 0.0, 0.0, 1.0966208586777776e-06, 0.0, 0.0, 0.0, 1.0966208586777776e-06]
linear_acceleration: 
  x: 0.198738027015
  y: 0.575617831208
  z: 10.0773771584
linear_acceleration_covariance: [0.0015387262937311438, 0.0, 0.0, 0.0, 0.0015387262937311438, 0.0, 0.0, 0.0, 0.0015387262937311438]
---
header: 
  seq: 46
  stamp: 
    secs: 1568011756
    nsecs: 589420092
  frame_id: "imu_link"
orientation: 
  x: 0.002685544
  y: 0.9660237461
  z: -0.2566708678
  w: -0.0300109542
orientation_covariance: [0.002741552146694444, 0.0, 0.0, 0.0, 0.002741552146694444, 0.0, 0.0, 0.0, 0.007615422629706791]
angular_velocity: 
  x: -0.00093182303055
  y: 0.000254074117937
  z: 0.000836778413275
angular_velocity_covariance: [1.0966208586777776e-06, 0.0, 0.0, 0.0, 1.0966208586777776e-06, 0.0, 0.0, 0.0, 1.0966208586777776e-06]
linear_acceleration: 
  x: 0.200774062888
  y: 0.571658499123
  z: 10.0804587578
linear_acceleration_covariance: [0.0015387262937311438, 0.0, 0.0, 0.0, 0.0015387262937311438, 0.0, 0.0, 0.0, 0.0015387262937311438]
---
header: 
  seq: 47
  stamp: 
    secs: 1568011756
    nsecs: 642721082
  frame_id: "imu_link"
orientation: 
  x: 0.002685544
  y: 0.9660908847
  z: -0.2563016055
  w: -0.0300109542
orientation_covariance: [0.002741552146694444, 0.0, 0.0, 0.0, 0.002741552146694444, 0.0, 0.0, 0.0, 0.007615422629706791]
angular_velocity: 
  x: 0.00086343089514
  y: 0.00025040394906
  z: 0.000821618290747
angular_velocity_covariance: [1.0966208586777776e-06, 0.0, 0.0, 0.0, 1.0966208586777776e-06, 0.0, 0.0, 0.0, 1.0966208586777776e-06]
linear_acceleration: 
  x: 0.207523208354
  y: 0.575156789568
  z: 10.0767037892
linear_acceleration_covariance: [0.0015387262937311438, 0.0, 0.0, 0.0, 0.0015387262937311438, 0.0, 0.0, 0.0, 0.0015387262937311438]
---
header: 
  seq: 48
  stamp: 
    secs: 1568011756
    nsecs: 694347592
  frame_id: "imu_link"
orientation: 
  x: 0.0027191133
  y: 0.9662251619
  z: -0.2558987739
  w: -0.0300109542
orientation_covariance: [0.002741552146694444, 0.0, 0.0, 0.0, 0.002741552146694444, 0.0, 0.0, 0.0, 0.007615422629706791]
angular_velocity: 
  x: 0.00118841418032
  y: 0.000256529154548
  z: -0.000213898843968
angular_velocity_covariance: [1.0966208586777776e-06, 0.0, 0.0, 0.0, 1.0966208586777776e-06, 0.0, 0.0, 0.0, 1.0966208586777776e-06]
linear_acceleration: 
  x: 0.200231261248
  y: 0.578127366344
  z: 10.0779663565
linear_acceleration_covariance: [0.0015387262937311438, 0.0, 0.0, 0.0, 0.0015387262937311438, 0.0, 0.0, 0.0, 0.0015387262937311438]
---
header: 
  seq: 49
  stamp: 
    secs: 1568011756
    nsecs: 748726394
  frame_id: "imu_link"
orientation: 
  x: 0.0027191133
  y: 0.9663258698
  z: -0.2554959423
  w: -0.0300109542
orientation_covariance: [0.002741552146694444, 0.0, 0.0, 0.0, 0.002741552146694444, 0.0, 0.0, 0.0, 0.007615422629706791]
angular_velocity: 
  x: 8.88565875827e-05
  y: 0.00117821042424
  z: -6.32489380642e-06
angular_velocity_covariance: [1.0966208586777776e-06, 0.0, 0.0, 0.0, 1.0966208586777776e-06, 0.0, 0.0, 0.0, 1.0966208586777776e-06]
linear_acceleration: 
  x: 0.199433352336
  y: 0.571308955033
  z: 10.0708936416
linear_acceleration_covariance: [0.0015387262937311438, 0.0, 0.0, 0.0, 0.0015387262937311438, 0.0, 0.0, 0.0, 0.0015387262937311438]
---
header: 
  seq: 50
  stamp: 
    secs: 1568011756
    nsecs: 800394415
  frame_id: "imu_link"
orientation: 
  x: 0.0027191133
  y: 0.9664265777
  z: -0.25512668
  w: -0.0299773849
orientation_covariance: [0.002741552146694444, 0.0, 0.0, 0.0, 0.002741552146694444, 0.0, 0.0, 0.0, 0.007615422629706791]
angular_velocity: 
  x: -0.000266762981717
  y: -0.000201500483209
  z: 0.000691404342623
angular_velocity_covariance: [1.0966208586777776e-06, 0.0, 0.0, 0.0, 1.0966208586777776e-06, 0.0, 0.0, 0.0, 1.0966208586777776e-06]
linear_acceleration: 
  x: 0.202526057654
  y: 0.572911312196
  z: 10.0853874464
linear_acceleration_covariance: [0.0015387262937311438, 0.0, 0.0, 0.0, 0.0015387262937311438, 0.0, 0.0, 0.0, 0.0015387262937311438]
---
header: 
  seq: 51
  stamp: 
    secs: 1568011756
    nsecs: 853918738
  frame_id: "imu_link"
orientation: 
  x: 0.0027191133
  y: 0.9665272856
  z: -0.2547238484
  w: -0.0300109542
orientation_covariance: [0.002741552146694444, 0.0, 0.0, 0.0, 0.002741552146694444, 0.0, 0.0, 0.0, 0.007615422629706791]
angular_velocity: 
  x: 0.000432047692521
  y: 6.50951650622e-05
  z: 0.00127241129539
angular_velocity_covariance: [1.0966208586777776e-06, 0.0, 0.0, 0.0, 1.0966208586777776e-06, 0.0, 0.0, 0.0, 1.0966208586777776e-06]
linear_acceleration: 
  x: 0.203297206423
  y: 0.576320755313
  z: 10.0719013574
linear_acceleration_covariance: [0.0015387262937311438, 0.0, 0.0, 0.0, 0.0015387262937311438, 0.0, 0.0, 0.0, 0.0015387262937311438]
---
header: 
  seq: 52
  stamp: 
    secs: 1568011756
    nsecs: 906470717
  frame_id: "imu_link"
orientation: 
  x: 0.0027526826
  y: 0.9666279935
  z: -0.2543210168
  w: -0.0300445235
orientation_covariance: [0.002741552146694444, 0.0, 0.0, 0.0, 0.002741552146694444, 0.0, 0.0, 0.0, 0.007615422629706791]
angular_velocity: 
  x: 0.000499722445414
  y: 2.89160550094e-05
  z: 0.00236215080601
angular_velocity_covariance: [1.0966208586777776e-06, 0.0, 0.0, 0.0, 1.0966208586777776e-06, 0.0, 0.0, 0.0, 1.0966208586777776e-06]
linear_acceleration: 
  x: 0.202212260731
  y: 0.575017746423
  z: 10.0775642054
linear_acceleration_covariance: [0.0015387262937311438, 0.0, 0.0, 0.0, 0.0015387262937311438, 0.0, 0.0, 0.0, 0.0015387262937311438]
---
header: 
  seq: 53
  stamp: 
    secs: 1568011756
    nsecs: 959604050
  frame_id: "imu_link"
orientation: 
  x: 0.0027862519
  y: 0.9667287014
  z: -0.2539517545
  w: -0.0300445235
orientation_covariance: [0.002741552146694444, 0.0, 0.0, 0.0, 0.002741552146694444, 0.0, 0.0, 0.0, 0.007615422629706791]
angular_velocity: 
  x: 5.72106461642e-05
  y: -0.000683740992557
  z: 0.00214028126915
angular_velocity_covariance: [1.0966208586777776e-06, 0.0, 0.0, 0.0, 1.0966208586777776e-06, 0.0, 0.0, 0.0, 1.0966208586777776e-06]
linear_acceleration: 
  x: 0.202569093078
  y: 0.567884058619
  z: 10.0773689751
linear_acceleration_covariance: [0.0015387262937311438, 0.0, 0.0, 0.0, 0.0015387262937311438, 0.0, 0.0, 0.0, 0.0015387262937311438]
---
header: 
  seq: 54
  stamp: 
    secs: 1568011757
    nsecs:  12668165
  frame_id: "imu_link"
orientation: 
  x: 0.0027862519
  y: 0.9668294093
  z: -0.2535489229
  w: -0.0300445235
orientation_covariance: [0.002741552146694444, 0.0, 0.0, 0.0, 0.002741552146694444, 0.0, 0.0, 0.0, 0.007615422629706791]
angular_velocity: 
  x: -0.000404821421675
  y: 0.00117995396252
  z: -0.00189175619454
angular_velocity_covariance: [1.0966208586777776e-06, 0.0, 0.0, 0.0, 1.0966208586777776e-06, 0.0, 0.0, 0.0, 1.0966208586777776e-06]
linear_acceleration: 
  x: 0.19900831359
  y: 0.571289921539
  z: 10.0794183089
linear_acceleration_covariance: [0.0015387262937311438, 0.0, 0.0, 0.0, 0.0015387262937311438, 0.0, 0.0, 0.0, 0.0015387262937311438]
---
header: 
  seq: 55
  stamp: 
    secs: 1568011757
    nsecs:  65784258
  frame_id: "imu_link"
orientation: 
  x: 0.0027862519
  y: 0.9669301172
  z: -0.2531460913
  w: -0.0300445235
orientation_covariance: [0.002741552146694444, 0.0, 0.0, 0.0, 0.002741552146694444, 0.0, 0.0, 0.0, 0.007615422629706791]
angular_velocity: 
  x: 0.0003099115229
  y: 0.00111439559695
  z: 0.00101178665291
angular_velocity_covariance: [1.0966208586777776e-06, 0.0, 0.0, 0.0, 1.0966208586777776e-06, 0.0, 0.0, 0.0, 1.0966208586777776e-06]
linear_acceleration: 
  x: 0.193982320388
  y: 0.572737307336
  z: 10.0831534037
linear_acceleration_covariance: [0.0015387262937311438, 0.0, 0.0, 0.0, 0.0015387262937311438, 0.0, 0.0, 0.0, 0.0015387262937311438]
---
header: 
  seq: 56
  stamp: 
    secs: 1568011757
    nsecs: 119069519
  frame_id: "imu_link"
orientation: 
  x: 0.0027862519
  y: 0.9670308251
  z: -0.252776829
  w: -0.0300109542
orientation_covariance: [0.002741552146694444, 0.0, 0.0, 0.0, 0.002741552146694444, 0.0, 0.0, 0.0, 0.007615422629706791]
angular_velocity: 
  x: 0.00026262214333
  y: 0.000547606582457
  z: 0.000454827732702
angular_velocity_covariance: [1.0966208586777776e-06, 0.0, 0.0, 0.0, 1.0966208586777776e-06, 0.0, 0.0, 0.0, 1.0966208586777776e-06]
linear_acceleration: 
  x: 0.202225595136
  y: 0.570511374915
  z: 10.0840605817
linear_acceleration_covariance: [0.0015387262937311438, 0.0, 0.0, 0.0, 0.0015387262937311438, 0.0, 0.0, 0.0, 0.0015387262937311438]
---
header: 
  seq: 57
  stamp: 
    secs: 1568011757
    nsecs: 167142904
  frame_id: "imu_link"
orientation: 
  x: 0.0027862519
  y: 0.967131533
  z: -0.2524075667
  w: -0.0300109542
orientation_covariance: [0.002741552146694444, 0.0, 0.0, 0.0, 0.002741552146694444, 0.0, 0.0, 0.0, 0.007615422629706791]
angular_velocity: 
  x: 9.76221001301e-05
  y: -0.000474718769752
  z: 0.00200245995196
angular_velocity_covariance: [1.0966208586777776e-06, 0.0, 0.0, 0.0, 1.0966208586777776e-06, 0.0, 0.0, 0.0, 1.0966208586777776e-06]
linear_acceleration: 
  x: 0.200275429183
  y: 0.576403684356
  z: 10.0905464366
linear_acceleration_covariance: [0.0015387262937311438, 0.0, 0.0, 0.0, 0.0015387262937311438, 0.0, 0.0, 0.0, 0.0015387262937311438]
---
header: 
  seq: 58
  stamp: 
    secs: 1568011757
    nsecs: 220094258
  frame_id: "imu_link"
orientation: 
  x: 0.0027862519
  y: 0.9672322409
  z: -0.2520047351
  w: -0.0300109542
orientation_covariance: [0.002741552146694444, 0.0, 0.0, 0.0, 0.002741552146694444, 0.0, 0.0, 0.0, 0.007615422629706791]
angular_velocity: 
  x: -0.00113278571256
  y: 0.000398625410952
  z: -0.00295475694365
angular_velocity_covariance: [1.0966208586777776e-06, 0.0, 0.0, 0.0, 1.0966208586777776e-06, 0.0, 0.0, 0.0, 1.0966208586777776e-06]
linear_acceleration: 
  x: 0.202871108232
  y: 0.569355921269
  z: 10.0870989265
linear_acceleration_covariance: [0.0015387262937311438, 0.0, 0.0, 0.0, 0.0015387262937311438, 0.0, 0.0, 0.0, 0.0015387262937311438]
---
header: 
  seq: 59
  stamp: 
    secs: 1568011757
    nsecs: 273134102
  frame_id: "imu_link"
orientation: 
  x: 0.0028198212
  y: 0.9673329488
  z: -0.2515683342
  w: -0.0299773849
orientation_covariance: [0.002741552146694444, 0.0, 0.0, 0.0, 0.002741552146694444, 0.0, 0.0, 0.0, 0.007615422629706791]
angular_velocity: 
  x: -0.000317631894262
  y: 0.00148637587314
  z: 0.000624480391797
angular_velocity_covariance: [1.0966208586777776e-06, 0.0, 0.0, 0.0, 1.0966208586777776e-06, 0.0, 0.0, 0.0, 1.0966208586777776e-06]
linear_acceleration: 
  x: 0.199979186183
  y: 0.570336201011
  z: 10.0831943203
linear_acceleration_covariance: [0.0015387262937311438, 0.0, 0.0, 0.0, 0.0015387262937311438, 0.0, 0.0, 0.0, 0.0015387262937311438]
---
header: 
  seq: 60
  stamp: 
    secs: 1568011757
    nsecs: 326344727
  frame_id: "imu_link"
orientation: 
  x: 0.0028198212
  y: 0.967467226
  z: -0.2511655026
  w: -0.0299438156
orientation_covariance: [0.002741552146694444, 0.0, 0.0, 0.0, 0.002741552146694444, 0.0, 0.0, 0.0, 0.007615422629706791]
angular_velocity: 
  x: -0.000969496422021
  y: 0.000330463961468
  z: 0.00150427223764
angular_velocity_covariance: [1.0966208586777776e-06, 0.0, 0.0, 0.0, 1.0966208586777776e-06, 0.0, 0.0, 0.0, 1.0966208586777776e-06]
linear_acceleration: 
  x: 0.210096273713
  y: 0.572069491077
  z: 10.0906995813
linear_acceleration_covariance: [0.0015387262937311438, 0.0, 0.0, 0.0, 0.0015387262937311438, 0.0, 0.0, 0.0, 0.0015387262937311438]
---
header: 
  seq: 61
  stamp: 
    secs: 1568011757
    nsecs: 379142488
  frame_id: "imu_link"
orientation: 
  x: 0.0028533905
  y: 0.9675679339
  z: -0.250762671
  w: -0.0299773849
orientation_covariance: [0.002741552146694444, 0.0, 0.0, 0.0, 0.002741552146694444, 0.0, 0.0, 0.0, 0.007615422629706791]
angular_velocity: 
  x: 0.000150550053617
  y: -0.0021493071486
  z: -0.000542285071652
angular_velocity_covariance: [1.0966208586777776e-06, 0.0, 0.0, 0.0, 1.0966208586777776e-06, 0.0, 0.0, 0.0, 1.0966208586777776e-06]
linear_acceleration: 
  x: 0.206066689403
  y: 0.571878388952
  z: 10.0800776496
linear_acceleration_covariance: [0.0015387262937311438, 0.0, 0.0, 0.0, 0.0015387262937311438, 0.0, 0.0, 0.0, 0.0015387262937311438]
---
header: 
  seq: 62
  stamp: 
    secs: 1568011757
    nsecs: 432248165
  frame_id: "imu_link"
orientation: 
  x: 0.0028533905
  y: 0.9676686418
  z: -0.2503934087
  w: -0.0299438156
orientation_covariance: [0.002741552146694444, 0.0, 0.0, 0.0, 0.002741552146694444, 0.0, 0.0, 0.0, 0.007615422629706791]
angular_velocity: 
  x: 6.99618708912e-05
  y: -0.000380363804568
  z: 0.000559427545704
angular_velocity_covariance: [1.0966208586777776e-06, 0.0, 0.0, 0.0, 1.0966208586777776e-06, 0.0, 0.0, 0.0, 1.0966208586777776e-06]
linear_acceleration: 
  x: 0.191146622038
  y: 0.572756779221
  z: 10.0883462962
linear_acceleration_covariance: [0.0015387262937311438, 0.0, 0.0, 0.0, 0.0015387262937311438, 0.0, 0.0, 0.0, 0.0015387262937311438]
---
header: 
  seq: 63
  stamp: 
    secs: 1568011757
    nsecs: 485187123
  frame_id: "imu_link"
orientation: 
  x: 0.0028533905
  y: 0.9677693497
  z: -0.2499905771
  w: -0.0299773849
orientation_covariance: [0.002741552146694444, 0.0, 0.0, 0.0, 0.002741552146694444, 0.0, 0.0, 0.0, 0.007615422629706791]
angular_velocity: 
  x: -0.000773103896087
  y: -0.000756738329062
  z: -8.5829111127e-05
angular_velocity_covariance: [1.0966208586777776e-06, 0.0, 0.0, 0.0, 1.0966208586777776e-06, 0.0, 0.0, 0.0, 1.0966208586777776e-06]
linear_acceleration: 
  x: 0.196311950646
  y: 0.57007064541
  z: 10.0743119256
linear_acceleration_covariance: [0.0015387262937311438, 0.0, 0.0, 0.0, 0.0015387262937311438, 0.0, 0.0, 0.0, 0.0015387262937311438]
---
header: 
  seq: 64
  stamp: 
    secs: 1568011757
    nsecs: 538286342
  frame_id: "imu_link"
orientation: 
  x: 0.0028869598
  y: 0.9678700576
  z: -0.2495877455
  w: -0.0299438156
orientation_covariance: [0.002741552146694444, 0.0, 0.0, 0.0, 0.002741552146694444, 0.0, 0.0, 0.0, 0.007615422629706791]
angular_velocity: 
  x: 0.00207928824829
  y: -0.000993934371007
  z: -0.00115172796597
angular_velocity_covariance: [1.0966208586777776e-06, 0.0, 0.0, 0.0, 1.0966208586777776e-06, 0.0, 0.0, 0.0, 1.0966208586777776e-06]
linear_acceleration: 
  x: 0.200484048699
  y: 0.576580100369
  z: 10.0828903689
linear_acceleration_covariance: [0.0015387262937311438, 0.0, 0.0, 0.0, 0.0015387262937311438, 0.0, 0.0, 0.0, 0.0015387262937311438]
---
header: 
  seq: 65
  stamp: 
    secs: 1568011757
    nsecs: 591724935
  frame_id: "imu_link"
orientation: 
  x: 0.0028869598
  y: 0.9679707655
  z: -0.2491849139
  w: -0.0299438156
orientation_covariance: [0.002741552146694444, 0.0, 0.0, 0.0, 0.002741552146694444, 0.0, 0.0, 0.0, 0.007615422629706791]
angular_velocity: 
  x: -0.000880567192428
  y: 0.00027168540847
  z: -0.00163749544077
angular_velocity_covariance: [1.0966208586777776e-06, 0.0, 0.0, 0.0, 1.0966208586777776e-06, 0.0, 0.0, 0.0, 1.0966208586777776e-06]
linear_acceleration: 
  x: 0.204008843558
  y: 0.57562133834
  z: 10.0956551579
linear_acceleration_covariance: [0.0015387262937311438, 0.0, 0.0, 0.0, 0.0015387262937311438, 0.0, 0.0, 0.0, 0.0015387262937311438]
---
header: 
  seq: 66
  stamp: 
    secs: 1568011757
    nsecs: 643667696
  frame_id: "imu_link"
orientation: 
  x: 0.0028869598
  y: 0.9680714734
  z: -0.2487820823
  w: -0.0299438156
orientation_covariance: [0.002741552146694444, 0.0, 0.0, 0.0, 0.002741552146694444, 0.0, 0.0, 0.0, 0.007615422629706791]
angular_velocity: 
  x: 0.000687593083425
  y: 0.000630657742188
  z: 0.000902231123643
angular_velocity_covariance: [1.0966208586777776e-06, 0.0, 0.0, 0.0, 1.0966208586777776e-06, 0.0, 0.0, 0.0, 1.0966208586777776e-06]
linear_acceleration: 
  x: 0.201494887975
  y: 0.572328872666
  z: 10.0809065016
linear_acceleration_covariance: [0.0015387262937311438, 0.0, 0.0, 0.0, 0.0015387262937311438, 0.0, 0.0, 0.0, 0.0015387262937311438]
---
header: 
  seq: 67
  stamp: 
    secs: 1568011757
    nsecs: 696660560
  frame_id: "imu_link"
orientation: 
  x: 0.0029205291
  y: 0.9681721813
  z: -0.2483792507
  w: -0.0299438156
orientation_covariance: [0.002741552146694444, 0.0, 0.0, 0.0, 0.002741552146694444, 0.0, 0.0, 0.0, 0.007615422629706791]
angular_velocity: 
  x: 0.000492422581726
  y: 0.000619421686098
  z: 0.00260869034319
angular_velocity_covariance: [1.0966208586777776e-06, 0.0, 0.0, 0.0, 1.0966208586777776e-06, 0.0, 0.0, 0.0, 1.0966208586777776e-06]
linear_acceleration: 
  x: 0.206520881178
  y: 0.571693168578
  z: 10.0805300695
linear_acceleration_covariance: [0.0015387262937311438, 0.0, 0.0, 0.0, 0.0015387262937311438, 0.0, 0.0, 0.0, 0.0015387262937311438]
---
header: 
  seq: 68
  stamp: 
    secs: 1568011757
    nsecs: 749681342
  frame_id: "imu_link"
orientation: 
  x: 0.0029205291
  y: 0.9682728892
  z: -0.2480099884
  w: -0.0299438156
orientation_covariance: [0.002741552146694444, 0.0, 0.0, 0.0, 0.002741552146694444, 0.0, 0.0, 0.0, 0.007615422629706791]
angular_velocity: 
  x: -0.00222143395132
  y: 0.00101153008959
  z: -0.00293843675959
angular_velocity_covariance: [1.0966208586777776e-06, 0.0, 0.0, 0.0, 1.0966208586777776e-06, 0.0, 0.0, 0.0, 1.0966208586777776e-06]
linear_acceleration: 
  x: 0.203756786759
  y: 0.57452331397
  z: 10.0792897141
linear_acceleration_covariance: [0.0015387262937311438, 0.0, 0.0, 0.0, 0.0015387262937311438, 0.0, 0.0, 0.0, 0.0015387262937311438]
---
header: 
  seq: 69
  stamp: 
    secs: 1568011757
    nsecs: 802870508
  frame_id: "imu_link"
orientation: 
  x: 0.0029540984
  y: 0.9683735971
  z: -0.2476407261
  w: -0.0299438156
orientation_covariance: [0.002741552146694444, 0.0, 0.0, 0.0, 0.002741552146694444, 0.0, 0.0, 0.0, 0.007615422629706791]
angular_velocity: 
  x: 0.00123777784769
  y: 0.000532304556875
  z: 0.000235137748717
angular_velocity_covariance: [1.0966208586777776e-06, 0.0, 0.0, 0.0, 1.0966208586777776e-06, 0.0, 0.0, 0.0, 1.0966208586777776e-06]
linear_acceleration: 
  x: 0.199571884024
  y: 0.579774074105
  z: 10.0829885686
linear_acceleration_covariance: [0.0015387262937311438, 0.0, 0.0, 0.0, 0.0015387262937311438, 0.0, 0.0, 0.0, 0.0015387262937311438]
---
header: 
  seq: 70
  stamp: 
    secs: 1568011757
    nsecs: 856114779
  frame_id: "imu_link"
orientation: 
  x: 0.0029205291
  y: 0.968474305
  z: -0.2472378945
  w: -0.0299438156
orientation_covariance: [0.002741552146694444, 0.0, 0.0, 0.0, 0.002741552146694444, 0.0, 0.0, 0.0, 0.007615422629706791]
angular_velocity: 
  x: -0.00217119422359
  y: -0.00110602029342
  z: -0.00125661776184
angular_velocity_covariance: [1.0966208586777776e-06, 0.0, 0.0, 0.0, 1.0966208586777776e-06, 0.0, 0.0, 0.0, 1.0966208586777776e-06]
linear_acceleration: 
  x: 0.201909295729
  y: 0.576800392056
  z: 10.084709401
linear_acceleration_covariance: [0.0015387262937311438, 0.0, 0.0, 0.0, 0.0015387262937311438, 0.0, 0.0, 0.0, 0.0015387262937311438]
---
header: 
  seq: 71
  stamp: 
    secs: 1568011757
    nsecs: 909049362
  frame_id: "imu_link"
orientation: 
  x: 0.0029205291
  y: 0.9685750129
  z: -0.2468350629
  w: -0.0299438156
orientation_covariance: [0.002741552146694444, 0.0, 0.0, 0.0, 0.002741552146694444, 0.0, 0.0, 0.0, 0.007615422629706791]
angular_velocity: 
  x: 0.0018499245397
  y: -0.00111093400769
  z: 0.000323988760956
angular_velocity_covariance: [1.0966208586777776e-06, 0.0, 0.0, 0.0, 1.0966208586777776e-06, 0.0, 0.0, 0.0, 1.0966208586777776e-06]
linear_acceleration: 
  x: 0.192953945455
  y: 0.573824773779
  z: 10.0870416434
linear_acceleration_covariance: [0.0015387262937311438, 0.0, 0.0, 0.0, 0.0015387262937311438, 0.0, 0.0, 0.0, 0.0015387262937311438]
---
header: 
  seq: 72
  stamp: 
    secs: 1568011757
    nsecs: 962189310
  frame_id: "imu_link"
orientation: 
  x: 0.0029540984
  y: 0.9686757208
  z: -0.2464322313
  w: -0.0299438156
orientation_covariance: [0.002741552146694444, 0.0, 0.0, 0.0, 0.002741552146694444, 0.0, 0.0, 0.0, 0.007615422629706791]
angular_velocity: 
  x: -0.00163751611667
  y: -0.000599827491381
  z: -0.000496485755418
angular_velocity_covariance: [1.0966208586777776e-06, 0.0, 0.0, 0.0, 1.0966208586777776e-06, 0.0, 0.0, 0.0, 1.0966208586777776e-06]
linear_acceleration: 
  x: 0.197201373766
  y: 0.567064887723
  z: 10.0847959103
linear_acceleration_covariance: [0.0015387262937311438, 0.0, 0.0, 0.0, 0.0015387262937311438, 0.0, 0.0, 0.0, 0.0015387262937311438]
---
header: 
  seq: 73
  stamp: 
    secs: 1568011758
    nsecs:  15521862
  frame_id: "imu_link"
orientation: 
  x: 0.0029540984
  y: 0.9687764287
  z: -0.2460293997
  w: -0.0299438156
orientation_covariance: [0.002741552146694444, 0.0, 0.0, 0.0, 0.002741552146694444, 0.0, 0.0, 0.0, 0.007615422629706791]
angular_velocity: 
  x: -0.000258846384277
  y: 3.84318982396e-05
  z: -0.000703268023079
angular_velocity_covariance: [1.0966208586777776e-06, 0.0, 0.0, 0.0, 1.0966208586777776e-06, 0.0, 0.0, 0.0, 1.0966208586777776e-06]
linear_acceleration: 
  x: 0.199793637015
  y: 0.573215336644
  z: 10.0834164386
linear_acceleration_covariance: [0.0015387262937311438, 0.0, 0.0, 0.0, 0.0015387262937311438, 0.0, 0.0, 0.0, 0.0015387262937311438]
---
header: 
  seq: 74
  stamp: 
    secs: 1568011758
    nsecs:  67294466
  frame_id: "imu_link"
orientation: 
  x: 0.0029540984
  y: 0.9688771366
  z: -0.2455929988
  w: -0.0299438156
orientation_covariance: [0.002741552146694444, 0.0, 0.0, 0.0, 0.002741552146694444, 0.0, 0.0, 0.0, 0.007615422629706791]
angular_velocity: 
  x: 0.000903251460239
  y: 0.00102990252015
  z: -0.0011153954527
angular_velocity_covariance: [1.0966208586777776e-06, 0.0, 0.0, 0.0, 1.0966208586777776e-06, 0.0, 0.0, 0.0, 1.0966208586777776e-06]
linear_acceleration: 
  x: 0.198207482069
  y: 0.575957694155
  z: 10.0719831904
linear_acceleration_covariance: [0.0015387262937311438, 0.0, 0.0, 0.0, 0.0015387262937311438, 0.0, 0.0, 0.0, 0.0015387262937311438]
---
header: 
  seq: 75
  stamp: 
    secs: 1568011758
    nsecs: 119157956
  frame_id: "imu_link"
orientation: 
  x: 0.0029540984
  y: 0.9689778445
  z: -0.2452237365
  w: -0.0299438156
orientation_covariance: [0.002741552146694444, 0.0, 0.0, 0.0, 0.002741552146694444, 0.0, 0.0, 0.0, 0.007615422629706791]
angular_velocity: 
  x: -0.000930235796944
  y: 0.00161825683267
  z: 0.000814001363948
angular_velocity_covariance: [1.0966208586777776e-06, 0.0, 0.0, 0.0, 1.0966208586777776e-06, 0.0, 0.0, 0.0, 1.0966208586777776e-06]
linear_acceleration: 
  x: 0.199737669045
  y: 0.574237044374
  z: 10.0786794732
linear_acceleration_covariance: [0.0015387262937311438, 0.0, 0.0, 0.0, 0.0015387262937311438, 0.0, 0.0, 0.0, 0.0015387262937311438]
---
header: 
  seq: 76
  stamp: 
    secs: 1568011758
    nsecs: 172108529
  frame_id: "imu_link"
orientation: 
  x: 0.0029876677
  y: 0.9690785524
  z: -0.2448209049
  w: -0.0299438156
orientation_covariance: [0.002741552146694444, 0.0, 0.0, 0.0, 0.002741552146694444, 0.0, 0.0, 0.0, 0.007615422629706791]
angular_velocity: 
  x: 4.96850745352e-05
  y: -0.000107010921434
  z: 0.000628683257911
angular_velocity_covariance: [1.0966208586777776e-06, 0.0, 0.0, 0.0, 1.0966208586777776e-06, 0.0, 0.0, 0.0, 1.0966208586777776e-06]
linear_acceleration: 
  x: 0.199790056819
  y: 0.572502475667
  z: 10.0738302796
linear_acceleration_covariance: [0.0015387262937311438, 0.0, 0.0, 0.0, 0.0015387262937311438, 0.0, 0.0, 0.0, 0.0015387262937311438]
---
header: 
  seq: 77
  stamp: 
    secs: 1568011758
    nsecs: 225103946
  frame_id: "imu_link"
orientation: 
  x: 0.0029876677
  y: 0.9691792603
  z: -0.2444180733
  w: -0.0299438156
orientation_covariance: [0.002741552146694444, 0.0, 0.0, 0.0, 0.002741552146694444, 0.0, 0.0, 0.0, 0.007615422629706791]
angular_velocity: 
  x: 0.00189101732338
  y: -0.00106457107788
  z: -0.000500417981687
angular_velocity_covariance: [1.0966208586777776e-06, 0.0, 0.0, 0.0, 1.0966208586777776e-06, 0.0, 0.0, 0.0, 1.0966208586777776e-06]
linear_acceleration: 
  x: 0.19802016107
  y: 0.575417230602
  z: 10.0838910704
linear_acceleration_covariance: [0.0015387262937311438, 0.0, 0.0, 0.0, 0.0015387262937311438, 0.0, 0.0, 0.0, 0.0015387262937311438]
---
header: 
  seq: 78
  stamp: 
    secs: 1568011758
    nsecs: 278289310
  frame_id: "imu_link"
orientation: 
  x: 0.0029876677
  y: 0.9692799682
  z: -0.2440152417
  w: -0.0299438156
orientation_covariance: [0.002741552146694444, 0.0, 0.0, 0.0, 0.002741552146694444, 0.0, 0.0, 0.0, 0.007615422629706791]
angular_velocity: 
  x: 0.000132706305401
  y: -0.00186285517508
  z: -0.00187352160338
angular_velocity_covariance: [1.0966208586777776e-06, 0.0, 0.0, 0.0, 1.0966208586777776e-06, 0.0, 0.0, 0.0, 1.0966208586777776e-06]
linear_acceleration: 
  x: 0.20545630242
  y: 0.575026660382
  z: 10.0748730667
linear_acceleration_covariance: [0.0015387262937311438, 0.0, 0.0, 0.0, 0.0015387262937311438, 0.0, 0.0, 0.0, 0.0015387262937311438]
---
header: 
  seq: 79
  stamp: 
    secs: 1568011758
    nsecs: 331532383
  frame_id: "imu_link"
orientation: 
  x: 0.003021237
  y: 0.9693806761
  z: -0.2436459794
  w: -0.0299438156
orientation_covariance: [0.002741552146694444, 0.0, 0.0, 0.0, 0.002741552146694444, 0.0, 0.0, 0.0, 0.007615422629706791]
angular_velocity: 
  x: -0.00173290812823
  y: -0.00067985632738
  z: 0.000826262893103
angular_velocity_covariance: [1.0966208586777776e-06, 0.0, 0.0, 0.0, 1.0966208586777776e-06, 0.0, 0.0, 0.0, 1.0966208586777776e-06]
linear_acceleration: 
  x: 0.203097628731
  y: 0.573892541786
  z: 10.0733673383
linear_acceleration_covariance: [0.0015387262937311438, 0.0, 0.0, 0.0, 0.0015387262937311438, 0.0, 0.0, 0.0, 0.0015387262937311438]
---
header: 
  seq: 80
  stamp: 
    secs: 1568011758
    nsecs: 384519987
  frame_id: "imu_link"
orientation: 
  x: 0.0030548063
  y: 0.969481384
  z: -0.2432431478
  w: -0.0299438156
orientation_covariance: [0.002741552146694444, 0.0, 0.0, 0.0, 0.002741552146694444, 0.0, 0.0, 0.0, 0.007615422629706791]
angular_velocity: 
  x: 0.000846983794814
  y: -0.000383540840015
  z: -0.00129450655987
angular_velocity_covariance: [1.0966208586777776e-06, 0.0, 0.0, 0.0, 1.0966208586777776e-06, 0.0, 0.0, 0.0, 1.0966208586777776e-06]
linear_acceleration: 
  x: 0.2056871703
  y: 0.575662766329
  z: 10.0762841025
linear_acceleration_covariance: [0.0015387262937311438, 0.0, 0.0, 0.0, 0.0015387262937311438, 0.0, 0.0, 0.0, 0.0015387262937311438]
---
header: 
  seq: 81
  stamp: 
    secs: 1568011758
    nsecs: 436399831
  frame_id: "imu_link"
orientation: 
