
header: 
  seq: 0
  stamp: 
    secs: 1568011753
    nsecs: 843980926
  frame_id: "imu_link"
vector: 
  x: -1.64658260345
  y: -0.895761728287
  z: 3.42131733894
---
header: 
  seq: 1
  stamp: 
    secs: 1568011753
    nsecs: 897021031
  frame_id: "imu_link"
vector: 
  x: -1.646702528
  y: -0.897206425667
  z: 3.42162132263
---
header: 
  seq: 2
  stamp: 
    secs: 1568011753
    nsecs: 950051812
  frame_id: "imu_link"
vector: 
  x: -1.6700026989
  y: -0.882999658585
  z: 3.45589876175
---
header: 
  seq: 3
  stamp: 
    secs: 1568011754
    nsecs:   3234833
  frame_id: "imu_link"
vector: 
  x: -1.67052018642
  y: -0.883731245995
  z: 3.45404219627
---
header: 
  seq: 4
  stamp: 
    secs: 1568011754
    nsecs:  56335874
  frame_id: "imu_link"
vector: 
  x: -1.69475436211
  y: -0.877719283104
  z: 3.44440364838
---
header: 
  seq: 5
  stamp: 
    secs: 1568011754
    nsecs: 109292176
  frame_id: "imu_link"
vector: 
  x: -1.68781912327
  y: -0.87456715107
  z: 3.43142032623
---
header: 
  seq: 6
  stamp: 
    secs: 1568011754
    nsecs: 161290041
  frame_id: "imu_link"
vector: 
  x: -1.67989182472
  y: -0.871146142483
  z: 3.45386457443
---
header: 
  seq: 7
  stamp: 
    secs: 1568011754
    nsecs: 214359260
  frame_id: "imu_link"
vector: 
  x: -1.6781141758
  y: -0.8712028265
  z: 3.44430732727
---
header: 
  seq: 8
  stamp: 
    secs: 1568011754
    nsecs: 267525718
  frame_id: "imu_link"
vector: 
  x: -1.66651439667
  y: -0.853258728981
  z: 3.44936609268
---
header: 
  seq: 9
  stamp: 
    secs: 1568011754
    nsecs: 320652593
  frame_id: "imu_link"
vector: 
  x: -1.67297816277
  y: -0.844804346561
  z: 3.44190597534
---
header: 
  seq: 10
  stamp: 
    secs: 1568011754
    nsecs: 372400405
  frame_id: "imu_link"
vector: 
  x: -1.66820311546
  y: -0.852308750153
  z: 3.42153310776
---
header: 
  seq: 11
  stamp: 
    secs: 1568011754
    nsecs: 425426134
  frame_id: "imu_link"
vector: 
  x: -1.68360042572
  y: -0.862623929977
  z: 3.45712184906
---
header: 
  seq: 12
  stamp: 
    secs: 1568011754
    nsecs: 478365509
  frame_id: "imu_link"
vector: 
  x: -1.66155195236
  y: -0.883411288261
  z: 3.47367477417
---
header: 
  seq: 13
  stamp: 
    secs: 1568011754
    nsecs: 531528843
  frame_id: "imu_link"
vector: 
  x: -1.66693329811
  y: -0.883906006813
  z: 3.46158742905
---
header: 
  seq: 14
  stamp: 
    secs: 1568011754
    nsecs: 584893999
  frame_id: "imu_link"
vector: 
  x: -1.66233730316
  y: -0.883729100227
  z: 3.45646810532
---
header: 
  seq: 15
  stamp: 
    secs: 1568011754
    nsecs: 636683634
  frame_id: "imu_link"
vector: 
  x: -1.65350556374
  y: -0.891321480274
  z: 3.45428872108
---
header: 
  seq: 16
  stamp: 
    secs: 1568011754
    nsecs: 689640561
  frame_id: "imu_link"
vector: 
  x: -1.66430413723
  y: -0.857030808926
  z: 3.4436249733
---
header: 
  seq: 17
  stamp: 
    secs: 1568011754
    nsecs: 742861916
  frame_id: "imu_link"
vector: 
  x: -1.6507601738
  y: -0.86479473114
  z: 3.42226457596
---
header: 
  seq: 18
  stamp: 
    secs: 1568011754
    nsecs: 795997020
  frame_id: "imu_link"
vector: 
  x: -1.66235280037
  y: -0.876004219055
  z: 3.43976616859
---
header: 
  seq: 19
  stamp: 
    secs: 1568011754
    nsecs: 849669311
  frame_id: "imu_link"
vector: 
  x: -1.65912485123
  y: -0.881486296654
  z: 3.46670007706
---
header: 
  seq: 20
  stamp: 
    secs: 1568011754
    nsecs: 900923791
  frame_id: "imu_link"
vector: 
  x: -1.6658885479
  y: -0.875031471252
  z: 3.45864439011
---
header: 
  seq: 21
  stamp: 
    secs: 1568011754
    nsecs: 954100093
  frame_id: "imu_link"
vector: 
  x: -1.65489697456
  y: -0.880336105824
  z: 3.43746471405
---
header: 
  seq: 22
  stamp: 
    secs: 1568011755
    nsecs:   7323790
  frame_id: "imu_link"
vector: 
  x: -1.68843662739
  y: -0.897269785404
  z: 3.42468452454
---
header: 
  seq: 23
  stamp: 
    secs: 1568011755
    nsecs:  58976811
  frame_id: "imu_link"
vector: 
  x: -1.68863153458
  y: -0.882646918297
  z: 3.43193769455
---
header: 
  seq: 24
  stamp: 
    secs: 1568011755
    nsecs: 112594572
  frame_id: "imu_link"
vector: 
  x: -1.68185329437
  y: -0.884149312973
  z: 3.43498754501
---
header: 
  seq: 25
  stamp: 
    secs: 1568011755
    nsecs: 165499936
  frame_id: "imu_link"
vector: 
  x: -1.67154097557
  y: -0.90141248703
  z: 3.43636417389
---
header: 
  seq: 26
  stamp: 
    secs: 1568011755
    nsecs: 221501030
  frame_id: "imu_link"
vector: 
  x: -1.6743657589
  y: -0.864111423492
  z: 3.43332886696
---
header: 
  seq: 27
  stamp: 
    secs: 1568011755
    nsecs: 271245926
  frame_id: "imu_link"
vector: 
  x: -1.66540455818
  y: -0.859954476357
  z: 3.42673397064
---
header: 
  seq: 28
  stamp: 
    secs: 1568011755
    nsecs: 323594520
  frame_id: "imu_link"
vector: 
  x: -1.65810370445
  y: -0.874479651451
  z: 3.41507434845
---
header: 
  seq: 29
  stamp: 
    secs: 1568011755
    nsecs: 376497332
  frame_id: "imu_link"
vector: 
  x: -1.68809020519
  y: -0.899284720421
  z: 3.42819356918
---
header: 
  seq: 30
  stamp: 
    secs: 1568011755
    nsecs: 429662436
  frame_id: "imu_link"
vector: 
  x: -1.68838715553
  y: -0.868152022362
  z: 3.41566848755
---
header: 
  seq: 31
  stamp: 
    secs: 1568011755
    nsecs: 482494519
  frame_id: "imu_link"
vector: 
  x: -1.68860971928
  y: -0.854206562042
  z: 3.42806863785
---
header: 
  seq: 32
  stamp: 
    secs: 1568011755
    nsecs: 535619467
  frame_id: "imu_link"
vector: 
  x: -1.67759680748
  y: -0.883261680603
  z: 3.45706701279
---
header: 
  seq: 33
  stamp: 
    secs: 1568011755
    nsecs: 587674780
  frame_id: "imu_link"
vector: 
  x: -1.68804645538
  y: -0.901680886745
  z: 3.45440483093
---
header: 
  seq: 34
  stamp: 
    secs: 1568011755
    nsecs: 640876655
  frame_id: "imu_link"
vector: 
  x: -1.69186210632
  y: -0.901267528534
  z: 3.43566513062
---
header: 
  seq: 35
  stamp: 
    secs: 1568011755
    nsecs: 694020301
  frame_id: "imu_link"
vector: 
  x: -1.67982435226
  y: -0.891506075859
  z: 3.4454331398
---
header: 
  seq: 36
  stamp: 
    secs: 1568011755
    nsecs: 747082384
  frame_id: "imu_link"
vector: 
  x: -1.69932699203
  y: -0.903162062168
  z: 3.42486190796
---
header: 
  seq: 37
  stamp: 
    secs: 1568011755
    nsecs: 800108686
  frame_id: "imu_link"
vector: 
  x: -1.70363712311
  y: -0.893450737
  z: 3.4408686161
---
header: 
  seq: 38
  stamp: 
    secs: 1568011755
    nsecs: 853383530
  frame_id: "imu_link"
vector: 
  x: -1.69517993927
  y: -0.880295872688
  z: 3.45653390884
---
header: 
  seq: 39
  stamp: 
    secs: 1568011755
    nsecs: 905007957
  frame_id: "imu_link"
vector: 
  x: -1.68362164497
  y: -0.861228346825
  z: 3.44959568977
---
header: 
  seq: 40
  stamp: 
    secs: 1568011755
    nsecs: 958190717
  frame_id: "imu_link"
vector: 
  x: -1.69008088112
  y: -0.867193460464
  z: 3.4513669014
---
header: 
  seq: 41
  stamp: 
    secs: 1568011756
    nsecs:  11234051
  frame_id: "imu_link"
vector: 
  x: -1.70308125019
  y: -0.878733277321
  z: 3.44326496124
---
header: 
  seq: 42
  stamp: 
    secs: 1568011756
    nsecs:  62984467
  frame_id: "imu_link"
vector: 
  x: -1.70513367653
  y: -0.87577188015
  z: 3.43093705177
---
header: 
  seq: 43
  stamp: 
    secs: 1568011756
    nsecs: 116296394
  frame_id: "imu_link"
vector: 
  x: -1.68661940098
  y: -0.883399963379
  z: 3.44901514053
---
header: 
  seq: 44
  stamp: 
    secs: 1568011756
    nsecs: 169837644
  frame_id: "imu_link"
vector: 
  x: -1.69135332108
  y: -0.884675502777
  z: 3.45112037659
---
header: 
  seq: 45
  stamp: 
    secs: 1568011756
    nsecs: 222458634
  frame_id: "imu_link"
vector: 
  x: -1.70371961594
  y: -0.909577488899
  z: 3.46086454391
---
header: 
  seq: 46
  stamp: 
    secs: 1568011756
    nsecs: 275510925
  frame_id: "imu_link"
vector: 
  x: -1.68621039391
  y: -0.876373648643
  z: 3.4629907608
---
header: 
  seq: 47
  stamp: 
    secs: 1568011756
    nsecs: 327619259
  frame_id: "imu_link"
vector: 
  x: -1.68428969383
  y: -0.889377474785
  z: 3.45705223083
---
header: 
  seq: 48
  stamp: 
    secs: 1568011756
    nsecs: 380423634
  frame_id: "imu_link"
vector: 
  x: -1.68687105179
  y: -0.91968536377
  z: 3.44566059113
---
header: 
  seq: 49
  stamp: 
    secs: 1568011756
    nsecs: 431060457
  frame_id: "imu_link"
vector: 
  x: -1.69879102707
  y: -0.902541220188
  z: 3.44763422012
---
header: 
  seq: 50
  stamp: 
    secs: 1568011756
    nsecs: 484211915
  frame_id: "imu_link"
vector: 
  x: -1.71379327774
  y: -0.885315895081
  z: 3.45940566063
---
header: 
  seq: 51
  stamp: 
    secs: 1568011756
    nsecs: 536086915
  frame_id: "imu_link"
vector: 
  x: -1.70638072491
  y: -0.869158864021
  z: 3.46440219879
---
header: 
  seq: 52
  stamp: 
    secs: 1568011756
    nsecs: 589420092
  frame_id: "imu_link"
vector: 
  x: -1.68945431709
  y: -0.861526668072
  z: 3.46652269363
---
header: 
  seq: 53
  stamp: 
    secs: 1568011756
    nsecs: 642721082
  frame_id: "imu_link"
vector: 
  x: -1.65554010868
  y: -0.908077836037
  z: 3.43335056305
---
header: 
  seq: 54
  stamp: 
    secs: 1568011756
    nsecs: 694347592
  frame_id: "imu_link"
vector: 
  x: -1.66777825356
  y: -0.919164061546
  z: 3.43560028076
---
header: 
  seq: 55
  stamp: 
    secs: 1568011756
    nsecs: 748726394
  frame_id: "imu_link"
vector: 
  x: -1.6694791317
  y: -0.91598534584
  z: 3.42768383026
---
header: 
  seq: 56
  stamp: 
    secs: 1568011756
    nsecs: 800394415
  frame_id: "imu_link"
vector: 
  x: -1.65639030933
  y: -0.91729581356
  z: 3.43684005737
---
header: 
  seq: 57
  stamp: 
    secs: 1568011756
    nsecs: 853918738
  frame_id: "imu_link"
vector: 
  x: -1.68196105957
  y: -0.915023207664
  z: 3.45478534698
---
header: 
  seq: 58
  stamp: 
    secs: 1568011756
    nsecs: 906470717
  frame_id: "imu_link"
vector: 
  x: -1.6927959919
  y: -0.882459580898
  z: 3.44467663765
---
header: 
  seq: 59
  stamp: 
    secs: 1568011756
    nsecs: 959604050
  frame_id: "imu_link"
vector: 
  x: -1.6744068861
  y: -0.888159513474
  z: 3.46007633209
---
header: 
  seq: 60
  stamp: 
    secs: 1568011757
    nsecs:  12668165
  frame_id: "imu_link"
vector: 
  x: -1.68277311325
  y: -0.878050088882
  z: 3.46468687057
---
header: 
  seq: 61
  stamp: 
    secs: 1568011757
    nsecs:  65784258
  frame_id: "imu_link"
vector: 
  x: -1.68283057213
  y: -0.873955011368
  z: 3.45778727531
---
header: 
  seq: 62
  stamp: 
    secs: 1568011757
    nsecs: 119069519
  frame_id: "imu_link"
vector: 
  x: -1.64141750336
  y: -0.894860386848
  z: 3.4371008873
---
header: 
  seq: 63
  stamp: 
    secs: 1568011757
    nsecs: 167142904
  frame_id: "imu_link"
vector: 
  x: -1.65974760056
  y: -0.881295442581
  z: 3.45005273819
---
header: 
  seq: 64
  stamp: 
    secs: 1568011757
    nsecs: 220094258
  frame_id: "imu_link"
vector: 
  x: -1.65229034424
  y: -0.891066193581
  z: 3.43381810188
---
header: 
  seq: 65
  stamp: 
    secs: 1568011757
    nsecs: 273134102
  frame_id: "imu_link"
vector: 
  x: -1.67328882217
  y: -0.896187901497
  z: 3.43579864502
---
header: 
  seq: 66
  stamp: 
    secs: 1568011757
    nsecs: 326344727
  frame_id: "imu_link"
vector: 
  x: -1.68165063858
  y: -0.883400380611
  z: 3.45340275764
---
header: 
  seq: 67
  stamp: 
    secs: 1568011757
    nsecs: 379142488
  frame_id: "imu_link"
vector: 
  x: -1.6615871191
  y: -0.883888244629
  z: 3.43523979187
---
header: 
  seq: 68
  stamp: 
    secs: 1568011757
    nsecs: 432248165
  frame_id: "imu_link"
vector: 
  x: -1.65656471252
  y: -0.86776548624
  z: 3.43640232086
---
header: 
  seq: 69
  stamp: 
    secs: 1568011757
    nsecs: 485187123
  frame_id: "imu_link"
vector: 
  x: -1.65792346001
  y: -0.868804335594
  z: 3.44574689865
---
header: 
  seq: 70
  stamp: 
    secs: 1568011757
    nsecs: 538286342
  frame_id: "imu_link"
vector: 
  x: -1.67394518852
  y: -0.85778015852
  z: 3.44764518738
---
header: 
  seq: 71
  stamp: 
    secs: 1568011757
    nsecs: 591724935
  frame_id: "imu_link"
vector: 
  x: -1.67219734192
  y: -0.848832011223
  z: 3.45053291321
---
header: 
  seq: 72
  stamp: 
    secs: 1568011757
    nsecs: 643667696
  frame_id: "imu_link"
vector: 
  x: -1.66446471214
  y: -0.869603037834
  z: 3.43402194977
---
header: 
  seq: 73
  stamp: 
    secs: 1568011757
    nsecs: 696660560
  frame_id: "imu_link"
vector: 
  x: -1.66446864605
  y: -0.905022323132
  z: 3.44556879997
---
header: 
  seq: 74
  stamp: 
    secs: 1568011757
    nsecs: 749681342
  frame_id: "imu_link"
vector: 
  x: -1.65441286564
  y: -0.90843975544
  z: 3.44964909554
---
header: 
  seq: 75
  stamp: 
    secs: 1568011757
    nsecs: 802870508
  frame_id: "imu_link"
vector: 
  x: -1.65701293945
  y: -0.902213454247
  z: 3.45138955116
---
header: 
  seq: 76
  stamp: 
    secs: 1568011757
    nsecs: 856114779
  frame_id: "imu_link"
vector: 
  x: -1.66141319275
  y: -0.872984528542
  z: 3.43473625183
---
header: 
  seq: 77
  stamp: 
    secs: 1568011757
    nsecs: 909049362
  frame_id: "imu_link"
vector: 
  x: -1.67366755009
  y: -0.880628883839
  z: 3.42731714249
---
header: 
  seq: 78
  stamp: 
    secs: 1568011757
    nsecs: 962189310
  frame_id: "imu_link"
vector: 
  x: -1.68236243725
  y: -0.875615000725
  z: 3.4330394268
---
header: 
  seq: 79
  stamp: 
    secs: 1568011758
    nsecs:  15521862
  frame_id: "imu_link"
vector: 
  x: -1.66877925396
  y: -0.872899532318
  z: 3.42659664154
---
header: 
  seq: 80
  stamp: 
    secs: 1568011758
    nsecs:  67294466
  frame_id: "imu_link"
vector: 
  x: -1.66596877575
  y: -0.871725797653
  z: 3.41893839836
---
header: 
  seq: 81
  stamp: 
    secs: 1568011758
    nsecs: 119157956
  frame_id: "imu_link"
vector: 
  x: -1.67220461369
  y: -0.87952029705
  z: 3.42948293686
---
header: 
  seq: 82
  stamp: 
    secs: 1568011758
    nsecs: 172108529
  frame_id: "imu_link"
vector: 
  x: -1.67494249344
  y: -0.882061839104
  z: 3.45165348053
---
header: 
  seq: 83
  stamp: 
    secs: 1568011758
    nsecs: 225103946
  frame_id: "imu_link"
vector: 
  x: -1.65613651276
  y: -0.90180683136
  z: 3.47331047058
---
header: 
  seq: 84
  stamp: 
    secs: 1568011758
    nsecs: 278289310
  frame_id: "imu_link"
vector: 
  x: -1.65774822235
  y: -0.899392962456
  z: 3.4614071846
---
header: 
  seq: 85
  stamp: 
    secs: 1568011758
    nsecs: 331532383
  frame_id: "imu_link"
vector: 
  x: -1.66878855228
  y: -0.874413371086
  z: 3.46524333954
---
header: 
  seq: 86
  stamp: 
    secs: 1568011758
    nsecs: 384519987
  frame_id: "imu_link"
vector: 
  x: -1.67390942574
  y: -0.845157146454
  z: 3.44609212875
---
header: 
  seq: 87
  stamp: 
    secs: 1568011758
    nsecs: 436399831
  frame_id: "imu_link"
vector: 
  x: -1.66530692577
  y: -0.851126194
  z: 3.44987177849
---
header: 
  seq: 88
  stamp: 
    secs: 1568011758
    nsecs: 491789310
  frame_id: "imu_link"
vector: 
  x: -1.66503357887
  y: -0.854246854782
  z: 3.44261264801
---
header: 
  seq: 89
  stamp: 
    secs: 1568011758
    nsecs: 542448320
  frame_id: "imu_link"
vector: 
  x: -1.67527914047
  y: -0.855768322945
  z: 3.44839048386
---
header: 
  seq: 90
  stamp: 
    secs: 1568011758
    nsecs: 595786081
  frame_id: "imu_link"
vector: 
  x: -1.67169511318
  y: -0.856140851974
  z: 3.45189714432
---
header: 
  seq: 91
  stamp: 
    secs: 1568011758
    nsecs: 649028060
  frame_id: "imu_link"
vector: 
  x: -1.66425156593
  y: -0.872705221176
  z: 3.43460083008
---
header: 
  seq: 92
  stamp: 
    secs: 1568011758
    nsecs: 702041185
  frame_id: "imu_link"
vector: 
  x: -1.6678853035
  y: -0.888955891132
  z: 3.40951681137
---
header: 
  seq: 93
  stamp: 
    secs: 1568011758
    nsecs: 750261341
  frame_id: "imu_link"
vector: 
  x: -1.67641687393
  y: -0.901779174805
  z: 3.41977095604
---
header: 
  seq: 94
  stamp: 
    secs: 1568011758
    nsecs: 804639154
  frame_id: "imu_link"
vector: 
  x: -1.66974925995
  y: -0.891889214516
  z: 3.42983651161
---
header: 
  seq: 95
  stamp: 
    secs: 1568011758
    nsecs: 856152331
  frame_id: "imu_link"
vector: 
  x: -1.66352248192
  y: -0.887117147446
  z: 3.44298028946
---
header: 
  seq: 96
  stamp: 
    secs: 1568011758
    nsecs: 909009674
  frame_id: "imu_link"
vector: 
  x: -1.6574960947
  y: -0.884523034096
  z: 3.45739936829
---
header: 
  seq: 97
  stamp: 
    secs: 1568011758
    nsecs: 962104883
  frame_id: "imu_link"
vector: 
  x: -1.64876627922
  y: -0.906955122948
  z: 3.4357843399
---
header: 
  seq: 98
  stamp: 
    secs: 1568011759
    nsecs:  14970404
  frame_id: "imu_link"
vector: 
  x: -1.67522954941
  y: -0.910807967186
  z: 3.44548368454
---
header: 
  seq: 99
  stamp: 
    secs: 1568011759
    nsecs:  68322851
  frame_id: "imu_link"
vector: 
  x: -1.69680559635
  y: -0.921484470367
  z: 3.44075012207
---
header: 
  seq: 100
  stamp: 
    secs: 1568011759
    nsecs: 119094674
  frame_id: "imu_link"
vector: 
  x: -1.6967343092
  y: -0.909905791283
  z: 3.46450424194
---
header: 
  seq: 101
  stamp: 
    secs: 1568011759
    nsecs: 170842851
  frame_id: "imu_link"
vector: 
  x: -1.69564902782
  y: -0.879848003387
  z: 3.45770955086
---
header: 
  seq: 102
  stamp: 
    secs: 1568011759
    nsecs: 224145872
  frame_id: "imu_link"
vector: 
  x: -1.69499349594
  y: -0.876626193523
  z: 3.41940808296
---
header: 
  seq: 103
  stamp: 
    secs: 1568011759
    nsecs: 277282278
  frame_id: "imu_link"
vector: 
  x: -1.68754827976
  y: -0.890963077545
  z: 3.42088508606
---
header: 
  seq: 104
  stamp: 
    secs: 1568011759
    nsecs: 329045299
  frame_id: "imu_link"
vector: 
  x: -1.67902088165
  y: -0.88412976265
  z: 3.48481583595
---
header: 
  seq: 105
  stamp: 
    secs: 1568011759
    nsecs: 382138112
  frame_id: "imu_link"
vector: 
  x: -1.67784142494
  y: -0.884023785591
  z: 3.47518730164
---
header: 
  seq: 106
  stamp: 
    secs: 1568011759
    nsecs: 435028008
  frame_id: "imu_link"
vector: 
  x: -1.67385601997
  y: -0.876111626625
  z: 3.46225738525
---
header: 
  seq: 107
  stamp: 
    secs: 1568011759
    nsecs: 488159258
  frame_id: "imu_link"
vector: 
  x: -1.66735553741
  y: -0.87678706646
  z: 3.42914748192
---
header: 
  seq: 108
  stamp: 
    secs: 1568011759
    nsecs: 541002851
  frame_id: "imu_link"
vector: 
  x: -1.65561640263
  y: -0.888391315937
  z: 3.44268774986
---
header: 
  seq: 109
  stamp: 
    secs: 1568011759
    nsecs: 594844310
  frame_id: "imu_link"
vector: 
  x: -1.65393710136
  y: -0.886584877968
  z: 3.42186594009
---
header: 
  seq: 110
  stamp: 
    secs: 1568011759
    nsecs: 644002851
  frame_id: "imu_link"
vector: 
  x: -1.65347027779
  y: -0.854102492332
  z: 3.41807317734
---
header: 
  seq: 111
  stamp: 
    secs: 1568011759
    nsecs: 696540039
  frame_id: "imu_link"
vector: 
  x: -1.68058288097
  y: -0.881647288799
  z: 3.41137313843
---
header: 
  seq: 112
  stamp: 
    secs: 1568011759
    nsecs: 749567487
  frame_id: "imu_link"
vector: 
  x: -1.67840754986
  y: -0.899874269962
  z: 3.42627191544
---
header: 
  seq: 113
  stamp: 
    secs: 1568011759
    nsecs: 802609049
  frame_id: "imu_link"
vector: 
  x: -1.66663050652
  y: -0.873073160648
  z: 3.44223594666
---
header: 
  seq: 114
  stamp: 
    secs: 1568011759
    nsecs: 853183580
  frame_id: "imu_link"
vector: 
  x: -1.67994713783
  y: -0.861029982567
  z: 3.45079278946
---
header: 
  seq: 115
  stamp: 
    secs: 1568011759
    nsecs: 906585091
  frame_id: "imu_link"
vector: 
  x: -1.67474114895
  y: -0.866334855556
  z: 3.45187520981
---
header: 
  seq: 116
  stamp: 
    secs: 1568011759
    nsecs: 959984987
  frame_id: "imu_link"
vector: 
  x: -1.68638348579
  y: -0.868594646454
  z: 3.47003817558
---
header: 
  seq: 117
  stamp: 
    secs: 1568011760
    nsecs:  11020195
  frame_id: "imu_link"
vector: 
  x: -1.6641753912
  y: -0.897196054459
  z: 3.42417812347
---
header: 
  seq: 118
  stamp: 
    secs: 1568011760
    nsecs:  64167591
  frame_id: "imu_link"
vector: 
  x: -1.67483997345
  y: -0.890905380249
  z: 3.42283558846
---
header: 
  seq: 119
  stamp: 
    secs: 1568011760
    nsecs: 117661236
  frame_id: "imu_link"
vector: 
  x: -1.68987941742
  y: -0.887667179108
  z: 3.44893598557
---
header: 
  seq: 120
  stamp: 
    secs: 1568011760
    nsecs: 169576341
  frame_id: "imu_link"
vector: 
  x: -1.69612014294
  y: -0.879008293152
  z: 3.44223022461
---
header: 
  seq: 121
  stamp: 
    secs: 1568011760
    nsecs: 222679101
  frame_id: "imu_link"
vector: 
  x: -1.67689704895
  y: -0.876726150513
  z: 3.44702911377
---
header: 
  seq: 122
  stamp: 
    secs: 1568011760
    nsecs: 275868841
  frame_id: "imu_link"
vector: 
  x: -1.69069051743
  y: -0.897753179073
  z: 3.45912265778
---
header: 
  seq: 123
  stamp: 
    secs: 1568011760
    nsecs: 329024622
  frame_id: "imu_link"
vector: 
  x: -1.69657480717
  y: -0.89058059454
  z: 3.46428203583
---
header: 
  seq: 124
  stamp: 
    secs: 1568011760
    nsecs: 382058997
  frame_id: "imu_link"
vector: 
  x: -1.67986226082
  y: -0.88180232048
  z: 3.45859622955
---
header: 
  seq: 125
  stamp: 
    secs: 1568011760
    nsecs: 435136549
  frame_id: "imu_link"
vector: 
  x: -1.6643550396
  y: -0.899128317833
  z: 3.44634246826
---
header: 
  seq: 126
  stamp: 
    secs: 1568011760
    nsecs: 488311601
  frame_id: "imu_link"
vector: 
  x: -1.67153525352
  y: -0.891134142876
  z: 3.4411034584
---
header: 
  seq: 127
  stamp: 
    secs: 1568011760
    nsecs: 540174830
  frame_id: "imu_link"
vector: 
  x: -1.66298174858
  y: -0.871242821217
  z: 3.42533564568
---
header: 
  seq: 128
  stamp: 
    secs: 1568011760
    nsecs: 593612851
  frame_id: "imu_link"
vector: 
  x: -1.65026640892
  y: -0.87815374136
  z: 3.43219852448
---
header: 
  seq: 129
  stamp: 
    secs: 1568011760
    nsecs: 646630768
  frame_id: "imu_link"
vector: 
  x: -1.66553974152
  y: -0.89839142561
  z: 3.43511128426
---
header: 
  seq: 130
  stamp: 
    secs: 1568011760
    nsecs: 698411705
  frame_id: "imu_link"
vector: 
  x: -1.66513335705
  y: -0.898522496223
  z: 3.4363451004
---
header: 
  seq: 131
  stamp: 
    secs: 1568011760
    nsecs: 751736445
  frame_id: "imu_link"
vector: 
  x: -1.69997549057
  y: -0.856030225754
  z: 3.48383283615
---
header: 
  seq: 132
  stamp: 
    secs: 1568011760
    nsecs: 804448163
  frame_id: "imu_link"
vector: 
  x: -1.70400929451
  y: -0.840398788452
  z: 3.48364162445
---
header: 
  seq: 133
  stamp: 
    secs: 1568011760
    nsecs: 857509309
  frame_id: "imu_link"
vector: 
  x: -1.71261143684
  y: -0.842222571373
  z: 3.48356032372
---
header: 
  seq: 134
  stamp: 
    secs: 1568011760
    nsecs: 908175715
  frame_id: "imu_link"
vector: 
  x: -1.66563391685
  y: -0.86510848999
  z: 3.45200634003
---
header: 
  seq: 135
  stamp: 
    secs: 1568011760
    nsecs: 961230038
  frame_id: "imu_link"
vector: 
  x: -1.65478885174
  y: -0.868052899837
  z: 3.4346473217
---
header: 
  seq: 136
  stamp: 
    secs: 1568011761
    nsecs:  14527642
  frame_id: "imu_link"
vector: 
  x: -1.65018558502
  y: -0.885445475578
  z: 3.42727923393
---
header: 
  seq: 137
  stamp: 
    secs: 1568011761
    nsecs:  66016444
  frame_id: "imu_link"
vector: 
  x: -1.68277907372
  y: -0.894002377987
  z: 3.44189453125
---
header: 
  seq: 138
  stamp: 
    secs: 1568011761
    nsecs: 119342382
  frame_id: "imu_link"
vector: 
  x: -1.71218442917
  y: -0.880939602852
  z: 3.43302106857
---
header: 
  seq: 139
  stamp: 
    secs: 1568011761
    nsecs: 171008215
  frame_id: "imu_link"
vector: 
  x: -1.68483364582
  y: -0.867662489414
  z: 3.41771745682
---
header: 
  seq: 140
  stamp: 
    secs: 1568011761
    nsecs: 224023840
  frame_id: "imu_link"
vector: 
  x: -1.65954136848
  y: -0.868562698364
  z: 3.42896461487
---
header: 
  seq: 141
  stamp: 
    secs: 1568011761
    nsecs: 277001861
  frame_id: "imu_link"
vector: 
  x: -1.70032906532
  y: -0.863094508648
  z: 3.46101808548
---
header: 
  seq: 142
  stamp: 
    secs: 1568011761
    nsecs: 330228371
  frame_id: "imu_link"
vector: 
  x: -1.70754051208
  y: -0.860120654106
  z: 3.46507787704
---
header: 
  seq: 143
  stamp: 
    secs: 1568011761
    nsecs: 384299673
  frame_id: "imu_link"
vector: 
  x: -1.69337379932
  y: -0.88243073225
  z: 3.4579539299
---
header: 
  seq: 144
  stamp: 
    secs: 1568011761
    nsecs: 433648371
  frame_id: "imu_link"
vector: 
  x: -1.6831792593
  y: -0.908307433128
  z: 3.43216562271
---
header: 
  seq: 145
  stamp: 
    secs: 1568011761
    nsecs: 487072069
  frame_id: "imu_link"
vector: 
  x: -1.70037376881
  y: -0.910829007626
  z: 3.47058296204
---
header: 
  seq: 146
  stamp: 
    secs: 1568011761
    nsecs: 539940142
  frame_id: "imu_link"
vector: 
  x: -1.69711947441
  y: -0.911746740341
  z: 3.47842431068
---
header: 
  seq: 147
  stamp: 
    secs: 1568011761
    nsecs: 593128996
  frame_id: "imu_link"
vector: 
  x: -1.66116571426
  y: -0.904365420341
  z: 3.42811751366
---
header: 
  seq: 148
  stamp: 
    secs: 1568011761
    nsecs: 641408580
  frame_id: "imu_link"
vector: 
  x: -1.67439103127
  y: -0.877978563309
  z: 3.41921401024
---
header: 
  seq: 149
  stamp: 
    secs: 1568011761
    nsecs: 694381392
  frame_id: "imu_link"
vector: 
  x: -1.67228591442
  y: -0.866218566895
  z: 3.42072868347
---
header: 
  seq: 150
  stamp: 
    secs: 1568011761
    nsecs: 747871288
  frame_id: "imu_link"
vector: 
  x: -1.66799592972
  y: -0.860652804375
  z: 3.43024301529
---
header: 
  seq: 151
  stamp: 
    secs: 1568011761
    nsecs: 800559673
  frame_id: "imu_link"
vector: 
  x: -1.6702388525
  y: -0.881087183952
  z: 3.42336273193
---
header: 
  seq: 152
  stamp: 
    secs: 1568011761
    nsecs: 853649309
  frame_id: "imu_link"
vector: 
  x: -1.68437027931
  y: -0.875634253025
  z: 3.44019603729
---
header: 
  seq: 153
  stamp: 
    secs: 1568011761
    nsecs: 906809048
  frame_id: "imu_link"
vector: 
  x: -1.69379520416
  y: -0.873882174492
  z: 3.43850588799
---
header: 
  seq: 154
  stamp: 
    secs: 1568011761
    nsecs: 959855819
  frame_id: "imu_link"
vector: 
  x: -1.67706465721
  y: -0.856632828712
  z: 3.42008543015
---
header: 
  seq: 155
  stamp: 
    secs: 1568011762
    nsecs:  11735663
  frame_id: "imu_link"
vector: 
  x: -1.64527845383
  y: -0.877640485764
  z: 3.39628553391
---
header: 
  seq: 156
  stamp: 
    secs: 1568011762
    nsecs:  64693423
  frame_id: "imu_link"
vector: 
  x: -1.67168235779
  y: -0.899705290794
  z: 3.42115807533
---
header: 
  seq: 157
  stamp: 
    secs: 1568011762
    nsecs: 121787434
  frame_id: "imu_link"
vector: 
  x: -1.6781232357
  y: -0.875066280365
  z: 3.43929648399
---
header: 
  seq: 158
  stamp: 
    secs: 1568011762
    nsecs: 171111861
  frame_id: "imu_link"
vector: 
  x: -1.67750513554
  y: -0.845952391624
  z: 3.42877626419
---
header: 
  seq: 159
  stamp: 
    secs: 1568011762
    nsecs: 224311652
  frame_id: "imu_link"
vector: 
  x: -1.65982747078
  y: -0.859922170639
  z: 3.42478728294
---
header: 
  seq: 160
  stamp: 
    secs: 1568011762
    nsecs: 276037434
  frame_id: "imu_link"
vector: 
  x: -1.68347501755
  y: -0.890666127205
  z: 3.44970846176
---
header: 
  seq: 161
  stamp: 
    secs: 1568011762
    nsecs: 329006027
  frame_id: "imu_link"
vector: 
  x: -1.68972253799
  y: -0.896832883358
  z: 3.44702339172
---
header: 
  seq: 162
  stamp: 
    secs: 1568011762
    nsecs: 382077381
  frame_id: "imu_link"
vector: 
  x: -1.68917822838
  y: -0.874469637871
  z: 3.44141578674
---
header: 
  seq: 163
  stamp: 
    secs: 1568011762
    nsecs: 435167277
  frame_id: "imu_link"
vector: 
  x: -1.69583594799
  y: -0.857245147228
  z: 3.43902349472
---
header: 
  seq: 164
  stamp: 
    secs: 1568011762
    nsecs: 488062017
  frame_id: "imu_link"
vector: 
  x: -1.69865584373
  y: -0.84189593792
  z: 3.43801045418
---
header: 
  seq: 165
  stamp: 
    secs: 1568011762
    nsecs: 540967121
  frame_id: "imu_link"
vector: 
  x: -1.65669202805
  y: -0.904024839401
  z: 3.42856216431
---
header: 
  seq: 166
  stamp: 
    secs: 1568011762
    nsecs: 598651496
  frame_id: "imu_link"
vector: 
  x: -1.66477358341
  y: -0.893416643143
  z: 3.42469644547
---
header: 
  seq: 167
  stamp: 
    secs: 1568011762
    nsecs: 646287538
  frame_id: "imu_link"
vector: 
  x: -1.67928624153
  y: -0.880416810513
  z: 3.43229293823
---
header: 
  seq: 168
  stamp: 
    secs: 1568011762
    nsecs: 696943631
  frame_id: "imu_link"
vector: 
  x: -1.70285081863
  y: -0.89677464962
  z: 3.44899082184
---
header: 
  seq: 169
  stamp: 
    secs: 1568011762
    nsecs: 750009985
  frame_id: "imu_link"
vector: 
  x: -1.71551632881
  y: -0.882868289948
  z: 3.4599814415
---
header: 
  seq: 170
  stamp: 
    secs: 1568011762
    nsecs: 803151548
  frame_id: "imu_link"
vector: 
  x: -1.70713019371
  y: -0.868151783943
  z: 3.46463632584
---
header: 
  seq: 171
  stamp: 
    secs: 1568011762
    nsecs: 856317538
  frame_id: "imu_link"
vector: 
  x: -1.68618202209
  y: -0.878190398216
  z: 3.44000816345
---
header: 
  seq: 172
  stamp: 
    secs: 1568011762
    nsecs: 908126287
  frame_id: "imu_link"
vector: 
  x: -1.63763976097
  y: -0.870276212692
  z: 3.40872216225
---
header: 
  seq: 173
  stamp: 
    secs: 1568011762
    nsecs: 961296548
  frame_id: "imu_link"
vector: 
  x: -1.66367387772
  y: -0.854503750801
  z: 3.43401813507
---
header: 
  seq: 174
  stamp: 
    secs: 1568011763
    nsecs:  23074933
  frame_id: "imu_link"
vector: 
  x: -1.6783144474
  y: -0.854932188988
  z: 3.47136926651
---
header: 
  seq: 175
  stamp: 
    secs: 1568011763
    nsecs:  66283735
  frame_id: "imu_link"
vector: 
  x: -1.68400752544
  y: -0.8832706213
  z: 3.45093727112
---
header: 
  seq: 176
  stamp: 
    secs: 1568011763
    nsecs: 119716287
  frame_id: "imu_link"
vector: 
  x: -1.69024467468
  y: -0.86847782135
  z: 3.45193624496
---
header: 
  seq: 177
  stamp: 
    secs: 1568011763
    nsecs: 172449777
  frame_id: "imu_link"
vector: 
  x: -1.67212486267
  y: -0.877941608429
  z: 3.43461751938
---
header: 
  seq: 178
  stamp: 
    secs: 1568011763
    nsecs: 225436131
  frame_id: "imu_link"
vector: 
  x: -1.64795744419
  y: -0.886640310287
  z: 3.42399501801
---
header: 
  seq: 179
  stamp: 
    secs: 1568011763
    nsecs: 278407485
  frame_id: "imu_link"
vector: 
  x: -1.64379262924
  y: -0.869307756424
  z: 3.41388654709
---
header: 
  seq: 180
  stamp: 
    secs: 1568011763
    nsecs: 331903058
  frame_id: "imu_link"
vector: 
  x: -1.65250527859
  y: -0.845246911049
  z: 3.43621015549
---
header: 
  seq: 181
  stamp: 
    secs: 1568011763
    nsecs: 384852746
  frame_id: "imu_link"
vector: 
  x: -1.67008042336
  y: -0.859261631966
  z: 3.46342802048
---
header: 
  seq: 182
  stamp: 
    secs: 1568011763
    nsecs: 437774569
  frame_id: "imu_link"
vector: 
  x: -1.63725972176
  y: -0.878636658192
  z: 3.43687343597
---
header: 
  seq: 183
  stamp: 
    secs: 1568011763
    nsecs: 489700558
  frame_id: "imu_link"
vector: 
  x: -1.64970564842
  y: -0.897594094276
  z: 3.44594740868
---
header: 
  seq: 184
  stamp: 
    secs: 1568011763
    nsecs: 542791704
  frame_id: "imu_link"
vector: 
  x: -1.66523456573
  y: -0.890530705452
  z: 3.44096851349
---
header: 
  seq: 185
  stamp: 
    secs: 1568011763
    nsecs: 594667433
  frame_id: "imu_link"
vector: 
  x: -1.67476558685
  y: -0.878084182739
  z: 3.43085741997
---
header: 
  seq: 186
  stamp: 
    secs: 1568011763
    nsecs: 646846183
  frame_id: "imu_link"
vector: 
  x: -1.67256593704
  y: -0.865638077259
  z: 3.44327807426
---
header: 
  seq: 187
  stamp: 
    secs: 1568011763
    nsecs: 698780818
  frame_id: "imu_link"
vector: 
  x: -1.67835092545
  y: -0.877408266068
  z: 3.43104934692
---
header: 
  seq: 188
  stamp: 
    secs: 1568011763
    nsecs: 750503162
  frame_id: "imu_link"
vector: 
  x: -1.67057538033
  y: -0.890209555626
  z: 3.41706466675
---
header: 
  seq: 189
  stamp: 
    secs: 1568011763
    nsecs: 802468423
  frame_id: "imu_link"
vector: 
  x: -1.65412151814
  y: -0.884354293346
  z: 3.44653749466
---
header: 
  seq: 190
  stamp: 
    secs: 1568011763
    nsecs: 854508318
  frame_id: "imu_link"
vector: 
  x: -1.65004396439
  y: -0.899509131908
  z: 3.45003080368
---
header: 
  seq: 191
  stamp: 
    secs: 1568011763
    nsecs: 907450298
  frame_id: "imu_link"
vector: 
  x: -1.66609668732
  y: -0.899379014969
  z: 3.44236898422
---
header: 
  seq: 192
  stamp: 
    secs: 1568011763
    nsecs: 959169881
  frame_id: "imu_link"
vector: 
  x: -1.68610310555
  y: -0.895901441574
  z: 3.45193219185
---
header: 
  seq: 193
  stamp: 
    secs: 1568011764
    nsecs:  12251808
  frame_id: "imu_link"
vector: 
  x: -1.67063307762
  y: -0.896880865097
  z: 3.45235419273
---
header: 
  seq: 194
  stamp: 
    secs: 1568011764
    nsecs:  64122954
  frame_id: "imu_link"
vector: 
  x: -1.67079436779
  y: -0.889316082001
  z: 3.45254564285
---
header: 
  seq: 195
  stamp: 
    secs: 1568011764
    nsecs: 116120089
  frame_id: "imu_link"
vector: 
  x: -1.68114972115
  y: -0.878633975983
  z: 3.46141338348
---
header: 
  seq: 196
  stamp: 
    secs: 1568011764
    nsecs: 168352225
  frame_id: "imu_link"
vector: 
  x: -1.66892147064
  y: -0.876141905785
  z: 3.4542992115
---
header: 
  seq: 197
  stamp: 
    secs: 1568011764
    nsecs: 219831599
  frame_id: "imu_link"
vector: 
  x: -1.67739224434
  y: -0.897454023361
  z: 3.4718170166
---
header: 
  seq: 198
  stamp: 
    secs: 1568011764
    nsecs: 272884933
  frame_id: "imu_link"
vector: 
  x: -1.69423997402
  y: -0.8983284235
  z: 3.47846889496
---
header: 
  seq: 199
  stamp: 
    secs: 1568011764
    nsecs: 324749204
  frame_id: "imu_link"
vector: 
  x: -1.67995119095
  y: -0.888449311256
  z: 3.42741250992
---
header: 
  seq: 200
  stamp: 
    secs: 1568011764
    nsecs: 376586391
  frame_id: "imu_link"
vector: 
  x: -1.67796182632
  y: -0.887334704399
  z: 3.41482639313
---
header: 
  seq: 201
  stamp: 
    secs: 1568011764
    nsecs: 428923318
  frame_id: "imu_link"
vector: 
  x: -1.67039084435
  y: -0.886528491974
  z: 3.41004729271
---
header: 
  seq: 202
  stamp: 
    secs: 1568011764
    nsecs: 480159568
  frame_id: "imu_link"
vector: 
  x: -1.66031455994
  y: -0.869829952717
  z: 3.40798902512
---
header: 
  seq: 203
  stamp: 
    secs: 1568011764
    nsecs: 532012954
  frame_id: "imu_link"
vector: 
  x: -1.65768921375
  y: -0.904137134552
  z: 3.42295479774
---
header: 
  seq: 204
  stamp: 
    secs: 1568011764
    nsecs: 585591183
  frame_id: "imu_link"
vector: 
  x: -1.65820431709
  y: -0.909918189049
  z: 3.40477228165
---
header: 
  seq: 205
  stamp: 
    secs: 1568011764
    nsecs: 637180349
  frame_id: "imu_link"
vector: 
  x: -1.66533768177
  y: -0.904053628445
  z: 3.41449308395
---
header: 
  seq: 206
  stamp: 
    secs: 1568011764
    nsecs: 690315818
  frame_id: "imu_link"
vector: 
  x: -1.68009221554
  y: -0.886348009109
  z: 3.49010324478
---
header: 
  seq: 207
  stamp: 
    secs: 1568011764
    nsecs: 742120558
  frame_id: "imu_link"
vector: 
  x: -1.67486000061
  y: -0.893149614334
  z: 3.46879315376
---
header: 
  seq: 208
  stamp: 
    secs: 1568011764
    nsecs: 794050349
  frame_id: "imu_link"
vector: 
  x: -1.66915082932
  y: -0.912232279778
  z: 3.45083999634
---
header: 
  seq: 209
  stamp: 
    secs: 1568011764
    nsecs: 846142068
  frame_id: "imu_link"
vector: 
  x: -1.67738282681
  y: -0.921100258827
  z: 3.45193958282
---
header: 
  seq: 210
  stamp: 
    secs: 1568011764
    nsecs: 897629047
  frame_id: "imu_link"
vector: 
  x: -1.69490742683
  y: -0.885142207146
  z: 3.43620014191
---
header: 
  seq: 211
  stamp: 
    secs: 1568011764
    nsecs: 949424412
  frame_id: "imu_link"
vector: 
  x: -1.70504713058
  y: -0.878379046917
  z: 3.43680334091
---
header: 
  seq: 212
  stamp: 
    secs: 1568011765
    nsecs:   2627901
  frame_id: "imu_link"
vector: 
  x: -1.70600509644
  y: -0.858718693256
  z: 3.42784833908
---
header: 
  seq: 213
  stamp: 
    secs: 1568011765
    nsecs:  54345297
  frame_id: "imu_link"
vector: 
  x: -1.68846404552
  y: -0.871078848839
  z: 3.41916847229
---
header: 
  seq: 214
  stamp: 
    secs: 1568011765
    nsecs: 106195453
  frame_id: "imu_link"
vector: 
  x: -1.69553685188
  y: -0.863219320774
  z: 3.44695806503
---
header: 
  seq: 215
  stamp: 
    secs: 1568011765
    nsecs: 158072797
  frame_id: "imu_link"
vector: 
  x: -1.68072891235
  y: -0.842154920101
  z: 3.45039319992
---
header: 
  seq: 216
  stamp: 
    secs: 1568011765
    nsecs: 211206547
  frame_id: "imu_link"
vector: 
  x: -1.66831851006
  y: -0.849781513214
  z: 3.45169138908
---
header: 
  seq: 217
  stamp: 
    secs: 1568011765
    nsecs: 262889360
  frame_id: "imu_link"
vector: 
  x: -1.66030979156
  y: -0.86171746254
  z: 3.46882748604
---
header: 
  seq: 218
  stamp: 
    secs: 1568011765
    nsecs: 314682849
  frame_id: "imu_link"
vector: 
  x: -1.68106842041
  y: -0.876082897186
  z: 3.45911741257
---
header: 
  seq: 219
  stamp: 
    secs: 1568011765
    nsecs: 367820037
  frame_id: "imu_link"
vector: 
  x: -1.69572734833
  y: -0.881893575191
  z: 3.45544862747
---
header: 
  seq: 220
  stamp: 
    secs: 1568011765
    nsecs: 419611495
  frame_id: "imu_link"
vector: 
  x: -1.67057919502
  y: -0.861262857914
  z: 3.44064307213
---
header: 
  seq: 221
  stamp: 
    secs: 1568011765
    nsecs: 471348214
  frame_id: "imu_link"
vector: 
  x: -1.66349029541
  y: -0.892280817032
  z: 3.42936658859
---
header: 
  seq: 222
  stamp: 
    secs: 1568011765
    nsecs: 523062484
  frame_id: "imu_link"
vector: 
  x: -1.68474769592
  y: -0.905050873756
  z: 3.43387031555
---
header: 
  seq: 223
  stamp: 
    secs: 1568011765
    nsecs: 576158682
  frame_id: "imu_link"
vector: 
  x: -1.7110004425
  y: -0.89511346817
  z: 3.44459891319
---
header: 
  seq: 224
  stamp: 
    secs: 1568011765
    nsecs: 629319776
  frame_id: "imu_link"
vector: 
  x: -1.67811310291
  y: -0.864612817764
  z: 3.41302776337
---
header: 
  seq: 225
  stamp: 
    secs: 1568011765
    nsecs: 681190818
  frame_id: "imu_link"
vector: 
  x: -1.66707193851
  y: -0.868198513985
  z: 3.41805934906
---
header: 
  seq: 226
  stamp: 
    secs: 1568011765
    nsecs: 732997016
  frame_id: "imu_link"
vector: 
  x: -1.66234111786
  y: -0.87771910429
  z: 3.42021512985
---
header: 
  seq: 227
  stamp: 
    secs: 1568011765
    nsecs: 784782797
  frame_id: "imu_link"
vector: 
  x: -1.66712975502
  y: -0.882212162018
  z: 3.42114567757
---
header: 
  seq: 228
  stamp: 
    secs: 1568011765
    nsecs: 836584984
  frame_id: "imu_link"
vector: 
  x: -1.66020417213
  y: -0.904045581818
  z: 3.42172527313
---
header: 
  seq: 229
  stamp: 
    secs: 1568011765
    nsecs: 889654880
  frame_id: "imu_link"
vector: 
  x: -1.66967535019
  y: -0.893331766129
  z: 3.43058896065
---
header: 
  seq: 230
  stamp: 
    secs: 1568011765
    nsecs: 941527276
  frame_id: "imu_link"
vector: 
  x: -1.66000652313
  y: -0.896712481976
  z: 3.41683578491
---
header: 
  seq: 231
  stamp: 
    secs: 1568011765
    nsecs: 993270505
  frame_id: "imu_link"
vector: 
  x: -1.69460535049
  y: -0.895643830299
  z: 3.43449878693
---
header: 
  seq: 232
  stamp: 
    secs: 1568011766
    nsecs:  45214203
  frame_id: "imu_link"
vector: 
  x: -1.70157241821
  y: -0.906309485435
  z: 3.44486904144
---
header: 
  seq: 233
  stamp: 
    secs: 1568011766
    nsecs:  98375505
  frame_id: "imu_link"
vector: 
  x: -1.6943821907
  y: -0.917912602425
  z: 3.45808792114
---
header: 
  seq: 234
  stamp: 
    secs: 1568011766
    nsecs: 150738526
  frame_id: "imu_link"
vector: 
  x: -1.68029642105
  y: -0.897730946541
  z: 3.45483970642
---
header: 
  seq: 235
  stamp: 
    secs: 1568011766
    nsecs: 202505765
  frame_id: "imu_link"
vector: 
  x: -1.69295418262
  y: -0.86958694458
  z: 3.42796564102
---
header: 
  seq: 236
  stamp: 
    secs: 1568011766
    nsecs: 254220036
  frame_id: "imu_link"
vector: 
  x: -1.70086336136
  y: -0.863113462925
  z: 3.4420633316
---
header: 
  seq: 237
  stamp: 
    secs: 1568011766
    nsecs: 306036703
  frame_id: "imu_link"
vector: 
  x: -1.68288958073
  y: -0.875805675983
  z: 3.44842815399
---
header: 
  seq: 238
  stamp: 
    secs: 1568011766
    nsecs: 359155192
  frame_id: "imu_link"
vector: 
  x: -1.65358233452
  y: -0.862522304058
  z: 3.44432735443
---
header: 
  seq: 239
  stamp: 
    secs: 1568011766
    nsecs: 410994984
  frame_id: "imu_link"
vector: 
  x: -1.63950955868
  y: -0.8579621315
  z: 3.44029474258
---
header: 
  seq: 240
  stamp: 
    secs: 1568011766
    nsecs: 464028057
  frame_id: "imu_link"
vector: 
  x: -1.6510591507
  y: -0.86572176218
  z: 3.42922735214
---
header: 
  seq: 241
  stamp: 
    secs: 1568011766
    nsecs: 516052588
  frame_id: "imu_link"
vector: 
  x: -1.67253184319
  y: -0.869249224663
  z: 3.43380045891
---
header: 
  seq: 242
  stamp: 
    secs: 1568011766
    nsecs: 567793942
  frame_id: "imu_link"
vector: 
  x: -1.6759698391
  y: -0.87918317318
  z: 3.42905926704
---
header: 
  seq: 243
  stamp: 
    secs: 1568011766
    nsecs: 619777744
  frame_id: "imu_link"
vector: 
  x: -1.68366682529
  y: -0.891674995422
  z: 3.43398857117
---
header: 
  seq: 244
  stamp: 
    secs: 1568011766
    nsecs: 671934046
  frame_id: "imu_link"
vector: 
  x: -1.69329476357
  y: -0.897530972958
  z: 3.41829991341
---
header: 
  seq: 245
  stamp: 
    secs: 1568011766
    nsecs: 724829255
  frame_id: "imu_link"
vector: 
  x: -1.69959282875
  y: -0.879919528961
  z: 3.47633838654
---
header: 
  seq: 246
  stamp: 
    secs: 1568011766
    nsecs: 776520661
  frame_id: "imu_link"
vector: 
  x: -1.68599557877
  y: -0.907628417015
  z: 3.47137856483
---
header: 
  seq: 247
  stamp: 
    secs: 1568011766
    nsecs: 828687119
  frame_id: "imu_link"
vector: 
  x: -1.66713094711
  y: -0.902116417885
  z: 3.4519534111
---
header: 
  seq: 248
  stamp: 
    secs: 1568011766
    nsecs: 880047067
  frame_id: "imu_link"
vector: 
  x: -1.66236639023
  y: -0.900310635567
  z: 3.43481230736
---
header: 
  seq: 249
  stamp: 
    secs: 1568011766
    nsecs: 933071859
  frame_id: "imu_link"
vector: 
  x: -1.66653800011
  y: -0.89958268404
  z: 3.42408704758
---
header: 
  seq: 250
  stamp: 
    secs: 1568011766
    nsecs: 984783057
  frame_id: "imu_link"
vector: 
  x: -1.66556680202
  y: -0.907018601894
  z: 3.4315867424
---
header: 
  seq: 251
  stamp: 
    secs: 1568011767
    nsecs:  37847484
  frame_id: "imu_link"
vector: 
  x: -1.66861104965
  y: -0.88603746891
  z: 3.44361829758
---
header: 
  seq: 252
  stamp: 
    secs: 1568011767
    nsecs:  89624828
  frame_id: "imu_link"
vector: 
  x: -1.67767333984
  y: -0.861778736115
  z: 3.45110845566
---
header: 
  seq: 253
  stamp: 
    secs: 1568011767
    nsecs: 141631442
  frame_id: "imu_link"
vector: 
  x: -1.68735361099
  y: -0.860135018826
  z: 3.43444848061
---
header: 
  seq: 254
  stamp: 
    secs: 1568011767
    nsecs: 193688942
  frame_id: "imu_link"
vector: 
  x: -1.67094373703
  y: -0.859028816223
  z: 3.40966820717
---
header: 
  seq: 255
  stamp: 
    secs: 1568011767
    nsecs: 245359775
  frame_id: "imu_link"
vector: 
  x: -1.66045677662
  y: -0.866724014282
  z: 3.39027500153
---
header: 
  seq: 256
  stamp: 
    secs: 1568011767
    nsecs: 298545088
  frame_id: "imu_link"
vector: 
  x: -1.66703164577
  y: -0.874800801277
  z: 3.40364837646
---
header: 
  seq: 257
  stamp: 
    secs: 1568011767
    nsecs: 350384046
  frame_id: "imu_link"
vector: 
  x: -1.65195631981
  y: -0.873133480549
  z: 3.3876824379
---
header: 
  seq: 258
  stamp: 
    secs: 1568011767
    nsecs: 402092692
  frame_id: "imu_link"
vector: 
  x: -1.65930294991
  y: -0.879673719406
  z: 3.41597032547
---
header: 
  seq: 259
  stamp: 
    secs: 1568011767
    nsecs: 455020869
  frame_id: "imu_link"
vector: 
  x: -1.67225003242
  y: -0.868809223175
  z: 3.4375743866
---
header: 
  seq: 260
  stamp: 
    secs: 1568011767
    nsecs: 507023473
  frame_id: "imu_link"
vector: 
  x: -1.68850922585
  y: -0.87896835804
  z: 3.43739485741
---
header: 
  seq: 261
  stamp: 
    secs: 1568011767
    nsecs: 559928890
  frame_id: "imu_link"
vector: 
  x: -1.67838907242
  y: -0.874756217003
  z: 3.42854261398
---
header: 
  seq: 262
  stamp: 
    secs: 1568011767
    nsecs: 611942067
  frame_id: "imu_link"
vector: 
  x: -1.65219986439
  y: -0.888486981392
  z: 3.42451739311
---
header: 
  seq: 263
  stamp: 
    secs: 1568011767
    nsecs: 664048890
  frame_id: "imu_link"
vector: 
  x: -1.67077553272
  y: -0.900485575199
  z: 3.43867969513
---
header: 
  seq: 264
  stamp: 
    secs: 1568011767
    nsecs: 718095556
  frame_id: "imu_link"
vector: 
  x: -1.66729593277
  y: -0.900176405907
  z: 3.42032003403
---
header: 
  seq: 265
  stamp: 
    secs: 1568011767
    nsecs: 770659671
  frame_id: "imu_link"
vector: 
  x: -1.6692609787
  y: -0.875346779823
  z: 3.40270709991
---
header: 
  seq: 266
  stamp: 
    secs: 1568011767
    nsecs: 819626702
  frame_id: "imu_link"
vector: 
  x: -1.67336201668
  y: -0.873832762241
  z: 3.41070508957
---
header: 
  seq: 267
  stamp: 
    secs: 1568011767
    nsecs: 872645400
  frame_id: "imu_link"
vector: 
  x: -1.66850566864
  y: -0.871976315975
  z: 3.42582345009
---
header: 
  seq: 268
  stamp: 
    secs: 1568011767
    nsecs: 924480192
  frame_id: "imu_link"
vector: 
  x: -1.68420517445
  y: -0.864126801491
  z: 3.42343735695
---
header: 
  seq: 269
  stamp: 
    secs: 1568011767
    nsecs: 976494827
  frame_id: "imu_link"
vector: 
  x: -1.69698214531
  y: -0.885481834412
  z: 3.42253136635
---
header: 
  seq: 270
  stamp: 
    secs: 1568011768
    nsecs:  27995452
  frame_id: "imu_link"
vector: 
  x: -1.66648578644
  y: -0.913891911507
  z: 3.44331145287
---
header: 
  seq: 271
  stamp: 
    secs: 1568011768
    nsecs:  81178681
  frame_id: "imu_link"
vector: 
  x: -1.66549372673
  y: -0.91314291954
  z: 3.43968057632
---
header: 
  seq: 272
  stamp: 
    secs: 1568011768
    nsecs: 134395869
  frame_id: "imu_link"
vector: 
  x: -1.6718506813
  y: -0.905994832516
  z: 3.42070960999
---
header: 
  seq: 273
  stamp: 
    secs: 1568011768
    nsecs: 185318525
  frame_id: "imu_link"
vector: 
  x: -1.69152545929
  y: -0.874614655972
  z: 3.44672775269
---
header: 
  seq: 274
  stamp: 
    secs: 1568011768
    nsecs: 238201650
  frame_id: "imu_link"
vector: 
  x: -1.68622338772
  y: -0.873188853264
  z: 3.43177175522
---
header: 
  seq: 275
  stamp: 
    secs: 1568011768
    nsecs: 290035400
  frame_id: "imu_link"
vector: 
  x: -1.64678215981
  y: -0.870167016983
  z: 3.4348962307
---
header: 
  seq: 276
  stamp: 
    secs: 1568011768
    nsecs: 341756494
  frame_id: "imu_link"
vector: 
  x: -1.64006745815
  y: -0.885031938553
  z: 3.4450173378
---
header: 
  seq: 277
  stamp: 
    secs: 1568011768
    nsecs: 395010608
  frame_id: "imu_link"
vector: 
  x: -1.67176198959
  y: -0.877549290657
  z: 3.42366957664
---
header: 
  seq: 278
  stamp: 
    secs: 1568011768
    nsecs: 446933942
  frame_id: "imu_link"
vector: 
  x: -1.67454242706
  y: -0.866705179214
  z: 3.41383457184
---
header: 
  seq: 279
  stamp: 
    secs: 1568011768
    nsecs: 498976285
  frame_id: "imu_link"
vector: 
  x: -1.6861011982
  y: -0.869487702847
  z: 3.43594694138
---
header: 
  seq: 280
  stamp: 
    secs: 1568011768
    nsecs: 550611181
  frame_id: "imu_link"
vector: 
  x: -1.68425941467
  y: -0.878306508064
  z: 3.4454908371
---
header: 
  seq: 281
  stamp: 
    secs: 1568011768
    nsecs: 602539514
  frame_id: "imu_link"
vector: 
  x: -1.67799222469
  y: -0.876837849617
  z: 3.4211268425
---
header: 
  seq: 282
  stamp: 
    secs: 1568011768
    nsecs: 655764462
  frame_id: "imu_link"
vector: 
  x: -1.67731380463
  y: -0.857643246651
  z: 3.430331707
---
header: 
  seq: 283
  stamp: 
    secs: 1568011768
    nsecs: 707698473
  frame_id: "imu_link"
vector: 
  x: -1.68739056587
  y: -0.864831924438
  z: 3.46060276031
---
header: 
  seq: 284
  stamp: 
    secs: 1568011768
    nsecs: 759357848
  frame_id: "imu_link"
vector: 
  x: -1.6749484539
  y: -0.881196141243
  z: 3.44924640656
---
header: 
  seq: 285
  stamp: 
    secs: 1568011768
    nsecs: 811137483
  frame_id: "imu_link"
vector: 
  x: -1.66920161247
  y: -0.875160813332
  z: 3.44243693352
---
header: 
  seq: 286
  stamp: 
    secs: 1568011768
    nsecs: 864622848
  frame_id: "imu_link"
vector: 
  x: -1.67700242996
  y: -0.864739239216
  z: 3.44827771187
---
header: 
  seq: 287
  stamp: 
    secs: 1568011768
    nsecs: 915992900
  frame_id: "imu_link"
vector: 
  x: -1.67688286304
  y: -0.860220193863
  z: 3.44165468216
---
header: 
  seq: 288
  stamp: 
    secs: 1568011768
    nsecs: 969307796
  frame_id: "imu_link"
vector: 
  x: -1.66505861282
  y: -0.87362742424
  z: 3.42551994324
---
header: 
  seq: 289
  stamp: 
    secs: 1568011769
    nsecs:  21272171
  frame_id: "imu_link"
vector: 
  x: -1.65465831757
  y: -0.879674136639
  z: 3.42342829704
---
header: 
  seq: 290
  stamp: 
    secs: 1568011769
    nsecs:  73156858
  frame_id: "imu_link"
vector: 
  x: -1.66076159477
  y: -0.865800976753
  z: 3.43172550201
---
header: 
  seq: 291
  stamp: 
    secs: 1568011769
    nsecs: 124952431
  frame_id: "imu_link"
vector: 
  x: -1.69292402267
  y: -0.87493211031
  z: 3.45756363869
---
header: 
  seq: 292
  stamp: 
    secs: 1568011769
    nsecs: 177178473
  frame_id: "imu_link"
vector: 
  x: -1.71792006493
  y: -0.881978929043
  z: 3.46355485916
---
header: 
  seq: 293
  stamp: 
    secs: 1568011769
    nsecs: 230113056
  frame_id: "imu_link"
vector: 
  x: -1.70771837234
  y: -0.867140293121
  z: 3.46627354622
---
header: 
  seq: 294
  stamp: 
    secs: 1568011769
    nsecs: 282067118
  frame_id: "imu_link"
vector: 
  x: -1.69357323647
  y: -0.869292080402
  z: 3.45853042603
---
header: 
  seq: 295
  stamp: 
    secs: 1568011769
    nsecs: 333935452
  frame_id: "imu_link"
vector: 
  x: -1.69325780869
  y: -0.904436230659
  z: 3.47509002686
---
header: 
  seq: 296
  stamp: 
    secs: 1568011769
    nsecs: 385762795
  frame_id: "imu_link"
vector: 
  x: -1.69410848618
  y: -0.87711417675
  z: 3.44314908981
---
header: 
  seq: 297
  stamp: 
    secs: 1568011769
    nsecs: 437646337
  frame_id: "imu_link"
vector: 
  x: -1.67384445667
  y: -0.834313213825
  z: 3.41340446472
---
header: 
  seq: 298
  stamp: 
    secs: 1568011769
    nsecs: 489314983
  frame_id: "imu_link"
vector: 
  x: -1.66402769089
  y: -0.857809841633
  z: 3.43399763107
---
header: 
  seq: 299
  stamp: 
    secs: 1568011769
    nsecs: 542265035
  frame_id: "imu_link"
vector: 
  x: -1.65376806259
  y: -0.889765739441
  z: 3.44522333145
---
header: 
  seq: 300
  stamp: 
    secs: 1568011769
    nsecs: 594705660
  frame_id: "imu_link"
vector: 
  x: -1.65325164795
  y: -0.878455162048
  z: 3.44068932533
---
header: 
  seq: 301
  stamp: 
    secs: 1568011769
    nsecs: 647516285
  frame_id: "imu_link"
vector: 
  x: -1.67021214962
  y: -0.873411893845
  z: 3.46506333351
---
header: 
  seq: 302
  stamp: 
    secs: 1568011769
    nsecs: 699313785
  frame_id: "imu_link"
vector: 
  x: -1.64884698391
  y: -0.891919434071
  z: 3.47458815575
---
header: 
  seq: 303
  stamp: 
    secs: 1568011769
    nsecs: 750992743
  frame_id: "imu_link"
vector: 
  x: -1.66140365601
  y: -0.887564837933
  z: 3.46211147308
---
header: 
  seq: 304
  stamp: 
    secs: 1568011769
    nsecs: 804123889
  frame_id: "imu_link"
vector: 
  x: -1.67365384102
  y: -0.894070863724
  z: 3.45672631264
---
header: 
  seq: 305
  stamp: 
    secs: 1568011769
    nsecs: 856038733
  frame_id: "imu_link"
vector: 
  x: -1.68014097214
  y: -0.863567471504
  z: 3.40018963814
---
header: 
  seq: 306
  stamp: 
    secs: 1568011769
    nsecs: 908055087
  frame_id: "imu_link"
vector: 
  x: -1.66784656048
  y: -0.852501034737
  z: 3.39495706558
---
header: 
  seq: 307
  stamp: 
    secs: 1568011769
    nsecs: 959886649
  frame_id: "imu_link"
vector: 
  x: -1.66603446007
  y: -0.855558395386
  z: 3.40149021149
---
header: 
  seq: 308
  stamp: 
    secs: 1568011770
    nsecs:  11613420
  frame_id: "imu_link"
vector: 
  x: -1.68234109879
  y: -0.881408691406
  z: 3.4130795002
---
header: 
  seq: 309
  stamp: 
    secs: 1568011770
    nsecs:  63521181
  frame_id: "imu_link"
vector: 
  x: -1.67550134659
  y: -0.900654911995
  z: 3.41157913208
---
header: 
  seq: 310
  stamp: 
    secs: 1568011770
    nsecs: 115294878
  frame_id: "imu_link"
vector: 
  x: -1.67624270916
  y: -0.899879097939
  z: 3.42619991302
---
header: 
  seq: 311
  stamp: 
    secs: 1568011770
    nsecs: 168322222
  frame_id: "imu_link"
vector: 
  x: -1.66974639893
  y: -0.89117783308
  z: 3.4324965477
---
header: 
  seq: 312
  stamp: 
    secs: 1568011770
    nsecs: 220305972
  frame_id: "imu_link"
vector: 
  x: -1.66558301449
  y: -0.890844225883
  z: 3.41888809204
---
header: 
  seq: 313
  stamp: 
    secs: 1568011770
    nsecs: 272012326
  frame_id: "imu_link"
vector: 
  x: -1.65805220604
  y: -0.905131578445
  z: 3.37669444084
---
header: 
  seq: 314
  stamp: 
    secs: 1568011770
    nsecs: 325097587
  frame_id: "imu_link"
vector: 
  x: -1.65489792824
  y: -0.886538267136
  z: 3.37607288361
---
header: 
  seq: 315
  stamp: 
    secs: 1568011770
    nsecs: 378423368
  frame_id: "imu_link"
vector: 
  x: -1.66803896427
  y: -0.852125287056
  z: 3.41277861595
---
header: 
  seq: 316
  stamp: 
    secs: 1568011770
    nsecs: 429982639
  frame_id: "imu_link"
vector: 
  x: -1.65021157265
  y: -0.848917782307
  z: 3.41138887405
---
header: 
  seq: 317
  stamp: 
    secs: 1568011770
    nsecs: 481763003
  frame_id: "imu_link"
vector: 
  x: -1.66189551353
  y: -0.85383015871
  z: 3.41734266281
---
header: 
  seq: 318
  stamp: 
    secs: 1568011770
    nsecs: 533410191
  frame_id: "imu_link"
vector: 
  x: -1.67440378666
  y: -0.856468200684
  z: 3.42004966736
---
header: 
  seq: 319
  stamp: 
    secs: 1568011770
    nsecs: 585573732
  frame_id: "imu_link"
vector: 
  x: -1.67309451103
  y: -0.878605723381
  z: 3.46039438248
---
header: 
  seq: 320
  stamp: 
    secs: 1568011770
    nsecs: 638250139
  frame_id: "imu_link"
vector: 
  x: -1.68213748932
  y: -0.866033196449
  z: 3.46478366852
---
header: 
  seq: 321
  stamp: 
    secs: 1568011770
    nsecs: 690281389
  frame_id: "imu_link"
vector: 
  x: -1.68247771263
  y: -0.844519734383
  z: 3.43902540207
---
header: 
  seq: 322
  stamp: 
    secs: 1568011770
    nsecs: 742082899
  frame_id: "imu_link"
vector: 
  x: -1.66216015816
  y: -0.867138385773
  z: 3.42924451828
---
header: 
  seq: 323
  stamp: 
    secs: 1568011770
    nsecs: 795027743
  frame_id: "imu_link"
vector: 
  x: -1.67460811138
  y: -0.896417140961
  z: 3.44454860687
---
header: 
  seq: 324
  stamp: 
    secs: 1568011770
    nsecs: 847519982
  frame_id: "imu_link"
vector: 
  x: -1.6759250164
  y: -0.898141980171
  z: 3.44017601013
---
header: 
  seq: 325
  stamp: 
    secs: 1568011770
    nsecs: 899874826
  frame_id: "imu_link"
vector: 
  x: -1.67296290398
  y: -0.890982151031
  z: 3.42971730232
---
header: 
  seq: 326
  stamp: 
    secs: 1568011770
    nsecs: 951672743
  frame_id: "imu_link"
vector: 
  x: -1.65363693237
  y: -0.8656488657
  z: 3.43586492538
---
header: 
  seq: 327
  stamp: 
    secs: 1568011771
    nsecs:   3706961
  frame_id: "imu_link"
vector: 
  x: -1.66753447056
  y: -0.877418637276
  z: 3.43670153618
---
header: 
  seq: 328
  stamp: 
    secs: 1568011771
    nsecs:  55287378
  frame_id: "imu_link"
vector: 
  x: -1.67617154121
  y: -0.898424327374
  z: 3.4282438755
---
header: 
  seq: 329
  stamp: 
    secs: 1568011771
    nsecs: 108437534
  frame_id: "imu_link"
vector: 
  x: -1.67643535137
  y: -0.915639996529
  z: 3.41582584381
---
header: 
  seq: 330
  stamp: 
    secs: 1568011771
    nsecs: 160272691
  frame_id: "imu_link"
vector: 
  x: -1.64287805557
  y: -0.895138859749
  z: 3.43005824089
---
header: 
  seq: 331
  stamp: 
    secs: 1568011771
    nsecs: 212188159
  frame_id: "imu_link"
vector: 
  x: -1.64164733887
  y: -0.881108641624
  z: 3.41657781601
---
header: 
  seq: 332
  stamp: 
    secs: 1568011771
    nsecs: 265306128
  frame_id: "imu_link"
vector: 
  x: -1.64112007618
  y: -0.883081197739
  z: 3.41080188751
---
header: 
  seq: 333
  stamp: 
    secs: 1568011771
    nsecs: 316973472
  frame_id: "imu_link"
vector: 
  x: -1.67852282524
  y: -0.876923322678
  z: 3.4346408844
---
header: 
  seq: 334
  stamp: 
    secs: 1568011771
    nsecs: 368878888
  frame_id: "imu_link"
vector: 
  x: -1.68485355377
  y: -0.884094297886
  z: 3.44079065323
---
header: 
  seq: 335
  stamp: 
    secs: 1568011771
    nsecs: 422149878
  frame_id: "imu_link"
vector: 
  x: -1.66663908958
  y: -0.876012682915
  z: 3.43878030777
---
header: 
  seq: 336
  stamp: 
    secs: 1568011771
    nsecs: 473856440
  frame_id: "imu_link"
vector: 
  x: -1.66561031342
  y: -0.880899310112
  z: 3.43791460991
---
header: 
  seq: 337
  stamp: 
    secs: 1568011771
    nsecs: 525798263
  frame_id: "imu_link"
vector: 
  x: -1.66460335255
  y: -0.872710466385
  z: 3.42859697342
---
header: 
  seq: 338
  stamp: 
    secs: 1568011771
    nsecs: 577409045
  frame_id: "imu_link"
vector: 
  x: -1.66463768482
  y: -0.880230307579
  z: 3.41597795486
---
header: 
  seq: 339
  stamp: 
    secs: 1568011771
    nsecs: 630608680
  frame_id: "imu_link"
vector: 
  x: -1.66138136387
  y: -0.882151842117
  z: 3.43691563606
---
header: 
  seq: 340
  stamp: 
    secs: 1568011771
    nsecs: 685436961
  frame_id: "imu_link"
vector: 
  x: -1.66355252266
  y: -0.874411642551
  z: 3.45561504364
---
header: 
  seq: 341
  stamp: 
    secs: 1568011771
    nsecs: 734829201
  frame_id: "imu_link"
vector: 
  x: -1.67592990398
  y: -0.848154008389
  z: 3.46199464798
---
header: 
  seq: 342
  stamp: 
    secs: 1568011771
    nsecs: 787984305
  frame_id: "imu_link"
vector: 
  x: -1.6697075367
  y: -0.860164284706
  z: 3.46546316147
---
header: 
  seq: 343
  stamp: 
    secs: 1568011771
    nsecs: 838333524
  frame_id: "imu_link"
vector: 
  x: -1.66678273678
  y: -0.883233487606
  z: 3.44854402542
---
header: 
  seq: 344
  stamp: 
    secs: 1568011771
    nsecs: 890065451
  frame_id: "imu_link"
vector: 
  x: -1.68469583988
  y: -0.880893468857
  z: 3.43935275078
---
header: 
  seq: 345
  stamp: 
    secs: 1568011771
    nsecs: 943049617
  frame_id: "imu_link"
vector: 
  x: -1.68010652065
  y: -0.876153290272
  z: 3.42060995102
---
header: 
  seq: 346
  stamp: 
    secs: 1568011771
    nsecs: 996349357
  frame_id: "imu_link"
vector: 
  x: -1.68156409264
  y: -0.891426444054
  z: 3.40285801888
---
header: 
  seq: 347
  stamp: 
    secs: 1568011772
    nsecs:  48055190
  frame_id: "imu_link"
vector: 
  x: -1.69238901138
  y: -0.897423923016
  z: 3.40489292145
---
header: 
  seq: 348
  stamp: 
    secs: 1568011772
    nsecs:  99952899
  frame_id: "imu_link"
vector: 
  x: -1.68897914886
  y: -0.880008101463
  z: 3.43247318268
---
header: 
  seq: 349
  stamp: 
    secs: 1568011772
    nsecs: 151779201
  frame_id: "imu_link"
vector: 
  x: -1.67823576927
  y: -0.856533288956
  z: 3.46308469772
---
header: 
  seq: 350
  stamp: 
    secs: 1568011772
    nsecs: 204240607
  frame_id: "imu_link"
vector: 
  x: -1.66712462902
  y: -0.848725676537
  z: 3.43955469131
---
header: 
  seq: 351
  stamp: 
    secs: 1568011772
    nsecs: 255804982
  frame_id: "imu_link"
vector: 
  x: -1.65252888203
  y: -0.885502457619
  z: 3.43010592461
---
header: 
  seq: 352
  stamp: 
    secs: 1568011772
    nsecs: 308897638
  frame_id: "imu_link"
vector: 
  x: -1.67801499367
  y: -0.859538674355
  z: 3.46213722229
---
header: 
  seq: 353
  stamp: 
    secs: 1568011772
    nsecs: 360784044
  frame_id: "imu_link"
vector: 
  x: -1.68425047398
  y: -0.857845366001
  z: 3.46553206444
---
header: 
  seq: 354
  stamp: 
    secs: 1568011772
    nsecs: 412539878
  frame_id: "imu_link"
vector: 
  x: -1.66637945175
  y: -0.888660669327
  z: 3.44943571091
---
header: 
  seq: 355
  stamp: 
    secs: 1568011772
    nsecs: 464394305
  frame_id: "imu_link"
vector: 
  x: -1.63523387909
  y: -0.856287837029
  z: 3.41384220123
---
header: 
  seq: 356
  stamp: 
    secs: 1568011772
    nsecs: 518114617
  frame_id: "imu_link"
vector: 
  x: -1.6383510828
  y: -0.880322933197
  z: 3.4096326828
---
header: 
  seq: 357
  stamp: 
    secs: 1568011772
    nsecs: 569007690
  frame_id: "imu_link"
vector: 
  x: -1.66029131413
  y: -0.883144855499
  z: 3.42539620399
---
header: 
  seq: 358
  stamp: 
    secs: 1568011772
    nsecs: 622170711
